,Time,Distance,GPS Latitude,GPS Longitude,Damper Velocity (Calc) FL,Damper Velocity (Calc) FR,Damper Velocity (Calc) RL,Damper Velocity (Calc) RR,Corr Dist,Corr Dist (Unstretched),Corr Speed,ABS Active,ABS Enabled,AID Allow Tire Blankets,AID Auto Blip,AID Auto Clutch,AID Auto Shift,AID Fuel Rate,AID Ideal Line,AID Mech Damage,AID Stability,AID Tire Wear Rate,Air Density,Air Temp,Ballast,Best Lap Delta,Best Lap Time,Brake Bias,Brake Pos,Brake Temp FL,Brake Temp FR,Brake Temp RL,Brake Temp RR,CG Accel Lateral,CG Accel Longitudinal,CG Accel Vertical,CG Height,Camber FL,Camber FR,Camber RL,Camber RR,Car Coord X,Car Coord Y,Car Coord Z,Car Damage Front,Car Damage Left,Car Damage Rear,Car Damage Right,Car Pos Norm,Caster FL,Caster FR,Chassis Pitch Angle,Chassis Pitch Rate,Chassis Roll Angle,Chassis Roll Rate,Chassis Velocity X,Chassis Velocity Y,Chassis Velocity Z,Chassis Yaw Rate,Clutch Pos,DRS Active,DRS Available,Drive Train Speed,ERS Heat Charging,ERS Is Charging,ERS Max Energy,ERS Power Level,ERS Recovery Level,Engine Brake Setting,Engine Limiter,Engine RPM,Flags,Fuel Level,Gear,Ground Speed,HR Sample Clock,In Pit,KERS Charge,KERS Deployed Energy,KERS Input,KERS Max Energy,LR Sample Clock,Lap Invalidated,Lap Time,Lap Time2,Last Lap Time,Last Sector Time,MR Sample Clock,Max Fuel,Max Power,Max RPM,Max Sus Travel FL,Max Sus Travel FR,Max Sus Travel RL,Max Sus Travel RR,Max Torque,Max Turbo Boost,Num Tires Off Track,Penalties Enabled,Position,Raw Data Sample Rate,Ride Height FL,Ride Height FR,Ride Height RL,Ride Height RR,Road Temp,Self Align Torque FL,Self Align Torque FR,Self Align Torque RL,Self Align Torque RR,Session Lap Count,Session Time Left,Steering Angle,Surface Grip,Suspension Travel FL,Suspension Travel FR,Suspension Travel RL,Suspension Travel RR,TC Active,TC Enabled,Throttle Pos,Tire Dirt Level FL,Tire Dirt Level FR,Tire Dirt Level RL,Tire Dirt Level RR,Tire Load FL,Tire Load FR,Tire Load RL,Tire Load RR,Tire Loaded Radius FL,Tire Loaded Radius FR,Tire Loaded Radius RL,Tire Loaded Radius RR,Tire Pressure FL,Tire Pressure FR,Tire Pressure RL,Tire Pressure RR,Tire Radius FL,Tire Radius FR,Tire Radius RL,Tire Radius RR,Tire Rubber Grip FL,Tire Rubber Grip FR,Tire Rubber Grip RL,Tire Rubber Grip RR,Tire Slip Angle FL,Tire Slip Angle FR,Tire Slip Angle RL,Tire Slip Angle RR,Tire Slip Ratio FL,Tire Slip Ratio FR,Tire Slip Ratio RL,Tire Slip Ratio RR,Tire Temp Core FL,Tire Temp Core FR,Tire Temp Core RL,Tire Temp Core RR,Tire Temp Inner FL,Tire Temp Inner FR,Tire Temp Inner RL,Tire Temp Inner RR,Tire Temp Middle FL,Tire Temp Middle FR,Tire Temp Middle RL,Tire Temp Middle RR,Tire Temp Outer FL,Tire Temp Outer FR,Tire Temp Outer RL,Tire Temp Outer RR,Toe In FL,Toe In FR,Toe In RL,Toe In RR,Turbo Boost,Wheel Angular Speed FL,Wheel Angular Speed FR,Wheel Angular Speed RL,Wheel Angular Speed RR,Wind Direction,Wind Speed,CG Distance,Lateral Velocity,Longitudinal Velocity,Lateral Acceleration,Longitudinal Acceleration,level,curve_number
681,34.0,1212.6,44.05450255930591,-78.6836770885898,-13.1,4.2,3.1,26.8,6320.7,6321.0,144.3,0.0,1.0,1.0,0.0,1.0,1.0,0.0,0.0,0.0,100.0,1.0,1.186,26.0,0.0,-1.899,50.194,66.0,0.0,26.0,26.0,26.0,26.0,-1.09,-0.15,0.01,383.9,-1.8,-3.29,-0.7,-2.23,-930.84,676.57,5.5,0.0,0.0,0.0,0.0,0.71,-7.49,-7.49,-0.71,0.13,-1.26,2.5,40.05,-1.21,-0.5,4.27,100.0,0.0,0.0,112.2,0.0,0.0,0.0,0.0,0.0,0.0,0.0,5985.0,0.0,30.0,4.0,144.3,1.0,0.0,0.0,0.0,0.0,0.0,0.0,0.0,34.034,34.034,50.194,16.866,1.0,110.0,435.8,8750.0,0.0,0.0,110.0,110.0,433.0,0.0,0.0,0.0,1.0,333.3,71.6,71.6,76.0,76.0,34.0,-103.2,-14.6,-108.2,-32.0,3.0,-218.365,-3.5,100.0,29.5,14.3,39.5,20.6,0.0,1.0,0.0,0.0,0.0,0.0,0.0,5774.0,1786.0,5461.0,2550.0,310.4,320.1,341.5,348.4,25.11,22.93,26.14,24.79,325.0,325.0,355.0,355.0,100.0,99.94,100.0,100.0,-1.48,-1.4,-2.05,-1.85,-0.0,-0.0,-0.4,-0.3,82.9,69.3,83.2,74.7,84.8,72.5,84.9,77.6,81.5,69.4,83.1,75.2,78.9,67.8,82.0,74.1,-0.19,0.2,0.06,0.09,0.0,123.05,122.7,112.2,112.2,174.7,27.6,1.1003181358134566,100.82847907016928,101.18858076955048,86.4244104120931,32.40915408235509,1,9
682,34.05,1214.6,44.0545155994692,-78.68369003882093,-21.2,18.0,-13.7,35.2,6322.7,6323.0,144.0,0.0,1.0,1.0,0.0,1.0,1.0,0.0,0.0,0.0,100.0,1.0,1.186,26.0,0.0,-1.896,50.194,66.0,0.0,26.0,26.0,26.0,26.0,-0.83,-0.14,-0.06,383.6,-1.94,-3.18,-0.86,-2.1,-932.28,678.02,5.5,0.0,0.0,0.0,0.0,0.71,-7.49,-7.49,-0.7,0.15,-1.09,4.17,39.97,-0.84,-0.48,1.32,100.0,0.0,0.0,112.04,0.0,0.0,0.0,0.0,0.0,0.0,0.0,5976.0,0.0,30.0,4.0,144.0,0.0,0.0,0.0,0.0,0.0,0.0,0.0,0.0,34.086,34.086,50.194,16.866,0.0,110.0,435.8,8750.0,0.0,0.0,110.0,110.0,433.0,0.0,0.0,0.0,1.0,333.3,71.8,71.8,75.4,75.4,34.0,-80.3,-12.08,-89.6,-28.7,3.0,-218.415,-3.5,100.0,28.4,15.2,38.8,22.4,0.0,1.0,0.0,0.0,0.0,0.0,0.0,5300.0,2122.0,5131.0,2987.0,311.5,319.2,342.3,347.3,25.11,22.93,26.14,24.79,325.0,325.0,355.0,355.0,100.0,99.94,100.0,100.0,-1.06,-0.98,-1.43,-1.25,-0.0,-0.0,-0.4,-0.2,82.9,69.3,83.2,74.7,84.8,72.5,84.9,77.5,81.5,69.3,83.1,75.2,78.9,67.8,82.0,74.1,-0.21,0.19,0.07,0.09,0.0,122.68,122.62,112.04,112.04,174.7,27.6,0.8438601779915912,108.03051325695145,106.23000473159432,14.404067975247727,-21.606102531895175,1,9
683,34.1,1216.6,44.054529538954085,-78.68370361857718,-31.4,32.0,-34.9,51.6,6324.7,6325.0,143.7,0.0,1.0,1.0,0.0,1.0,1.0,0.0,0.0,0.0,100.0,1.0,1.186,26.0,0.0,-1.896,50.194,66.0,0.0,26.0,26.0,26.0,26.0,-0.54,-0.14,-0.05,383.4,-2.11,-2.97,-1.07,-1.93,-933.79,679.57,5.5,0.0,0.0,0.0,0.0,0.71,-7.49,-7.49,-0.7,-0.13,-0.83,4.97,39.9,-0.49,-0.47,-0.55,100.0,0.0,0.0,111.86,0.0,0.0,0.0,0.0,0.0,0.0,0.0,5966.0,0.0,30.0,4.0,143.7,1.0,0.0,0.0,0.0,0.0,0.0,0.0,0.0,34.14,34.14,50.194,16.866,1.0,110.0,435.8,8750.0,0.0,0.0,110.0,110.0,433.0,0.0,0.0,0.0,1.0,166.7,71.8,71.8,75.1,75.1,34.0,-55.8,-7.51,-61.2,-16.8,3.0,-218.47,-2.2,100.0,26.9,16.8,37.1,25.0,0.0,1.0,0.0,0.0,0.0,0.0,0.0,4699.0,2651.0,4628.0,3435.0,313.0,317.8,343.5,346.1,25.11,22.93,26.14,24.79,325.0,325.0,355.0,355.0,100.0,99.94,100.0,100.0,-0.7,-0.61,-0.88,-0.69,0.0,0.0,-0.3,-0.3,82.9,69.3,83.2,74.7,84.7,72.5,84.9,77.5,81.5,69.3,83.1,75.2,78.9,67.7,82.0,74.1,-0.14,0.14,0.06,0.08,0.0,122.37,122.48,111.85,111.85,174.7,27.6,0.5600892785976179,102.26888586769405,99.02797051636097,-86.4244104120931,-111.63153079133608,1,9
684,34.15,1218.6,44.0545411402028,-78.6837147701651,-27.2,30.5,-35.6,39.0,6326.7,6327.0,143.4,0.0,1.0,1.0,0.0,1.0,1.0,0.0,0.0,0.0,100.0,1.0,1.186,26.0,0.0,-1.899,50.194,66.0,0.0,26.0,26.0,26.0,26.0,-0.38,-0.14,0.02,383.2,-2.28,-2.84,-1.2,-1.75,-935.03,680.86,5.5,0.0,0.0,0.0,0.0,0.71,-7.49,-7.49,-0.71,-0.36,-0.63,3.82,39.84,-0.27,-0.47,-0.71,100.0,0.0,0.0,111.7,0.0,0.0,0.0,0.0,0.0,0.0,0.0,5958.0,0.0,30.0,4.0,143.4,0.0,0.0,0.0,0.0,0.0,0.0,0.0,0.0,34.186,34.186,50.194,16.866,0.0,110.0,435.8,8750.0,0.0,0.0,110.0,110.0,433.0,0.0,0.0,0.0,1.0,166.7,71.4,71.4,75.1,75.1,34.0,-45.9,-5.48,-41.6,-4.7,3.0,-218.515,1.6,100.0,25.5,18.4,35.3,26.9,0.0,1.0,0.0,0.0,0.0,0.0,0.0,4409.0,3071.0,4314.0,3749.0,313.8,316.7,344.3,345.3,25.11,22.93,26.14,24.79,325.0,325.0,355.0,355.0,100.0,99.94,100.0,100.0,-0.55,-0.48,-0.53,-0.36,-0.0,0.0,-0.2,-0.2,82.9,69.3,83.2,74.7,84.7,72.4,84.9,77.5,81.4,69.3,83.1,75.1,78.8,67.7,81.9,74.1,0.05,-0.06,0.07,0.08,0.0,122.17,122.29,111.7,111.7,174.7,27.6,0.4054626986542659,99.38807221574214,95.06685165246071,36.01017136067881,14.404067975247585,1,9
685,34.2,1220.6,44.05455436023041,-78.68372736066758,-17.2,26.6,-27.6,31.5,6328.7,6329.0,143.2,0.0,1.0,1.0,0.0,1.0,1.0,0.0,0.0,0.0,100.0,1.0,1.186,26.0,0.0,-1.902,50.194,66.0,0.7,26.0,26.0,26.0,26.0,-0.32,-0.17,-0.04,383.1,-2.42,-2.71,-1.32,-1.68,-936.43,682.33,5.5,0.0,0.0,0.0,0.0,0.71,-7.49,-7.49,-0.72,-0.16,-0.49,1.66,39.77,-0.11,-0.47,1.23,100.0,0.0,0.0,111.5,0.0,0.0,0.0,0.0,0.0,0.0,0.0,5948.0,0.0,30.0,4.0,143.2,1.0,0.0,0.0,0.0,0.0,0.0,0.0,0.0,34.236,34.236,50.194,16.866,1.0,110.0,435.8,8750.0,0.0,0.0,110.0,110.0,433.0,0.0,0.0,0.0,1.0,333.3,71.1,71.1,75.3,75.3,34.0,-48.4,-9.62,-30.5,6.3,3.0,-218.565,9.3,100.0,24.6,19.7,33.9,28.5,0.0,1.0,0.0,0.0,0.0,0.0,0.0,4280.0,3263.0,4187.0,3775.0,314.1,316.1,344.6,345.2,25.11,22.93,26.14,24.79,325.0,325.0,355.0,355.0,100.0,99.94,100.0,100.0,-0.63,-0.57,-0.32,-0.14,-0.1,-0.0,-0.3,-0.2,82.9,69.3,83.1,74.7,84.7,72.4,84.8,77.4,81.4,69.3,83.0,75.1,78.8,67.7,81.9,74.0,0.47,-0.47,0.07,0.07,0.0,121.97,121.97,111.5,111.5,174.7,27.6,0.36455452267116367,105.86990300376193,100.46837731388572,36.01017079165487,18.00508553808328,1,9
686,34.25,1222.6,44.054567580258016,-78.6837398612379,-7.5,6.1,-2.0,12.4,6330.7,6331.0,142.9,0.0,1.0,1.0,0.0,1.0,1.0,0.0,0.0,0.0,100.0,1.0,1.186,26.0,0.0,-1.908,50.194,66.0,3.5,26.0,26.0,26.0,26.0,-0.41,-0.19,0.01,382.9,-2.43,-2.69,-1.3,-1.69,-937.82,683.8,5.5,0.0,0.0,0.0,0.0,0.71,-7.49,-7.49,-0.73,0.07,-0.47,-0.2,39.68,-0.04,-0.47,4.93,100.0,0.0,0.0,111.21,0.0,0.0,0.0,0.0,0.0,0.0,0.0,5932.0,0.0,30.0,4.0,142.9,0.0,0.0,0.0,0.0,0.0,0.0,0.0,0.0,34.287,34.287,50.194,16.866,0.0,110.0,435.8,8750.0,0.0,0.0,110.0,110.0,433.0,0.0,0.0,0.0,1.0,333.3,70.9,70.9,75.2,75.2,34.0,-61.7,-16.77,-31.3,6.0,3.0,-218.615,17.4,100.0,24.3,20.0,33.8,29.1,0.0,1.0,0.0,0.0,0.0,0.0,0.0,4576.0,3139.0,4362.0,3554.0,313.4,316.4,344.2,345.8,25.11,22.93,26.14,24.79,325.0,325.0,355.0,355.0,100.0,99.94,100.0,100.0,-0.85,-0.8,-0.31,-0.14,-0.2,-0.1,-0.4,-0.2,82.9,69.3,83.1,74.7,84.6,72.4,84.8,77.4,81.4,69.2,83.0,75.1,78.8,67.7,81.8,74.0,0.95,-0.97,0.07,0.06,0.0,121.71,121.33,111.21,111.21,174.7,27.6,0.45199557519958083,102.98908929490763,96.86736020626904,-25.207119810219183,-46.81322205760253,1,9
687,34.3,1224.5,44.05458008082834,-78.68375155241877,2.8,-4.9,11.0,-3.8,6332.7,6333.0,142.5,0.0,1.0,1.0,0.0,1.0,1.0,0.0,0.0,0.0,100.0,1.0,1.186,26.0,0.0,-1.905,50.194,66.0,14.3,26.0,26.0,26.0,26.0,-0.55,-0.34,-0.01,382.7,-2.43,-2.69,-1.25,-1.71,-939.12,685.19,5.5,0.0,0.0,0.0,0.0,0.71,-7.49,-7.49,-0.72,-0.03,-0.49,-0.73,39.56,-0.06,-0.47,9.37,100.0,0.0,0.0,110.67,0.0,0.0,0.0,0.0,0.0,0.0,0.0,5903.0,0.0,30.0,4.0,142.5,1.0,0.0,0.0,0.0,0.0,0.0,0.0,0.0,34.336,34.336,50.194,16.866,1.0,110.0,435.8,8750.0,0.0,0.0,110.0,110.0,433.0,0.0,0.0,0.0,1.0,333.3,70.8,70.8,75.1,75.1,34.0,-78.2,-22.55,-41.8,-1.4,3.0,-218.665,25.0,100.0,24.4,19.7,34.4,28.9,0.0,1.0,0.0,0.0,0.0,0.0,0.0,4947.0,2883.0,4603.0,3357.0,312.5,317.1,343.6,346.3,25.11,22.93,26.14,24.79,325.0,325.0,355.0,355.0,100.0,99.94,100.0,100.0,-1.16,-1.12,-0.46,-0.29,-0.6,-0.7,-0.5,-0.4,82.9,69.3,83.1,74.7,84.6,72.4,84.7,77.3,81.4,69.2,82.9,75.0,78.8,67.6,81.8,73.9,1.38,-1.41,0.08,0.07,0.0,120.93,119.97,110.91,110.43,174.7,27.6,0.6466838485689897,103.34919102274002,95.78705510812547,36.01017136067853,3.6010175628356933,1,9
688,34.35,1226.5,44.054593390788106,-78.68376378319262,23.2,-9.4,13.8,-24.7,6334.6,6335.0,141.6,0.0,1.0,1.0,0.0,1.0,1.0,0.0,0.0,0.0,100.0,1.0,1.186,26.0,0.0,-1.911,50.194,66.0,24.3,26.0,26.0,26.0,26.0,-0.75,-0.53,0.03,382.6,-2.41,-2.76,-1.17,-1.84,-940.48,686.67,5.5,0.0,0.0,0.0,0.0,0.71,-7.49,-7.49,-0.74,-0.87,-0.55,-1.26,39.32,-0.14,-0.49,14.27,100.0,0.0,0.0,109.73,0.0,0.0,0.0,0.0,0.0,0.0,0.0,5853.0,0.0,30.0,4.0,141.6,0.0,0.0,0.0,0.0,0.0,0.0,1.0,0.0,34.386,34.386,50.194,16.866,0.0,110.0,435.8,8750.0,0.0,0.0,110.0,110.0,433.0,0.0,0.0,0.0,1.0,333.3,69.8,69.8,76.0,76.0,34.0,-95.6,-26.82,-55.3,-10.4,3.0,-218.715,31.5,100.0,25.6,19.3,35.1,27.7,0.0,1.0,0.0,0.0,0.0,0.0,0.0,5482.0,2880.0,4657.0,2967.0,311.1,317.2,343.5,347.3,25.11,22.93,26.14,24.79,325.0,325.0,355.0,355.0,100.0,99.94,100.0,100.0,-1.47,-1.44,-0.74,-0.58,-1.1,-1.6,-0.8,-0.7,82.9,69.3,83.1,74.7,84.6,72.3,84.7,77.3,81.4,69.2,82.9,75.0,78.7,67.6,81.8,73.9,1.77,-1.8,0.07,0.07,0.0,119.92,118.08,110.26,109.21,174.7,27.6,0.9188579868510695,106.59010643097548,97.22746196255261,3.6010169938118963,-28.808137088542765,1,9
689,34.4,1228.4,44.054606700747875,-78.68377583410214,44.4,-3.0,9.5,-48.4,6336.6,6337.0,140.5,0.0,1.0,1.0,0.0,1.0,1.0,0.0,0.0,0.0,100.0,1.0,1.186,26.0,0.0,-1.914,50.194,66.0,37.4,26.0,26.0,26.0,26.0,-0.95,-0.75,0.02,382.4,-2.33,-2.88,-1.01,-1.95,-941.82,688.15,5.5,0.0,0.0,0.0,0.0,0.72,-7.49,-7.49,-0.78,-0.87,-0.65,-2.07,39.0,-0.3,-0.54,19.19,100.0,0.0,0.0,108.44,0.0,0.0,0.0,0.0,0.0,0.0,0.0,5784.0,0.0,30.0,4.0,140.5,1.0,0.0,0.0,0.0,0.0,0.0,1.0,0.0,34.437,34.437,50.194,16.866,1.0,110.0,435.8,8750.0,0.0,0.0,110.0,110.0,433.0,0.0,0.0,0.0,1.0,333.3,67.8,67.8,77.5,77.5,34.0,-113.4,-27.28,-71.5,-16.6,3.0,-218.765,37.4,100.0,27.8,19.1,35.5,25.3,0.0,1.0,0.0,0.0,0.0,0.0,0.0,6216.0,2828.0,4821.0,2461.0,309.3,317.3,343.1,348.6,25.11,22.93,26.14,24.79,325.0,325.0,355.0,355.0,100.0,99.94,100.0,100.0,-1.85,-1.82,-1.12,-0.97,-1.7,-2.7,-1.0,-1.1,82.9,69.3,83.1,74.7,84.6,72.3,84.7,77.3,81.4,69.2,82.9,74.9,78.8,67.6,81.7,73.8,2.1,-2.14,0.08,0.08,0.0,118.42,115.43,109.28,107.59,174.7,27.6,1.2105370708904373,103.7092927221212,92.9062413992712,-28.808137088542765,-68.4193251585215,1,9
690,34.45,1230.4,44.054619291250354,-78.68378698569005,47.1,-3.4,8.3,-56.3,6338.5,6339.0,139.0,0.0,1.0,1.0,0.0,1.0,1.0,0.0,0.0,0.0,100.0,1.0,1.186,26.0,0.0,-1.914,50.194,66.0,48.3,26.0,26.0,26.0,26.0,-1.12,-0.96,0.05,382.4,-2.24,-3.02,-0.87,-2.09,-943.06,689.55,5.5,0.0,0.0,0.0,0.0,0.72,-7.49,-7.49,-0.8,-0.79,-0.76,-1.51,38.58,-0.5,-0.59,23.44,100.0,0.0,0.0,106.75,0.0,0.0,0.0,0.0,0.0,0.0,0.0,5694.0,0.0,30.0,4.0,139.0,0.0,0.0,0.0,0.0,0.0,0.0,1.0,0.0,34.484,34.484,50.194,16.866,0.0,110.0,435.8,8750.0,0.0,0.0,110.0,110.0,433.0,0.0,0.0,0.0,1.0,333.3,65.9,65.9,79.1,79.1,34.0,-123.0,-21.19,-84.7,-17.6,3.0,-218.815,41.8,100.0,30.1,18.9,36.0,22.5,0.0,1.0,0.0,0.0,0.0,0.0,0.0,6873.0,2797.0,4929.0,2013.0,307.6,317.4,342.8,349.8,25.11,22.93,26.14,24.79,325.0,325.0,355.0,355.0,100.0,99.94,100.0,100.0,-2.26,-2.23,-1.57,-1.43,-2.2,-4.4,-1.3,-1.8,82.9,69.3,83.1,74.7,84.7,72.3,84.7,77.2,81.4,69.2,82.8,74.9,78.8,67.6,81.7,73.8,2.37,-2.42,0.06,0.1,0.0,116.71,112.04,108.0,105.5,174.7,27.6,1.4759742545180117,103.7092927221212,90.38552944670046,32.4091540823548,-28.808137088542907,1,9
691,34.5,1232.3,44.05463260121012,-78.68379840707445,41.9,-0.3,3.6,-55.1,6340.4,6340.0,137.2,0.0,1.0,1.0,0.0,1.0,1.0,0.0,0.0,0.0,100.0,1.0,1.186,26.0,0.0,-1.917,50.194,66.0,47.1,26.0,26.0,26.0,26.0,-1.3,-0.98,0.07,382.6,-2.17,-3.12,-0.73,-2.19,-944.33,691.03,5.5,0.0,0.0,0.0,0.0,0.72,-7.49,-7.49,-0.81,0.07,-0.83,-0.71,38.08,-0.77,-0.63,27.75,100.0,0.0,0.0,105.02,0.0,0.0,0.0,0.0,0.0,0.0,0.0,5602.0,0.0,30.0,4.0,137.2,1.0,0.0,0.0,0.0,0.0,0.0,1.0,0.0,34.536,34.536,50.194,16.866,1.0,110.0,435.8,8750.0,0.0,0.0,110.0,110.0,433.0,0.0,0.0,0.0,1.0,333.3,64.6,64.6,80.5,80.5,34.0,-125.0,-15.08,-93.0,-17.1,3.0,-218.865,44.9,100.0,32.2,18.9,36.1,19.7,0.0,1.0,0.0,0.0,0.0,0.0,0.0,7233.0,2658.0,5030.0,1721.0,306.7,317.7,342.6,350.5,25.11,22.93,26.14,24.78,325.0,325.0,355.0,355.0,100.0,99.94,100.0,100.0,-2.67,-2.68,-2.14,-2.02,-2.3,-5.5,-1.4,-2.4,82.9,69.3,83.1,74.7,84.7,72.4,84.7,77.2,81.5,69.2,82.9,74.9,78.9,67.6,81.7,73.8,2.55,-2.63,0.06,0.1,0.0,115.33,109.24,106.65,103.4,174.7,27.6,1.629509128541476,106.95020813035669,90.0254276904169,3.601017278323866,-57.61627417708581,1,9
692,34.55,1234.2,44.05464600110205,-78.68380946873019,17.9,-8.6,6.4,-34.5,6342.3,6342.0,135.6,0.0,1.0,1.0,0.0,1.0,1.0,0.0,0.0,0.0,100.0,1.0,1.186,26.0,0.0,-1.92,50.194,66.0,31.4,26.0,26.0,26.0,26.0,-1.47,-0.77,-0.0,383.1,-2.1,-3.17,-0.62,-2.29,-945.56,692.52,5.5,0.0,0.0,0.0,0.0,0.72,-7.49,-7.49,-0.75,1.19,-0.88,-0.63,37.62,-1.08,-0.63,31.45,100.0,0.0,0.0,104.08,0.0,0.0,0.0,0.0,0.0,0.0,0.0,5552.0,0.0,30.0,4.0,135.6,0.0,0.0,0.0,0.0,0.0,0.0,1.0,0.0,34.587,34.587,50.194,16.866,0.0,110.0,435.8,8750.0,0.0,0.0,110.0,110.0,433.0,0.0,0.0,0.0,1.0,333.3,65.3,65.3,80.7,80.7,34.0,-121.5,-13.77,-99.9,-18.1,3.0,-218.915,46.9,100.0,33.1,18.5,36.5,18.0,0.0,1.0,0.0,0.0,0.0,0.0,0.0,7210.0,2080.0,5380.0,1643.0,306.7,319.2,341.7,350.8,25.11,22.93,26.14,24.78,325.0,325.0,355.0,355.0,100.0,99.94,100.0,100.0,-3.15,-3.15,-2.78,-2.66,-1.7,-4.7,-1.3,-2.2,82.9,69.3,83.1,74.7,84.8,72.4,84.7,77.2,81.5,69.2,82.9,74.8,78.9,67.7,81.7,73.8,2.67,-2.74,0.07,0.09,0.0,114.82,108.81,105.84,102.33,174.7,27.6,1.6594577427581578,104.06939444995359,84.62390202899188,-21.606102531895317,-82.82339313376937,1,9
693,34.6,1236.0,44.054658591604536,-78.68381954113218,-3.7,-28.7,20.2,-12.5,6344.2,6344.0,134.5,0.0,1.0,1.0,0.0,1.0,1.0,0.0,0.0,0.0,100.0,1.0,1.186,26.0,0.0,-1.92,50.194,66.0,18.9,26.0,26.0,26.0,26.0,-1.58,-0.53,-0.03,383.6,-1.7,-3.22,-0.53,-2.35,-946.68,693.92,5.5,0.0,0.0,0.0,0.0,0.72,-7.49,-7.49,-0.65,1.56,-0.93,-0.52,37.3,-1.38,-0.59,33.36,100.0,0.0,0.0,103.69,0.0,0.0,0.0,0.0,0.0,0.0,0.0,5531.0,0.0,30.0,4.0,134.5,1.0,0.0,0.0,0.0,0.0,0.0,1.0,0.0,34.634,34.634,50.194,16.866,1.0,110.0,435.8,8750.0,0.0,0.0,110.0,110.0,433.0,0.0,0.0,0.0,1.0,166.7,67.2,67.2,79.9,79.9,34.0,-111.0,-10.44,-103.8,-19.1,3.0,-218.965,48.1,100.0,32.9,17.1,37.5,17.3,0.0,1.0,0.0,0.0,0.0,0.0,0.0,7158.0,1420.0,5915.0,1657.0,306.9,321.1,340.4,350.7,25.11,22.93,26.14,24.78,325.0,325.0,355.0,355.0,100.0,99.94,100.0,100.0,-3.59,-3.64,-3.33,-3.23,-1.2,-3.4,-1.0,-1.5,82.9,69.3,83.1,74.6,84.9,72.4,84.7,77.1,81.6,69.2,82.9,74.8,79.0,67.7,81.8,73.7,2.74,-2.82,0.06,0.09,0.0,114.52,109.01,105.3,102.08,174.7,27.6,1.666793328520366,104.78959787716715,81.74308837703997,50.414239335926254,-32.40915351333115,1,9
694,34.65,1237.9,44.054672171360785,-78.68382988333065,16.4,-36.7,26.9,4.6,6346.0,6346.0,133.5,0.0,1.0,1.0,0.0,1.0,1.0,0.0,0.0,0.0,100.0,1.0,1.186,26.0,0.0,-1.917,50.194,66.0,7.2,26.0,26.0,26.0,26.0,-1.69,-0.35,0.02,383.6,-1.78,-3.24,-0.56,-2.4,-947.83,695.43,5.5,0.0,0.0,0.0,0.0,0.72,-7.49,-7.49,-0.54,1.89,-0.9,2.09,37.04,-1.68,-0.55,34.23,100.0,0.0,0.0,103.34,0.0,0.0,0.0,0.0,0.0,0.0,0.0,5512.0,0.0,30.0,4.0,133.5,0.0,0.0,0.0,0.0,0.0,0.0,1.0,0.0,34.686,34.686,50.194,16.866,0.0,110.0,435.8,8750.0,0.0,0.0,110.0,110.0,433.0,0.0,0.0,0.0,1.0,166.7,67.9,67.9,81.0,81.0,34.0,-97.8,-5.57,-87.6,-20.9,3.0,-219.015,48.9,100.0,33.8,15.2,38.8,17.6,0.0,1.0,0.0,0.0,0.0,0.0,0.0,7460.0,897.0,5874.0,1881.0,306.1,322.5,340.4,350.2,25.11,22.93,26.14,24.78,325.0,325.0,355.0,355.0,100.0,99.94,100.0,100.0,-4.11,-4.18,-3.86,-3.78,-0.6,-2.7,-0.8,-0.9,82.9,69.3,83.1,74.6,85.0,72.4,84.8,77.1,81.7,69.2,83.0,74.8,79.1,67.6,81.8,73.7,2.79,-2.88,0.06,0.09,0.0,114.38,109.12,104.78,101.91,174.7,27.6,1.725977983637103,109.11081838354622,81.38298667765876,21.606102531895317,-54.01525661425026,1,9
695,34.7,1239.7,44.05468584104919,-78.68383986580048,-8.3,-26.8,36.1,20.0,6347.9,6348.0,132.8,0.0,1.0,1.0,0.0,1.0,1.0,0.0,0.0,0.0,100.0,1.0,1.186,26.0,0.0,-1.92,50.194,66.0,4.9,26.0,26.0,26.0,26.0,-1.79,-0.29,0.07,383.0,-1.87,-3.27,-0.29,-2.33,-948.94,696.95,5.5,0.0,0.0,0.0,0.0,0.72,-7.49,-7.49,-0.42,1.28,-0.79,1.84,36.84,-1.92,-0.51,33.31,100.0,0.0,0.0,102.94,0.0,0.0,0.0,0.0,0.0,0.0,0.0,5491.0,0.0,30.0,4.0,132.8,1.0,0.0,0.0,0.0,0.0,0.0,1.0,0.0,34.737,34.737,50.194,16.866,1.0,110.0,435.8,8750.0,0.0,0.0,110.0,110.0,433.0,0.0,0.0,0.0,1.0,166.7,69.3,69.3,77.1,77.1,34.0,-67.7,-6.88,-87.7,-21.3,3.0,-219.065,49.5,100.0,33.4,13.9,40.6,18.6,0.0,1.0,0.0,0.0,0.0,0.0,0.0,6930.0,1090.0,6622.0,2062.0,307.4,322.0,338.6,349.6,25.11,22.92,26.14,24.78,325.0,325.0,355.0,355.0,100.0,99.94,100.0,100.0,-4.57,-4.62,-4.25,-4.17,-0.5,-1.5,-0.7,-0.6,82.9,69.3,83.1,74.6,85.1,72.4,84.9,77.1,81.8,69.2,83.1,74.8,79.2,67.6,81.9,73.7,2.84,-2.92,0.06,0.09,0.0,113.69,109.81,104.25,101.64,174.7,27.6,1.8146900561803936,106.95020813035669,76.34156271561494,-7.202033987623793,-75.62135971516909,1,9
696,34.75,1241.6,44.05469888121248,-78.6838489489487,-28.6,-8.6,34.7,-3.7,6349.7,6350.0,132.3,0.0,1.0,1.0,0.0,1.0,1.0,0.0,0.0,0.0,100.0,1.0,1.186,26.0,0.0,-1.917,50.194,66.0,1.4,26.0,26.0,26.0,26.0,-1.72,-0.23,-0.03,384.0,-1.88,-3.22,-0.41,-2.54,-949.95,698.4,5.5,0.0,0.0,0.0,0.0,0.72,-7.49,-7.49,-0.37,0.11,-0.74,1.16,36.66,-2.11,-0.5,31.67,100.0,0.0,0.0,102.49,0.0,0.0,0.0,0.0,0.0,0.0,0.0,5467.0,0.0,30.0,4.0,132.3,0.0,0.0,0.0,0.0,0.0,0.0,1.0,0.0,34.784,34.784,50.194,16.866,0.0,110.0,435.8,8750.0,0.0,0.0,110.0,110.0,433.0,0.0,0.0,0.0,1.0,333.3,71.4,71.4,75.0,75.0,34.0,-45.2,-3.56,-75.3,-15.0,3.0,-219.115,50.7,100.0,31.9,13.5,42.4,18.4,0.0,1.0,0.0,0.0,0.0,0.0,0.0,6421.0,747.0,6538.0,1700.0,308.7,322.8,338.8,350.7,25.11,22.92,26.14,24.78,325.0,325.0,355.0,355.0,100.0,99.94,100.0,100.0,-4.96,-5.06,-4.49,-4.41,-0.3,-0.8,-0.7,-0.5,82.9,69.3,83.2,74.6,85.2,72.3,85.0,77.1,81.9,69.2,83.2,74.8,79.3,67.6,82.0,73.7,2.89,-2.98,0.06,0.1,0.0,113.2,109.98,103.69,101.29,174.7,27.6,1.7355690709389817,108.39061498478384,73.82085070614185,57.616273892573986,-32.40915408235466,1,9
697,34.8,1243.4,44.05471291062953,-78.6838583018934,-35.5,-35.0,-0.3,6.0,6351.5,6352.0,131.7,0.0,1.0,1.0,0.0,1.0,1.0,0.0,0.0,0.0,100.0,1.0,1.186,26.0,0.0,-1.914,50.194,66.0,0.0,26.0,26.0,26.0,26.0,-1.56,-0.19,-0.08,385.6,-1.89,-3.09,-0.49,-2.46,-950.99,699.96,5.6,0.0,0.0,0.0,0.0,0.72,-7.49,-7.49,-0.4,-2.0,-0.66,1.83,36.51,-2.27,-0.49,28.47,100.0,0.0,0.0,102.06,0.0,0.0,0.0,0.0,0.0,0.0,0.0,5444.0,0.0,30.0,4.0,131.7,1.0,0.0,0.0,0.0,0.0,0.0,1.0,0.0,34.836,34.836,50.194,16.866,1.0,110.0,435.8,8750.0,0.0,0.0,110.0,110.0,433.0,0.0,0.0,0.0,1.0,333.3,74.1,74.1,76.7,76.7,34.0,-23.3,-1.46,-58.5,-15.9,3.0,-219.165,51.9,100.0,30.1,11.7,42.3,18.7,0.0,1.0,0.0,0.0,0.0,0.0,0.0,5912.0,501.0,5841.0,1867.0,310.0,323.7,340.5,350.1,25.11,22.92,26.14,24.78,325.0,325.0,355.0,355.0,100.0,99.94,100.0,100.0,-5.44,-5.53,-4.65,-4.59,-0.3,-0.2,-0.6,-0.4,82.9,69.3,83.2,74.6,85.4,72.3,85.0,77.1,82.1,69.2,83.2,74.8,79.4,67.6,82.1,73.7,2.96,-3.06,0.05,0.09,0.0,112.56,110.12,103.08,101.04,174.7,27.6,1.573562836368475,112.71183551961408,73.10064730737948,21.606102531895175,-57.6162736080623,1,9
698,34.85,1245.2,44.05472702997875,-78.6838672051773,-25.9,-15.6,-37.3,-19.7,6353.4,6353.0,131.2,0.0,1.0,1.0,0.0,1.0,1.0,0.0,0.0,0.0,100.0,1.0,1.186,26.0,0.0,-1.914,50.194,66.0,0.0,26.0,26.0,26.0,26.0,-1.53,-0.16,-0.11,387.0,-1.89,-3.08,-0.47,-2.42,-951.98,701.53,5.6,0.0,0.0,0.0,0.0,0.73,-7.49,-7.49,-0.52,-2.67,-0.59,1.6,36.36,-2.38,-0.51,26.81,100.0,0.0,0.0,101.57,0.0,0.0,0.0,0.0,0.0,0.0,0.0,5418.0,0.0,30.0,4.0,131.2,0.0,0.0,0.0,0.0,0.0,0.0,0.0,0.0,34.887,34.887,50.194,16.866,0.0,110.0,435.8,8750.0,0.0,0.0,110.0,110.0,433.0,0.0,0.0,0.0,1.0,333.3,74.5,74.5,79.3,79.3,34.0,-16.1,-1.66,-49.6,-9.6,3.0,-219.215,52.2,100.0,28.9,10.9,40.5,17.7,0.0,1.0,0.0,0.0,0.0,0.0,0.0,6246.0,693.0,5500.0,1346.0,309.2,323.1,341.3,351.5,25.11,22.92,26.15,24.78,325.0,325.0,355.0,355.0,100.0,99.95,100.0,100.0,-5.7,-5.82,-4.76,-4.71,-0.3,0.0,-0.7,-0.4,82.9,69.3,83.2,74.6,85.5,72.3,85.1,77.1,82.2,69.1,83.3,74.8,79.5,67.6,82.2,73.7,2.99,-3.1,0.07,0.09,0.0,111.94,109.91,102.5,100.64,174.7,27.6,1.542271052701178,110.55122523797336,68.05922334533562,-10.803051550459344,-75.62135914614558,1,9
699,34.9,1247.0,44.054740519802834,-78.68387529907174,-4.8,4.3,-37.1,-30.2,6355.2,6355.0,130.7,0.0,1.0,1.0,0.0,1.0,1.0,0.0,0.0,0.0,100.0,1.0,1.186,26.0,0.0,-1.914,50.194,66.0,0.0,26.0,26.0,26.0,26.0,-1.63,-0.21,-0.08,387.4,-1.93,-3.09,-0.5,-2.45,-952.88,703.03,5.6,0.0,0.0,0.0,0.0,0.73,-7.49,-7.49,-0.6,-1.39,-0.54,0.59,36.22,-2.45,-0.52,27.39,100.0,0.0,0.0,101.19,0.0,0.0,0.0,0.0,0.0,0.0,0.0,5397.0,0.0,30.0,4.0,130.7,1.0,0.0,0.0,0.0,0.0,0.0,0.0,0.0,34.936,34.936,50.194,16.866,1.0,110.0,435.8,8750.0,0.0,0.0,110.0,110.0,433.0,0.0,0.0,0.0,1.0,333.3,73.8,73.8,80.6,80.6,34.0,-14.2,-2.56,-43.6,-9.3,3.0,-219.265,50.9,100.0,28.6,11.1,38.6,16.2,0.0,1.0,0.0,0.0,0.0,0.0,0.0,6499.0,1001.0,5522.0,1383.0,308.6,322.2,341.4,351.4,25.11,22.92,26.15,24.78,325.0,325.0,355.0,355.0,100.0,99.95,100.0,100.0,-5.77,-5.86,-4.92,-4.84,-0.4,-0.0,-0.7,-0.4,82.9,69.3,83.2,74.6,85.6,72.3,85.2,77.1,82.3,69.1,83.4,74.8,79.7,67.5,82.3,73.7,2.93,-3.03,0.06,0.1,0.0,111.57,109.46,102.13,100.24,174.7,27.6,1.6454178800535746,111.63153036456815,65.53851139276492,54.01525661425012,-28.808136519518968,1,9
700,34.95,1248.8,44.05475490894853,-78.68388357283052,-4.4,-5.9,-2.6,-10.2,6357.0,6357.0,130.2,0.0,1.0,1.0,0.0,1.0,1.0,0.0,0.0,0.0,100.0,1.0,1.186,26.0,0.0,-1.911,50.194,66.0,0.0,26.0,26.0,26.0,26.0,-1.59,-0.16,-0.05,387.6,-1.81,-3.1,-0.47,-2.44,-953.8,704.63,5.6,0.0,0.0,0.0,0.0,0.73,-7.49,-7.49,-0.63,-0.63,-0.52,0.72,36.06,-2.53,-0.5,27.2,100.0,0.0,0.0,100.79,0.0,0.0,0.0,0.0,0.0,0.0,0.0,5376.0,0.0,30.0,4.0,130.2,0.0,0.0,0.0,0.0,0.0,0.0,0.0,0.0,34.986,34.986,50.194,16.866,0.0,110.0,435.8,8750.0,0.0,0.0,110.0,110.0,433.0,0.0,0.0,0.0,1.0,333.3,74.8,74.8,80.3,80.3,34.0,-16.6,-1.79,-40.9,-9.6,3.0,-219.315,46.8,100.0,28.4,10.8,38.5,15.7,0.0,1.0,0.0,0.0,0.0,0.0,0.0,6302.0,709.0,5767.0,1520.0,309.0,323.1,340.7,351.1,25.11,22.92,26.15,24.78,325.0,325.0,355.0,355.0,100.0,99.95,100.0,100.0,-5.69,-5.79,-5.07,-4.99,-0.3,0.0,-0.7,-0.4,83.0,69.2,83.2,74.6,85.7,72.3,85.3,77.1,82.4,69.1,83.5,74.8,79.8,67.5,82.4,73.7,2.71,-2.81,0.06,0.11,0.0,111.19,109.08,101.74,99.84,174.7,27.6,1.5988120589988055,115.95275089939837,65.17840969338373,18.005085538082852,-50.41423962043794,1,9
701,35.0,1250.6,44.054769477958544,-78.68389157679282,-3.8,-6.6,13.9,8.9,6358.8,6359.0,129.7,0.0,1.0,1.0,0.0,1.0,1.0,0.0,0.0,0.0,100.0,1.0,1.186,26.0,0.0,-1.908,50.194,66.0,0.0,26.0,26.0,26.0,26.0,-1.66,-0.19,-0.07,387.1,-1.8,-3.14,-0.41,-2.44,-954.69,706.25,5.6,0.0,0.0,0.0,0.0,0.73,-7.49,-7.49,-0.66,-1.02,-0.5,0.71,35.91,-2.56,-0.49,25.62,100.0,0.0,0.0,100.37,0.0,0.0,0.0,0.0,0.0,0.0,0.0,5354.0,0.0,30.0,4.0,129.7,1.0,0.0,0.0,0.0,0.0,0.0,0.0,0.0,35.037,35.037,50.194,16.866,1.0,110.0,435.8,8750.0,0.0,0.0,110.0,110.0,433.0,0.0,0.0,0.0,1.0,333.3,74.7,74.7,79.2,79.2,34.0,-21.7,-2.57,-42.6,-9.9,3.0,-219.365,42.5,100.0,28.2,10.5,39.2,16.1,0.0,1.0,0.0,0.0,0.0,0.0,0.0,6440.0,822.0,5930.0,1547.0,308.7,322.8,340.3,351.0,25.11,22.92,26.15,24.78,325.0,325.0,355.0,355.0,100.0,99.95,100.0,100.0,-5.57,-5.63,-5.08,-4.98,-0.3,0.0,-0.7,-0.5,83.0,69.2,83.2,74.6,85.9,72.2,85.4,77.1,82.6,69.1,83.6,74.7,79.9,67.5,82.5,73.7,2.46,-2.55,0.06,0.09,0.0,110.65,108.72,101.24,99.49,174.7,27.6,1.6723038001511568,113.43203891837643,60.49708743072112,-18.005085538083136,-79.22237670898113,1,9
702,35.05,1252.4,44.054783237579116,-78.6838986814335,20.7,-0.9,6.4,0.7,6360.6,6361.0,129.2,0.0,1.0,1.0,0.0,1.0,1.0,0.0,0.0,0.0,100.0,1.0,1.186,26.0,0.0,-1.908,50.194,66.0,0.0,26.0,26.0,26.0,26.0,-1.69,-0.17,-0.01,386.4,-1.74,-3.28,-0.42,-2.46,-955.48,707.78,5.6,0.0,0.0,0.0,0.0,0.73,-7.49,-7.49,-0.69,-0.27,-0.49,1.06,35.78,-2.54,-0.49,25.51,100.0,0.0,0.0,99.98,0.0,0.0,0.0,0.0,0.0,0.0,0.0,5333.0,0.0,30.0,4.0,129.2,0.0,0.0,0.0,0.0,0.0,0.0,0.0,0.0,35.086,35.086,50.194,16.866,0.0,110.0,435.8,8750.0,0.0,0.0,110.0,110.0,433.0,0.0,0.0,0.0,1.0,166.7,73.4,73.4,80.3,80.3,34.0,-34.7,-2.75,-43.5,-9.3,3.0,-219.415,38.9,100.0,29.2,10.5,39.5,16.2,0.0,1.0,0.0,0.0,0.0,0.0,0.0,7137.0,742.0,5926.0,1475.0,307.0,323.0,340.3,351.2,25.11,22.92,26.15,24.78,325.0,325.0,355.0,355.0,100.0,99.95,100.0,100.0,-5.36,-5.41,-5.05,-4.97,-0.3,-0.0,-0.7,-0.4,83.0,69.2,83.2,74.6,86.0,72.2,85.5,77.1,82.7,69.1,83.7,74.7,80.0,67.5,82.5,73.6,2.26,-2.33,0.06,0.1,0.0,110.35,108.35,100.87,99.09,174.7,27.6,1.6985582121316891,114.15224234559005,57.256172022485615,86.42441069660535,-28.80813708854305,1,9
703,35.1,1254.2,44.05479798645345,-78.68390587600635,34.4,0.5,7.0,13.8,6362.4,6362.0,128.6,0.0,1.0,1.0,0.0,1.0,1.0,0.0,0.0,0.0,100.0,1.0,1.186,26.0,0.0,-1.905,50.194,66.0,0.0,26.0,26.0,26.0,26.0,-1.75,-0.16,0.03,385.3,-1.67,-3.35,-0.44,-2.4,-956.28,709.42,5.6,0.0,0.0,0.0,0.0,0.73,-7.49,-7.49,-0.65,0.85,-0.42,1.62,35.63,-2.49,-0.47,25.43,100.0,0.0,0.0,99.96,0.0,0.0,0.0,0.0,0.0,0.0,0.0,5332.0,0.0,30.0,4.0,128.6,1.0,0.0,0.0,0.0,0.0,0.0,0.0,0.0,35.136,35.136,50.194,16.866,1.0,110.0,435.8,8750.0,0.0,0.0,110.0,110.0,433.0,0.0,0.0,0.0,1.0,166.7,72.5,72.5,80.2,80.2,34.0,-44.6,-3.51,-47.3,-13.6,3.0,-219.465,36.3,100.0,30.9,10.5,39.9,16.9,0.0,1.0,5.6,0.0,0.0,0.0,0.0,7040.0,770.0,6086.0,1931.0,307.1,322.9,340.0,350.0,25.11,22.92,26.15,24.77,325.0,325.0,355.0,355.0,100.0,99.95,100.0,100.0,-5.14,-5.17,-5.02,-4.94,-0.2,-0.0,-0.5,-0.4,83.0,69.2,83.2,74.6,86.1,72.2,85.6,77.1,82.8,69.1,83.8,74.7,80.2,67.5,82.6,73.6,2.1,-2.16,0.06,0.1,0.0,109.94,107.99,100.9,99.01,174.7,27.6,1.7575551200460258,122.07447998803697,57.61627372186682,18.005085538083136,-54.01525661425005,1,9
704,35.15,1256.0,44.05481372458156,-78.6839130705792,-12.8,-2.1,31.2,13.7,6364.2,6364.0,128.4,0.0,1.0,1.0,0.0,1.0,1.0,0.0,0.0,0.0,100.0,1.0,1.186,26.0,0.0,-1.899,50.194,66.0,0.0,26.0,26.0,26.0,26.0,-1.72,0.15,0.06,385.0,-1.69,-3.29,-0.5,-2.59,-957.08,711.17,5.6,0.0,0.0,0.0,0.0,0.73,-7.49,-7.49,-0.6,0.67,-0.35,1.95,35.58,-2.39,-0.45,23.16,100.0,0.0,0.0,102.92,0.0,0.0,0.0,0.0,0.0,0.0,0.0,5490.0,0.0,30.0,4.0,128.4,0.0,0.0,0.0,0.0,0.0,0.0,0.0,0.0,35.19,35.19,50.194,16.866,0.0,110.0,435.8,8750.0,0.0,0.0,110.0,110.0,433.0,0.0,0.0,0.0,1.0,166.7,73.9,73.9,76.3,76.3,34.0,-47.4,-2.95,-64.7,-12.4,3.0,-219.52,34.6,100.0,30.3,10.4,41.4,17.5,0.0,1.0,51.6,0.0,0.0,0.0,0.0,6533.0,617.0,6784.0,1998.0,308.5,323.3,338.2,349.9,25.12,22.92,26.15,24.77,325.0,325.0,355.0,355.0,100.0,99.95,100.0,100.0,-4.96,-5.01,-4.8,-4.7,-0.3,-0.1,1.7,3.7,83.0,69.2,83.2,74.6,86.3,72.2,85.7,77.1,82.9,69.0,83.9,74.7,80.3,67.4,82.8,73.6,1.99,-2.04,0.05,0.09,0.0,109.71,107.79,102.92,102.92,174.7,27.6,1.7275705484870942,115.95275089939837,51.85464636106061,-82.8233934182812,-100.82847867185272,1,9
705,35.2,1257.8,44.05482694460916,-78.68391882623747,-20.5,2.0,18.2,12.7,6365.9,6366.0,128.5,0.0,1.0,1.0,0.0,1.0,1.0,0.0,0.0,0.0,100.0,1.0,1.186,26.0,0.0,-1.896,50.194,66.0,0.0,26.0,26.0,26.0,26.0,-1.67,0.25,-0.02,385.0,-1.74,-3.2,-0.46,-2.49,-957.72,712.64,5.6,0.0,0.0,0.0,0.0,0.73,-7.49,-7.49,-0.57,0.92,-0.25,1.85,35.63,-2.27,-0.44,22.27,100.0,0.0,0.0,103.98,0.0,0.0,0.0,0.0,0.0,0.0,0.0,5546.0,0.0,30.0,4.0,128.5,1.0,0.0,0.0,0.0,0.0,0.0,0.0,0.0,35.234,35.234,50.194,16.866,1.0,110.0,435.8,8750.0,0.0,0.0,110.0,110.0,433.0,0.0,0.0,0.0,1.0,333.3,74.3,74.3,74.9,74.9,34.0,-49.0,-6.3,-61.0,-12.7,3.0,-219.565,34.4,100.0,29.3,10.5,42.3,18.2,0.0,1.0,81.6,0.0,0.0,0.0,0.0,6168.0,1044.0,6283.0,2150.0,309.4,322.2,339.4,349.5,25.12,22.92,26.15,24.77,325.0,325.0,355.0,355.0,100.0,99.95,100.0,100.0,-4.82,-4.83,-4.58,-4.47,-0.3,-0.3,2.8,4.6,83.0,69.2,83.2,74.6,86.4,72.2,85.8,77.1,83.0,69.0,84.0,74.7,80.4,67.4,82.9,73.6,1.98,-2.03,0.06,0.1,0.0,109.84,107.93,103.98,103.98,174.7,27.6,1.6887273314540745,113.79214064620885,47.533425854681546,64.8183081647096,-39.61118806997881,1,9
706,35.25,1259.6,44.054842143144306,-78.6839249416244,-12.6,-5.3,1.6,13.1,6367.7,6368.0,128.9,0.0,1.0,1.0,0.0,1.0,1.0,0.0,0.0,0.0,100.0,1.0,1.186,26.0,0.0,-1.893,50.194,66.0,0.0,26.0,26.0,26.0,26.0,-1.58,0.36,0.08,385.2,-1.76,-3.26,-0.48,-2.5,-958.4,714.33,5.6,0.0,0.0,0.0,0.0,0.73,-7.49,-7.49,-0.48,1.87,-0.21,1.6,35.74,-2.18,-0.4,22.45,100.0,0.0,0.0,105.02,0.0,0.0,0.0,0.0,0.0,0.0,0.0,5602.0,0.0,30.0,4.0,128.9,0.0,0.0,0.0,0.0,0.0,0.0,0.0,0.0,35.286,35.286,50.194,16.866,0.0,110.0,435.8,8750.0,0.0,0.0,110.0,110.0,433.0,0.0,0.0,0.0,1.0,333.3,75.5,75.5,74.9,74.9,34.0,-58.7,-2.18,-64.1,-12.1,3.0,-219.615,34.4,100.0,28.7,10.2,42.4,18.8,0.0,1.0,98.4,0.0,0.0,0.0,0.0,6273.0,428.0,6558.0,2266.0,309.1,323.9,338.8,349.2,25.12,22.91,26.15,24.77,325.0,325.0,355.0,355.0,100.0,99.95,100.0,100.0,-4.61,-4.68,-4.39,-4.3,-0.2,-0.3,3.5,5.4,83.0,69.2,83.2,74.6,86.5,72.1,85.9,77.1,83.1,69.0,84.1,74.8,80.4,67.4,83.0,73.7,1.98,-2.04,0.05,0.08,0.0,110.21,108.21,105.02,105.02,174.7,27.6,1.6224672569885656,122.43458171586933,47.89352755406273,104.42949595017637,-21.606103100919043,1,9
707,35.3,1261.4,44.05485752154377,-78.68393078721483,-15.3,-13.9,13.8,44.4,6369.5,6370.0,129.4,0.0,1.0,1.0,0.0,1.0,1.0,0.0,0.0,0.0,100.0,1.0,1.186,26.0,0.0,-1.887,50.194,66.0,0.0,26.0,26.0,26.0,26.0,-1.65,0.37,-0.01,384.5,-1.73,-3.17,-0.55,-2.55,-959.05,716.04,5.6,0.0,0.0,0.0,0.0,0.73,-7.49,-7.49,-0.39,1.18,-0.14,0.58,35.89,-2.05,-0.36,20.32,100.0,0.0,0.0,104.78,0.0,0.0,0.0,0.0,0.0,0.0,0.0,5589.0,0.0,30.0,4.0,129.4,1.0,0.0,0.0,0.0,0.0,0.0,0.0,0.0,35.337,35.337,50.194,16.866,1.0,110.0,435.8,8750.0,0.0,0.0,110.0,110.0,433.0,0.0,0.0,0.0,1.0,333.3,76.6,76.6,72.9,72.9,34.0,-58.0,-2.57,-85.1,-20.6,3.0,-219.665,35.1,100.0,27.9,9.5,43.1,21.1,0.0,1.0,98.0,0.0,0.0,0.0,0.0,5900.0,455.0,6900.0,2773.0,310.0,323.7,337.9,347.8,25.12,22.91,26.15,24.77,325.0,325.0,355.0,355.0,100.0,99.95,100.0,100.0,-4.51,-4.54,-4.11,-4.02,-0.3,-0.4,2.9,4.7,83.0,69.2,83.2,74.6,86.6,72.1,86.0,77.1,83.2,69.0,84.2,74.8,80.5,67.4,83.1,73.7,2.01,-2.06,0.04,0.09,0.0,110.59,108.63,104.78,104.78,174.7,27.6,1.6910056179681958,124.23509024122649,45.37281554458964,-3.6010172783235816,-64.81830816470953,1,9
708,35.35,1263.2,44.05487316973971,-78.68393627307663,-12.3,0.6,25.6,1.3,6371.3,6371.0,129.9,0.0,1.0,1.0,0.0,1.0,1.0,0.0,0.0,0.0,100.0,1.0,1.186,26.0,0.0,-1.884,50.194,66.0,0.0,26.0,26.0,26.0,26.0,-1.66,0.36,0.08,384.2,-1.75,-3.21,-0.57,-2.53,-959.66,717.78,5.6,0.0,0.0,0.0,0.0,0.74,-7.49,-7.49,-0.35,0.66,-0.13,0.8,36.03,-1.86,-0.37,19.44,100.0,0.0,0.0,105.0,0.0,0.0,0.0,0.0,0.0,0.0,0.0,5601.0,0.0,30.0,4.0,129.9,0.0,0.0,0.0,0.0,0.0,0.0,1.0,0.0,35.388,35.388,50.194,16.866,0.0,110.0,435.8,8750.0,0.0,0.0,110.0,110.0,433.0,0.0,0.0,0.0,1.0,166.7,76.0,76.0,71.3,71.3,34.0,-71.4,-4.69,-99.9,-17.5,3.0,-219.715,36.9,100.0,27.3,9.6,44.4,21.1,0.0,1.0,94.1,0.0,0.0,0.0,0.0,6403.0,689.0,7035.0,2243.0,308.8,323.1,337.6,349.2,25.12,22.91,26.15,24.77,325.0,325.0,355.0,355.0,100.0,99.95,100.0,100.0,-4.35,-4.38,-3.78,-3.66,-0.2,-0.3,2.9,4.5,83.0,69.2,83.2,74.6,86.6,72.1,86.1,77.2,83.3,68.9,84.3,74.8,80.6,67.3,83.1,73.7,2.1,-2.16,0.06,0.09,0.0,110.96,109.2,105.0,105.0,174.7,27.6,1.7004705231199981,122.07447998803697,41.411696737591775,-14.40406825975927,-64.81830759568602,1,9
709,35.4,1265.0,44.05488800854621,-78.6839411294133,-0.3,-1.5,-3.3,4.8,6373.1,6373.0,130.3,0.0,1.0,1.0,0.0,1.0,1.0,0.0,0.0,0.0,100.0,1.0,1.186,26.0,0.0,-1.881,50.194,66.0,0.0,26.0,26.0,26.0,26.0,-1.6,0.32,0.02,384.5,-1.79,-3.1,-0.57,-2.44,-960.2,719.43,5.6,0.0,0.0,0.0,0.0,0.74,-7.49,-7.49,-0.31,1.14,-0.05,1.62,36.16,-1.69,-0.36,19.5,100.0,0.0,0.0,105.09,0.0,0.0,0.0,0.0,0.0,0.0,0.0,5606.0,0.0,30.0,4.0,130.3,1.0,0.0,0.0,0.0,0.0,0.0,1.0,0.0,35.436,35.436,50.194,16.866,1.0,110.0,435.8,8750.0,0.0,0.0,110.0,110.0,433.0,0.0,0.0,0.0,1.0,333.3,76.2,76.2,72.6,72.6,34.0,-71.6,-5.89,-99.0,-24.4,3.0,-219.765,39.8,100.0,27.3,9.5,44.2,21.4,0.0,1.0,92.2,0.0,0.0,0.0,0.0,6112.0,801.0,6394.0,2655.0,309.5,322.8,339.2,348.2,25.12,22.91,26.15,24.77,325.0,325.0,355.0,355.0,100.0,99.95,100.0,100.0,-4.23,-4.27,-3.5,-3.39,-0.3,-0.3,2.5,4.2,83.0,69.2,83.2,74.6,86.7,72.0,86.2,77.2,83.4,68.9,84.3,74.8,80.7,67.3,83.2,73.7,2.26,-2.33,0.06,0.08,0.0,111.41,109.64,105.09,105.09,174.7,27.6,1.6318088123306604,122.79468341525056,38.89098478502104,21.606102531895175,-50.41423905141457,1,9
710,35.45,1266.8,44.05490383660647,-78.68394598574997,-6.4,8.6,6.1,11.3,6375.0,6375.0,130.8,0.0,1.0,1.0,0.0,1.0,1.0,0.0,0.0,0.0,100.0,1.0,1.186,26.0,0.0,-1.878,50.194,66.0,0.0,26.0,26.0,26.0,26.0,-1.59,0.34,0.07,384.0,-1.8,-3.07,-0.56,-2.55,-960.74,721.19,5.6,0.0,0.0,0.0,0.0,0.74,-7.49,-7.49,-0.26,0.98,-0.05,-0.32,36.29,-1.52,-0.35,19.2,100.0,0.0,0.0,105.34,0.0,0.0,0.0,0.0,0.0,0.0,0.0,5619.0,0.0,30.0,4.0,130.8,0.0,0.0,0.0,0.0,0.0,0.0,1.0,0.0,35.487,35.487,50.194,16.866,0.0,110.0,435.8,8750.0,0.0,0.0,110.0,110.0,433.0,0.0,0.0,0.0,1.0,333.3,75.9,75.9,71.0,71.0,34.0,-78.3,-6.7,-118.6,-22.5,3.0,-219.815,43.2,100.0,26.9,9.9,44.5,21.9,0.0,1.0,95.3,0.0,0.0,0.0,0.0,6328.0,863.0,6825.0,2368.0,309.0,322.6,338.1,348.9,25.12,22.91,26.15,24.77,325.0,325.0,355.0,355.0,100.0,99.95,100.0,100.0,-4.14,-4.19,-3.18,-3.07,-0.3,-0.2,2.4,4.0,83.0,69.2,83.2,74.6,86.8,72.0,86.2,77.2,83.4,68.9,84.4,74.8,80.8,67.3,83.3,73.7,2.45,-2.53,0.06,0.08,0.0,111.78,110.08,105.34,105.34,174.7,27.6,1.627451996219858,124.23509024122649,36.37027283245032,28.808136804030653,-50.414239620438224,1,9
711,35.5,1268.6,44.05491903514161,-78.68395021256153,3.5,0.1,6.8,-1.8,6376.8,6377.0,131.2,0.0,1.0,1.0,0.0,1.0,1.0,0.0,0.0,0.0,100.0,1.0,1.186,26.0,0.0,-1.875,50.194,66.0,0.0,26.0,26.0,26.0,26.0,-1.53,0.35,0.03,384.2,-1.85,-3.07,-0.57,-2.48,-961.21,722.88,5.6,0.0,0.0,0.0,0.0,0.74,-7.49,-7.49,-0.2,1.44,-0.01,1.7,36.43,-1.38,-0.34,20.15,100.0,0.0,0.0,105.92,0.0,0.0,0.0,0.0,0.0,0.0,0.0,5650.0,0.0,30.0,4.0,131.2,1.0,0.0,0.0,0.0,0.0,0.0,1.0,0.0,35.534,35.534,50.194,16.866,1.0,110.0,435.8,8750.0,0.0,0.0,110.0,110.0,433.0,0.0,0.0,0.0,1.0,333.3,76.2,76.2,71.5,71.5,34.0,-77.6,-5.66,-112.4,-24.3,3.0,-219.865,46.0,100.0,27.1,9.9,44.9,21.8,0.0,1.0,100.0,0.0,0.0,0.0,0.0,6132.0,741.0,6500.0,2592.0,309.4,323.0,339.0,348.4,25.12,22.91,26.15,24.77,325.0,325.0,355.0,355.0,100.0,99.95,100.0,100.0,-4.08,-4.12,-3.01,-2.88,-0.2,-0.2,2.5,4.2,83.0,69.2,83.2,74.6,86.9,72.0,86.3,77.2,83.5,68.9,84.5,74.8,80.8,67.3,83.3,73.7,2.63,-2.7,0.05,0.08,0.0,112.27,110.49,105.92,105.92,174.7,27.6,1.5698089055678084,125.67549709565363,33.84956082297722,61.217290886386024,-36.010171645190425,1,9
712,35.55,1270.5,44.05493522293052,-78.68395443937307,-19.5,-8.4,4.1,20.8,6378.6,6379.0,131.8,0.0,1.0,1.0,0.0,1.0,1.0,0.0,0.0,0.0,100.0,1.0,1.186,26.0,0.0,-1.872,50.194,66.0,0.0,26.0,26.0,26.0,26.0,-1.46,0.36,0.07,384.5,-1.9,-3.0,-0.61,-2.47,-961.68,724.68,5.6,0.0,0.0,0.0,0.0,0.74,-7.49,-7.49,-0.15,0.11,0.06,1.27,36.59,-1.28,-0.32,19.18,100.0,0.0,0.0,106.02,0.0,0.0,0.0,0.0,0.0,0.0,0.0,5655.0,0.0,30.0,4.0,131.8,0.0,0.0,0.0,0.0,0.0,0.0,1.0,0.0,35.586,35.586,50.194,16.866,0.0,110.0,435.8,8750.0,0.0,0.0,110.0,110.0,433.0,0.0,0.0,0.0,1.0,333.3,78.0,78.0,70.3,70.3,34.0,-68.1,-3.45,-123.3,-29.3,3.0,-219.915,48.9,100.0,26.1,9.5,45.1,22.9,0.0,1.0,100.0,0.0,0.0,0.0,0.0,5578.0,512.0,6688.0,2868.0,310.9,323.6,338.4,347.6,25.12,22.91,26.16,24.77,325.0,325.0,355.0,355.0,100.0,99.95,100.0,100.0,-4.09,-4.16,-2.81,-2.68,-0.2,-0.3,2.2,3.8,83.0,69.2,83.2,74.6,87.0,72.0,86.3,77.2,83.6,68.8,84.5,74.8,80.9,67.2,83.4,73.7,2.77,-2.87,0.04,0.08,0.0,112.69,110.91,106.02,106.02,174.7,27.6,1.5053571004914414,130.3568193298651,32.769255667931276,21.60610253189546,-46.813222057602495,1,9
713,35.6,1272.3,44.05495159058374,-78.68395839638814,-19.7,-14.1,-15.0,9.4,6380.5,6380.0,132.4,0.0,1.0,1.0,0.0,1.0,1.0,0.0,0.0,0.0,100.0,1.0,1.186,26.0,0.0,-1.869,50.194,66.0,0.0,26.0,26.0,26.0,26.0,-1.35,0.38,-0.14,385.7,-1.95,-2.96,-0.67,-2.44,-962.12,726.5,5.6,0.0,0.0,0.0,0.0,0.74,-7.49,-7.49,-0.19,-1.38,0.15,2.84,36.76,-1.19,-0.33,18.4,100.0,0.0,0.0,106.55,0.0,0.0,0.0,0.0,0.0,0.0,0.0,5683.0,0.0,30.0,4.0,132.4,1.0,0.0,0.0,0.0,0.0,0.0,1.0,0.0,35.637,35.637,50.194,16.866,1.0,110.0,435.8,8750.0,0.0,0.0,110.0,110.0,433.0,0.0,0.0,0.0,1.0,333.3,79.1,79.1,72.7,72.7,34.0,-64.1,-1.49,-109.6,-25.3,3.0,-219.965,52.0,100.0,25.2,8.8,44.3,23.4,0.0,1.0,100.0,0.0,0.0,0.0,0.0,5486.0,265.0,6110.0,2610.0,311.1,324.2,339.9,348.2,25.12,22.91,26.16,24.77,325.0,325.0,355.0,355.0,100.0,99.95,100.0,100.0,-4.16,-4.23,-2.61,-2.51,-0.2,-0.4,2.4,3.9,83.0,69.2,83.2,74.6,87.0,71.9,86.4,77.2,83.7,68.8,84.6,74.8,81.0,67.2,83.5,73.7,2.95,-3.06,0.05,0.07,0.0,113.03,111.26,106.55,106.55,174.7,27.6,1.409432509913121,127.83610734884317,29.168238617216968,-14.404068259759697,-57.61627360806209,1,9
714,35.65,1274.1,44.054967148847524,-78.68396172387808,-24.6,-4.6,-47.3,-1.0,6382.3,6382.0,132.9,0.0,1.0,1.0,0.0,1.0,1.0,0.0,0.0,0.0,100.0,1.0,1.186,26.0,0.0,-1.866,50.194,66.0,0.0,26.0,26.0,26.0,26.0,-1.34,0.36,-0.12,387.5,-2.0,-2.76,-0.75,-2.37,-962.49,728.23,5.7,0.0,0.0,0.0,0.0,0.74,-7.49,-7.49,-0.29,-2.17,0.3,2.68,36.91,-1.14,-0.35,18.66,100.0,0.0,0.0,107.03,0.0,0.0,0.0,0.0,0.0,0.0,0.0,5709.0,0.0,30.0,4.0,132.9,0.0,0.0,0.0,0.0,0.0,0.0,1.0,0.0,35.686,35.686,50.194,16.866,0.0,110.0,435.8,8750.0,0.0,0.0,110.0,110.0,433.0,0.0,0.0,0.0,1.0,166.7,81.3,81.3,73.1,73.1,34.0,-39.2,-5.52,-99.1,-25.0,3.0,-220.015,55.3,100.0,23.9,8.6,41.9,23.3,0.0,1.0,100.0,0.0,0.0,0.0,0.0,3965.0,789.0,5673.0,2657.0,315.0,322.9,341.0,348.1,25.12,22.91,26.16,24.77,325.0,325.0,355.0,355.0,100.0,99.95,100.0,100.0,-4.27,-4.34,-2.53,-2.41,-0.3,-0.4,2.4,4.0,83.0,69.2,83.2,74.6,87.1,71.9,86.4,77.2,83.7,68.8,84.6,74.8,81.0,67.2,83.5,73.7,3.16,-3.27,0.05,0.08,0.0,113.42,111.72,107.03,107.03,174.7,27.6,1.3926952286842949,128.91641250388912,27.007628307125067,57.616273892573986,-36.010171645190425,1,9
715,35.7,1276.0,44.054983786297235,-78.68396514130018,3.0,42.4,-36.2,-26.6,6384.1,6384.0,133.4,0.0,1.0,1.0,0.0,1.0,1.0,0.0,0.0,0.0,100.0,1.0,1.186,26.0,0.0,-1.86,50.194,66.0,0.0,26.0,26.0,26.0,26.0,-1.47,0.31,0.05,386.0,-2.12,-2.67,-0.73,-2.24,-962.87,730.08,5.7,0.0,0.0,0.0,0.0,0.74,-7.49,-7.49,-0.42,-1.44,0.41,0.69,37.06,-1.09,-0.39,21.33,100.0,0.0,0.0,107.7,0.0,0.0,0.0,0.0,0.0,0.0,0.0,5745.0,0.0,30.0,4.0,133.4,1.0,0.0,0.0,0.0,0.0,0.0,1.0,0.0,35.736,35.736,50.194,16.866,1.0,110.0,435.8,8750.0,0.0,0.0,110.0,110.0,433.0,0.0,0.0,0.0,1.0,333.3,76.0,76.0,75.8,75.8,34.0,-67.4,-13.84,-92.8,-20.7,3.0,-220.065,58.5,100.0,24.1,10.7,40.1,22.0,0.0,1.0,100.0,0.0,0.0,0.0,0.0,6113.0,1566.0,5455.0,2383.0,309.4,320.6,341.5,348.8,25.12,22.91,26.16,24.77,325.0,325.0,355.0,355.0,100.0,99.95,100.0,100.0,-4.3,-4.3,-2.53,-2.41,-0.3,-0.3,2.6,4.3,83.0,69.2,83.2,74.5,87.2,71.9,86.5,77.2,83.8,68.7,84.6,74.8,81.1,67.1,83.5,73.7,3.33,-3.45,0.07,0.08,0.0,114.04,112.26,107.7,107.7,174.7,27.6,1.5031633311120915,133.59773473810057,25.567221452697925,18.00508553808328,-46.813222057602566,1,9
716,35.75,1277.9,44.055000513679104,-78.68396810906148,25.5,38.4,-31.4,-65.5,6386.0,6386.0,133.9,0.0,1.0,1.0,0.0,1.0,1.0,0.0,0.0,0.0,100.0,1.0,1.186,26.0,0.0,-1.857,50.194,66.0,0.0,26.0,26.0,26.0,26.0,-1.47,0.42,-0.0,386.1,-2.03,-2.78,-0.69,-2.38,-963.2,731.94,5.7,0.0,0.0,0.0,0.0,0.74,-7.49,-7.49,-0.39,2.42,0.31,-2.28,37.2,-1.18,-0.35,27.1,100.0,0.0,0.0,108.3,0.0,0.0,0.0,0.0,0.0,0.0,0.0,5777.0,0.0,30.0,4.0,133.9,0.0,0.0,0.0,0.0,0.0,0.0,1.0,0.0,35.787,35.787,50.194,16.866,0.0,110.0,435.8,8750.0,0.0,0.0,110.0,110.0,433.0,0.0,0.0,0.0,1.0,333.3,75.8,75.8,73.8,73.8,34.0,-65.0,-8.61,-118.8,-18.8,3.0,-220.12,60.5,100.0,25.3,12.6,38.6,18.7,0.0,1.0,89.8,0.0,0.0,0.0,0.0,5705.0,1080.0,6843.0,2403.0,310.5,322.0,338.4,349.0,25.12,22.91,26.16,24.77,325.0,325.0,355.0,355.0,100.0,99.95,100.0,100.0,-4.22,-4.31,-2.79,-2.68,-0.3,-0.2,2.8,4.8,83.0,69.2,83.2,74.5,87.2,71.9,86.5,77.2,83.9,68.7,84.7,74.8,81.2,67.1,83.6,73.7,3.44,-3.56,0.06,0.08,0.0,114.85,112.54,108.3,108.3,174.7,27.6,1.5288230767489088,130.71692105769745,22.32630610136481,-18.005085538083563,-57.61627360806205,1,9
717,35.8,1279.7,44.05501643167153,-78.68397071709414,-12.4,-65.9,115.5,60.7,6387.9,6388.0,134.4,0.0,1.0,1.0,0.0,1.0,1.0,0.0,0.0,0.0,100.0,1.0,1.186,26.0,0.0,-1.851,50.194,66.0,0.0,26.0,26.0,26.0,26.0,-1.42,0.3,-0.07,385.5,-2.0,-2.82,-0.59,-2.51,-963.49,733.71,5.7,0.0,0.0,0.0,0.0,0.75,-7.49,-7.49,-0.35,-0.85,0.2,-0.79,37.32,-1.29,-0.33,23.47,100.0,0.0,0.0,107.58,0.0,0.0,0.0,0.0,0.0,0.0,0.0,5739.0,0.0,30.0,4.0,134.4,1.0,0.0,0.0,0.0,0.0,0.0,1.0,0.0,35.836,35.836,50.194,16.866,1.0,110.0,435.8,8750.0,0.0,0.0,110.0,110.0,433.0,0.0,0.0,0.0,1.0,333.3,79.9,79.9,70.7,70.7,34.0,-46.4,0.0,-133.3,-32.3,3.0,-220.165,61.8,100.0,24.7,9.3,44.3,21.7,0.0,1.0,80.1,0.0,0.0,0.0,0.0,5307.0,0.0,6830.0,2993.0,311.5,325.0,338.1,347.3,25.12,22.9,26.16,24.77,325.0,325.0,355.0,355.0,100.0,99.95,100.0,100.0,-4.6,0.0,-2.85,-2.75,-0.2,0.0,1.6,3.6,83.0,69.2,83.2,74.5,87.3,71.8,86.5,77.2,83.9,68.7,84.7,74.8,81.2,67.1,83.6,73.7,3.52,-3.65,0.04,0.09,0.0,114.97,112.66,107.58,107.58,174.7,27.6,1.453031314184247,131.7972261842922,19.80559409189172,57.61627360806216,-46.813222626626256,1,9
718,35.85,1281.6,44.05503342884988,-78.68397305533031,12.6,12.5,-9.4,-2.0,6389.7,6390.0,134.8,0.0,1.0,1.0,0.0,1.0,1.0,0.0,0.0,0.0,100.0,1.0,1.186,26.0,0.0,-1.851,50.194,66.0,0.0,26.0,26.0,26.0,26.0,-1.54,0.22,0.01,385.0,-2.04,-2.92,-0.35,-2.51,-963.75,735.6,5.7,0.0,0.0,0.0,0.0,0.75,-7.49,-7.49,-0.46,-1.84,0.14,-1.34,37.42,-1.28,-0.4,23.61,100.0,0.0,0.0,108.52,0.0,0.0,0.0,0.0,0.0,0.0,0.0,5788.0,0.0,30.0,4.0,134.8,0.0,0.0,0.0,0.0,0.0,0.0,0.0,0.0,35.886,35.886,50.194,16.866,0.0,110.0,435.8,8750.0,0.0,0.0,110.0,110.0,433.0,0.0,0.0,0.0,1.0,166.7,75.9,75.9,72.8,72.8,34.0,-54.2,-8.06,-110.7,-14.6,3.0,-220.215,63.8,100.0,25.4,9.9,43.9,21.6,0.0,1.0,89.5,0.0,0.0,0.0,0.0,6532.0,1264.0,6129.0,1710.0,308.5,321.6,339.9,350.5,25.12,22.9,26.16,24.77,325.0,325.0,355.0,355.0,100.0,99.95,100.0,100.0,-4.75,-4.82,-2.84,-2.73,-0.4,-0.3,2.1,4.0,83.0,69.1,83.3,74.5,87.4,71.8,86.6,77.2,84.0,68.7,84.8,74.8,81.3,67.1,83.7,73.7,3.62,-3.77,0.05,0.09,0.0,115.16,113.12,108.52,108.52,174.7,27.6,1.5556670594957007,136.47854841850366,17.644983838702185,14.404068544271524,-46.813222626626306,1,9
719,35.9,1283.5,44.055050515960396,-78.68397512377001,20.8,9.1,-46.2,-57.6,6391.6,6392.0,135.2,0.0,1.0,1.0,0.0,1.0,1.0,0.0,0.0,0.0,100.0,1.0,1.186,26.0,0.0,-1.845,50.194,66.0,0.0,26.0,26.0,26.0,26.0,-1.43,0.39,-0.07,386.5,-2.07,-2.95,-0.62,-2.44,-963.98,737.5,5.7,0.0,0.0,0.0,0.0,0.75,-7.49,-7.49,-0.47,0.95,0.18,2.41,37.54,-1.43,-0.37,27.45,100.0,0.0,0.0,109.7,0.0,0.0,0.0,0.0,0.0,0.0,0.0,5852.0,0.0,30.0,4.0,135.2,1.0,0.0,0.0,0.0,0.0,0.0,0.0,0.0,35.937,35.937,50.194,16.866,1.0,110.0,435.8,8750.0,0.0,0.0,110.0,110.0,433.0,0.0,0.0,0.0,1.0,333.3,77.6,77.6,75.1,75.1,34.0,-37.4,-1.7,-95.1,-20.3,3.0,-220.27,65.5,100.0,26.4,10.4,41.5,18.8,0.0,1.0,100.0,0.0,0.0,0.0,0.0,5433.0,407.0,6101.0,2647.0,311.1,323.8,340.1,348.3,25.13,22.9,26.16,24.77,325.0,325.0,355.0,355.0,100.0,99.95,100.0,100.0,-4.9,-5.03,-3.19,-3.08,-0.3,-0.3,2.9,5.1,83.0,69.1,83.3,74.5,87.5,71.8,86.6,77.2,84.1,68.6,84.8,74.8,81.4,67.1,83.7,73.7,3.73,-3.87,0.05,0.1,0.0,115.71,113.32,109.7,109.7,174.7,27.6,1.4838800490605701,133.23763303871937,15.12427182922909,-25.207119810219183,-50.41423962043819,1,9
720,35.95,1285.4,44.055066703749304,-78.68397683248105,-59.7,-31.4,20.4,67.9,6393.5,6394.0,135.8,0.0,1.0,1.0,0.0,1.0,1.0,0.0,0.0,0.0,100.0,1.0,1.186,26.0,0.0,-1.845,50.194,66.0,0.0,26.0,26.0,26.0,26.0,-1.42,0.36,-0.12,386.9,-2.01,-2.74,-0.57,-2.33,-964.17,739.3,5.7,0.0,0.0,0.0,0.0,0.75,-7.49,-7.49,-0.5,-2.64,0.22,0.03,37.69,-1.55,-0.36,22.93,100.0,0.0,0.0,109.48,0.0,0.0,0.0,0.0,0.0,0.0,0.0,5840.0,0.0,30.0,4.0,135.8,0.0,0.0,0.0,0.0,0.0,0.0,0.0,0.0,35.984,35.984,50.194,16.866,0.0,110.0,435.8,8750.0,0.0,0.0,110.0,110.0,433.0,0.0,0.0,0.0,1.0,333.3,81.5,81.5,71.3,71.3,34.0,-19.1,-0.64,-112.0,-23.3,3.0,-220.315,66.4,100.0,23.4,8.8,42.6,22.1,0.0,1.0,100.0,0.0,0.0,0.0,0.0,4508.0,256.0,6626.0,2536.0,313.5,324.3,338.5,348.3,25.13,22.9,26.16,24.77,325.0,325.0,355.0,355.0,100.0,99.95,100.0,100.0,-5.29,-5.42,-3.25,-3.15,-0.3,-0.5,2.4,4.3,83.0,69.1,83.3,74.5,87.6,71.7,86.7,77.2,84.2,68.6,84.9,74.8,81.5,67.0,83.8,73.7,3.78,-3.93,0.05,0.09,0.0,115.78,113.5,109.48,109.48,174.7,27.6,1.4698299221338502,133.95783643748175,12.603559876658366,54.01525632973858,-50.41423905141451,1,9
721,36.0,1287.3,44.055083970724134,-78.68397827139563,-10.3,-4.4,-36.8,-37.6,6395.4,6395.0,136.3,0.0,1.0,1.0,0.0,1.0,1.0,0.0,0.0,0.0,100.0,1.0,1.186,26.0,0.0,-1.839,50.194,66.0,0.0,26.0,26.0,26.0,26.0,-1.4,0.3,-0.13,388.0,-1.97,-2.73,-0.65,-2.39,-964.33,741.22,5.7,0.0,0.0,0.0,0.0,0.75,-7.49,-7.49,-0.68,-2.85,0.22,0.15,37.82,-1.62,-0.41,23.69,100.0,0.0,0.0,110.88,0.0,0.0,0.0,0.0,0.0,0.0,0.0,5914.0,0.0,30.0,4.0,136.3,1.0,0.0,0.0,0.0,0.0,0.0,0.0,0.0,36.036,36.036,50.194,16.866,1.0,110.0,435.8,8750.0,0.0,0.0,110.0,110.0,433.0,0.0,0.0,0.0,1.0,333.3,79.4,79.4,76.6,76.6,34.0,-21.0,-2.59,-75.3,-11.3,3.0,-220.365,67.2,100.0,22.9,8.6,40.7,20.3,0.0,1.0,100.0,0.0,0.0,0.0,0.0,5718.0,834.0,5421.0,1704.0,310.6,322.7,341.6,350.5,25.13,22.9,26.16,24.76,325.0,325.0,355.0,355.0,100.0,99.95,100.0,100.0,-5.45,-5.58,-3.31,-3.23,-0.4,-0.4,3.3,5.2,83.0,69.1,83.3,74.5,87.7,71.7,86.8,77.2,84.3,68.6,85.0,74.8,81.6,67.0,83.8,73.7,3.84,-3.99,0.05,0.1,0.0,116.1,113.97,110.87,110.87,174.7,27.6,1.4376717288727632,138.63915867169322,10.082847924087638,54.01525689876195,-50.41423962043821,1,9
722,36.05,1289.2,44.05510132763113,-78.68397935058155,5.1,12.2,-40.4,-30.4,6397.3,6397.0,136.8,0.0,1.0,1.0,0.0,1.0,1.0,0.0,0.0,0.0,100.0,1.0,1.186,26.0,0.0,-1.839,50.194,66.0,0.0,26.0,26.0,26.0,26.0,-1.47,0.35,-0.08,388.0,-2.08,-2.73,-0.51,-2.46,-964.45,743.15,5.7,0.0,0.0,0.0,0.0,0.75,-7.49,-7.49,-0.76,-0.73,0.19,-1.27,37.95,-1.77,-0.4,26.62,100.0,0.0,0.0,111.37,0.0,0.0,0.0,0.0,0.0,0.0,0.0,5940.0,0.0,30.0,4.0,136.8,0.0,0.0,0.0,0.0,0.0,0.0,0.0,0.0,36.087,36.087,50.194,16.866,0.0,110.0,435.8,8750.0,0.0,0.0,110.0,110.0,433.0,0.0,0.0,0.0,1.0,166.7,79.3,79.3,76.1,76.1,34.0,-16.6,-2.9,-80.8,-13.3,3.0,-220.415,67.4,100.0,23.2,9.2,38.7,18.8,0.0,1.0,100.0,0.0,0.0,0.0,0.0,5459.0,963.0,6136.0,2111.0,311.3,322.5,339.9,349.5,25.13,22.9,26.17,24.76,325.0,325.0,355.0,355.0,100.0,99.95,100.0,100.0,-5.54,-5.64,-3.62,-3.52,-0.4,-0.4,3.4,5.5,83.1,69.1,83.3,74.5,87.8,71.7,86.8,77.2,84.4,68.6,85.0,74.8,81.7,67.0,83.9,73.7,3.84,-4.0,0.07,0.08,0.0,116.7,114.37,111.37,111.37,174.7,27.6,1.5132085117392118,139.35936212735794,7.562135914614545,10.803051550459202,-54.015256614250106,1,9
723,36.1,1291.1,44.05511877447029,-78.683980159971,67.7,53.6,33.9,-4.7,6399.2,6399.0,137.2,0.0,1.0,1.0,0.0,1.0,1.0,0.0,0.0,0.0,100.0,1.0,1.186,26.0,0.0,-1.833,50.194,66.0,0.0,26.0,26.0,26.0,26.0,-1.72,0.3,0.11,384.5,-1.89,-3.01,-0.4,-2.59,-964.54,745.09,5.7,0.0,0.0,0.0,0.0,0.75,-7.49,-7.49,-0.75,1.56,0.04,-3.77,38.07,-1.89,-0.42,30.03,100.0,0.0,0.0,111.76,0.0,0.0,0.0,0.0,0.0,0.0,0.0,5962.0,0.0,30.0,4.0,137.2,1.0,0.0,0.0,0.0,0.0,0.0,0.0,0.0,36.138,36.138,50.194,16.866,1.0,110.0,435.8,8750.0,0.0,0.0,110.0,110.0,433.0,0.0,0.0,0.0,1.0,166.7,73.3,73.3,74.4,74.4,34.0,-23.5,-5.8,-85.0,-11.5,3.0,-220.465,66.4,100.0,26.5,11.9,40.4,18.5,0.0,1.0,100.0,0.0,0.0,0.0,0.0,6916.0,1586.0,6537.0,2009.0,307.5,320.6,338.8,349.8,25.13,22.9,26.17,24.76,325.0,325.0,355.0,355.0,100.0,99.95,100.0,100.0,-5.57,-5.64,-3.87,-3.8,-0.4,-0.3,3.1,5.6,83.1,69.1,83.3,74.5,87.9,71.7,86.9,77.2,84.5,68.6,85.1,74.8,81.8,67.0,84.0,73.7,3.81,-3.95,0.07,0.1,0.0,117.3,114.76,111.76,111.76,174.7,27.6,1.7494284781036347,139.71946382673914,4.6813222626626265,-32.409154366866346,-61.217290601874,1,9
724,36.15,1293.0,44.05513622130944,-78.68398051969965,80.0,7.5,67.8,-1.9,6401.1,6401.0,137.6,0.0,1.0,1.0,0.0,1.0,1.0,0.0,0.0,0.0,100.0,1.0,1.186,26.0,0.0,-1.83,50.194,66.0,0.0,26.0,26.0,26.0,26.0,-1.81,0.37,0.13,381.9,-1.68,-3.05,-0.33,-2.64,-964.58,747.03,5.7,0.0,0.0,0.0,0.0,0.75,-7.49,-7.49,-0.57,4.45,-0.16,-2.32,38.18,-2.1,-0.37,33.03,100.0,0.0,0.0,112.03,0.0,0.0,0.0,0.0,0.0,0.0,0.0,5976.0,0.0,30.0,4.0,137.6,0.0,0.0,0.0,0.0,0.0,0.0,0.0,0.0,36.189,36.189,50.194,16.866,0.0,110.0,435.8,8750.0,0.0,0.0,110.0,110.0,433.0,0.0,0.0,0.0,1.0,166.7,72.0,72.0,71.2,71.2,34.0,-25.7,-1.69,-91.5,-13.9,3.0,-220.52,63.6,100.0,30.5,12.3,43.8,18.4,0.0,1.0,100.0,0.0,0.0,0.0,0.0,7250.0,637.0,7817.0,2641.0,306.6,323.2,335.7,348.5,25.13,22.9,26.17,24.76,325.0,325.0,355.0,355.0,100.0,99.95,100.0,100.0,-5.58,-5.71,-4.3,-4.22,-0.4,-0.3,3.1,5.7,83.1,69.1,83.3,74.5,88.1,71.7,87.0,77.2,84.7,68.6,85.2,74.8,81.9,67.0,84.1,73.7,3.65,-3.81,0.05,0.1,0.0,117.9,114.99,112.03,112.03,174.7,27.6,1.8519989200860782,136.1184466906713,1.4404068544271444,-68.41932515852136,-32.40915408235482,1,9
725,36.2,1294.9,44.055152768826986,-78.68398051969965,10.4,-39.2,115.0,97.0,6403.0,6403.0,138.1,0.0,1.0,1.0,0.0,1.0,1.0,0.0,0.0,0.0,100.0,1.0,1.186,26.0,0.0,-1.827,50.194,66.0,0.0,26.0,26.0,26.0,26.0,-1.76,0.36,0.18,380.6,-1.64,-3.17,-0.29,-2.65,-964.58,748.87,5.7,0.0,0.0,0.0,0.0,0.75,-7.49,-7.49,-0.39,2.3,-0.18,1.96,38.29,-2.24,-0.35,28.56,100.0,0.0,0.0,111.84,0.0,0.0,0.0,0.0,0.0,0.0,0.0,5965.0,0.0,30.0,4.0,138.1,1.0,0.0,0.0,0.0,0.0,0.0,0.0,0.0,36.237,36.237,50.194,16.866,1.0,110.0,435.8,8750.0,0.0,0.0,110.0,110.0,433.0,0.0,0.0,0.0,1.0,166.7,75.3,75.3,67.7,67.7,34.0,-17.3,0.0,-97.7,-18.8,3.0,-220.565,59.5,100.0,31.1,10.3,49.5,23.3,0.0,1.0,100.0,0.0,0.0,0.0,0.0,6781.0,0.0,8182.0,2964.0,307.7,325.0,334.8,347.3,25.13,22.9,26.17,24.76,325.0,325.0,355.0,355.0,100.0,99.95,100.0,100.0,-5.75,0.0,-4.4,-4.35,-0.3,0.0,2.7,5.0,83.1,69.1,83.3,74.5,88.2,71.6,87.2,77.3,84.8,68.5,85.4,74.9,82.1,66.9,84.2,73.7,3.42,-3.57,0.05,0.08,0.0,117.94,115.1,111.83,111.83,174.7,27.6,1.8054362353736007,132.877531310887,1.4404068544271444,10.803051550459486,32.40915408235482,1,9
726,36.25,1296.8,44.0551694062767,-78.683980159971,-60.2,-30.5,13.5,24.2,6405.0,6405.0,138.5,0.0,1.0,1.0,0.0,1.0,1.0,0.0,0.0,0.0,100.0,1.0,1.186,26.0,0.0,-1.827,50.194,66.0,0.0,26.0,26.0,26.0,26.0,-1.57,0.36,0.01,382.7,-1.65,-2.95,-0.41,-2.52,-964.54,750.72,5.7,0.0,0.0,0.0,0.0,0.76,-7.49,-7.49,-0.37,-1.37,0.01,5.11,38.41,-2.26,-0.35,21.49,100.0,0.0,0.0,112.05,0.0,0.0,0.0,0.0,0.0,0.0,0.0,5977.0,0.0,30.0,4.0,138.5,0.0,0.0,0.0,0.0,0.0,0.0,0.0,0.0,36.284,36.284,50.194,16.866,0.0,110.0,435.8,8750.0,0.0,0.0,110.0,110.0,433.0,0.0,0.0,0.0,1.0,333.3,78.9,78.9,67.2,67.2,34.0,-11.4,0.0,-85.0,-20.7,3.0,-220.615,54.4,100.0,28.0,8.8,50.2,24.5,0.0,1.0,100.0,0.0,0.0,0.0,0.0,5527.0,0.0,7154.0,2884.0,311.0,325.0,337.3,347.5,25.13,22.9,26.17,24.76,325.0,325.0,355.0,355.0,100.0,99.95,100.0,100.0,-5.78,0.0,-4.23,-4.15,-0.4,0.0,3.0,4.7,83.1,69.1,83.3,74.5,88.4,71.6,87.3,77.3,84.9,68.5,85.5,74.9,82.2,66.9,84.4,73.8,3.14,-3.26,0.04,0.07,0.0,117.89,115.1,112.05,112.05,174.7,27.6,1.6107762104029226,137.19875184571725,4.6813222626626265,86.42441069660464,61.217290601874,1,9
727,36.3,1298.7,44.05518703298017,-78.68397935058155,-65.2,4.0,-91.4,-33.2,6406.9,6407.0,138.9,0.0,1.0,1.0,0.0,1.0,1.0,0.0,0.0,0.0,100.0,1.0,1.186,26.0,0.0,-1.818,50.194,66.0,0.0,26.0,26.0,26.0,26.0,-1.49,0.34,-0.12,385.3,-1.98,-2.72,-0.55,-2.22,-964.45,752.68,5.7,0.0,0.0,0.0,0.0,0.76,-7.49,-7.49,-0.51,-2.96,0.3,4.38,38.54,-2.18,-0.38,19.03,100.0,0.0,0.0,113.08,0.0,0.0,0.0,0.0,0.0,0.0,0.0,6032.0,0.0,30.0,4.0,138.9,1.0,0.0,0.0,0.0,0.0,0.0,0.0,0.0,36.336,36.336,50.194,16.866,1.0,110.0,435.8,8750.0,0.0,0.0,110.0,110.0,433.0,0.0,0.0,0.0,1.0,333.3,78.5,78.5,70.2,70.2,34.0,-16.0,-4.75,-61.6,-15.1,3.0,-220.665,48.8,100.0,24.8,9.0,45.6,22.8,0.0,1.0,100.0,0.0,0.0,0.0,0.0,5054.0,1349.0,5699.0,2387.0,312.3,321.4,340.9,348.9,25.14,22.89,26.17,24.76,325.0,325.0,355.0,355.0,100.0,99.95,100.0,100.0,-5.5,-5.55,-3.99,-3.93,-0.4,-0.8,3.7,5.3,83.1,69.1,83.3,74.5,88.5,71.6,87.4,77.3,85.0,68.4,85.6,74.9,82.3,66.9,84.5,73.8,2.84,-2.94,0.04,0.09,0.0,118.14,116.02,113.08,113.08,174.7,27.6,1.5330035877322663,141.51997238054747,7.562135914614545,3.6010172783235816,54.015256614250106,1,9
728,36.35,1300.7,44.05520474961581,-78.68397827139563,12.4,64.9,-75.5,-35.3,6408.8,6409.0,139.4,0.0,1.0,1.0,0.0,1.0,1.0,0.0,0.0,0.0,100.0,1.0,1.186,26.0,0.0,-1.815,50.194,66.0,0.0,26.0,26.0,26.0,26.0,-1.59,0.33,-0.01,384.8,-1.93,-2.9,-0.37,-2.33,-964.33,754.65,5.7,0.0,0.0,0.0,0.0,0.76,-7.49,-7.49,-0.59,0.04,0.23,-4.48,38.67,-2.1,-0.42,22.56,100.0,0.0,0.0,113.62,0.0,0.0,0.0,0.0,0.0,0.0,0.0,6060.0,0.0,30.0,4.0,139.4,0.0,0.0,0.0,0.0,0.0,0.0,1.0,0.0,36.387,36.387,50.194,16.866,0.0,110.0,435.8,8750.0,0.0,0.0,110.0,110.0,433.0,0.0,0.0,0.0,1.0,333.3,74.9,74.9,72.9,72.9,34.0,-50.2,-7.79,-72.0,-11.5,3.0,-220.72,42.4,100.0,25.4,12.2,41.9,21.1,0.0,1.0,100.0,0.0,0.0,0.0,0.0,6342.0,1205.0,6170.0,1932.0,309.1,321.5,339.9,350.0,25.14,22.89,26.17,24.76,325.0,325.0,355.0,355.0,100.0,99.95,100.0,100.0,-4.8,-4.82,-3.89,-3.79,-0.4,-0.3,3.6,5.4,83.1,69.1,83.3,74.5,88.6,71.6,87.5,77.3,85.1,68.4,85.7,75.0,82.4,66.9,84.5,73.8,2.47,-2.55,0.05,0.09,0.0,119.01,117.0,113.62,113.62,174.7,27.6,1.623915022407269,137.5588535735496,10.082847924087638,-36.01017107616627,54.01525718327385,1,9
729,36.4,1302.6,44.05522138706552,-78.68397683248105,54.5,-14.7,24.6,-14.1,6410.8,6411.0,139.9,0.0,1.0,1.0,0.0,1.0,1.0,0.0,0.0,0.0,100.0,1.0,1.186,26.0,0.0,-1.812,50.194,66.0,0.0,26.0,26.0,26.0,26.0,-1.64,0.37,0.04,383.7,-1.7,-3.19,-0.42,-2.45,-964.17,756.5,5.7,0.0,0.0,0.0,0.0,0.76,-7.49,-7.49,-0.53,1.88,0.03,-3.16,38.8,-2.1,-0.41,24.39,100.0,0.0,0.0,113.5,0.0,0.0,0.0,0.0,0.0,0.0,0.0,6054.0,0.0,30.0,4.0,139.9,1.0,0.0,0.0,0.0,0.0,0.0,1.0,0.0,36.436,36.436,50.194,16.866,1.0,110.0,435.8,8750.0,0.0,0.0,110.0,110.0,433.0,0.0,0.0,0.0,1.0,333.3,74.8,74.8,71.7,71.7,34.0,-74.4,-2.72,-95.4,-15.6,3.0,-220.765,35.1,100.0,28.1,11.5,43.1,20.3,0.0,1.0,100.0,0.0,0.0,0.0,0.0,6476.0,420.0,7288.0,2296.0,308.6,323.7,337.0,349.1,25.14,22.89,26.18,24.76,325.0,325.0,355.0,355.0,100.0,99.95,100.0,100.0,-4.3,-4.31,-3.95,-3.86,-0.3,-0.3,3.1,5.0,83.1,69.1,83.4,74.5,88.7,71.5,87.6,77.4,85.2,68.4,85.8,75.0,82.5,66.8,84.6,73.8,2.07,-2.12,0.05,0.09,0.0,119.72,117.41,113.5,113.5,174.7,27.6,1.6816955729263245,137.91895527293084,12.96366163294193,50.414239335926254,61.21729060187402,1,9
730,36.45,1304.6,44.05523919363332,-78.68397503383784,-29.4,-43.1,49.3,12.7,6412.7,6413.0,140.4,0.0,1.0,1.0,0.0,1.0,1.0,0.0,0.0,0.0,100.0,1.0,1.186,26.0,0.0,-1.806,50.194,66.0,0.0,26.0,26.0,26.0,26.0,-1.54,0.38,-0.06,384.6,-1.71,-3.24,-0.35,-2.4,-963.97,758.48,5.7,0.0,0.0,0.0,0.0,0.76,-7.49,-7.49,-0.49,-0.52,0.03,2.38,38.95,-2.1,-0.37,20.58,100.0,0.0,0.0,113.57,0.0,0.0,0.0,0.0,0.0,0.0,0.0,6058.0,0.0,30.0,4.0,140.4,0.0,0.0,0.0,0.0,0.0,0.0,1.0,0.0,36.486,36.486,50.194,16.866,0.0,110.0,435.8,8750.0,0.0,0.0,110.0,110.0,433.0,0.0,0.0,0.0,1.0,166.7,78.7,78.7,68.4,68.4,34.0,-65.8,-2.03,-99.7,-20.4,3.0,-220.815,26.0,100.0,26.7,9.3,45.6,21.0,0.0,1.0,100.0,0.0,0.0,0.0,0.0,5203.0,329.0,7306.0,2597.0,311.9,324.1,336.8,348.3,25.14,22.89,26.18,24.76,325.0,325.0,355.0,355.0,100.0,99.95,100.0,100.0,-3.98,-4.01,-3.91,-3.78,-0.2,-0.6,3.0,4.6,83.1,69.1,83.4,74.5,88.8,71.5,87.7,77.4,85.3,68.4,85.9,75.0,82.6,66.8,84.8,73.8,1.57,-1.63,0.05,0.09,0.0,119.99,117.71,113.57,113.57,174.7,27.6,1.5873247934811578,142.60027750714224,16.20457698427504,3.601016993811754,54.01525604522637,1,9
731,36.5,1306.5,44.05525700020112,-78.68397278553383,-22.3,3.0,-24.3,12.5,6414.7,6415.0,140.9,0.0,1.0,1.0,0.0,1.0,1.0,0.0,0.0,0.0,100.0,1.0,1.186,26.0,0.0,-1.803,50.194,66.0,0.0,26.0,26.0,26.0,26.0,-1.47,0.36,-0.09,385.4,-1.84,-3.21,-0.53,-2.51,-963.72,760.46,5.7,0.0,0.0,0.0,0.0,0.76,-7.49,-7.49,-0.56,-1.39,0.1,0.63,39.1,-2.02,-0.4,18.78,100.0,0.0,0.0,114.28,0.0,0.0,0.0,0.0,0.0,0.0,0.0,6096.0,0.0,30.0,4.0,140.9,1.0,0.0,0.0,0.0,0.0,0.0,1.0,0.0,36.537,36.537,50.194,16.866,1.0,110.0,435.8,8750.0,0.0,0.0,110.0,110.0,433.0,0.0,0.0,0.0,1.0,333.3,77.5,77.5,72.3,72.3,34.0,-89.2,-8.82,-76.0,-17.5,3.0,-220.87,18.4,100.0,25.5,9.5,44.3,21.6,0.0,1.0,100.0,0.0,0.0,0.0,0.0,5662.0,910.0,5778.0,2284.0,310.7,322.4,340.6,349.1,25.14,22.89,26.18,24.76,325.0,325.0,355.0,355.0,100.0,99.95,100.0,100.0,-3.48,-3.45,-3.65,-3.55,-0.2,-0.3,3.3,4.7,83.1,69.1,83.4,74.5,88.8,71.5,87.8,77.4,85.4,68.4,86.0,75.0,82.6,66.8,84.8,73.8,1.12,-1.14,0.04,0.09,0.0,120.44,118.64,114.28,114.28,174.7,27.6,1.5161134522191932,138.27905697231202,18.365187237464568,-43.21220534830218,46.8132220576026,1,9
732,36.55,1308.5,44.055273727582986,-78.68397044729765,-11.1,-3.1,-49.5,-3.7,6416.6,6417.0,141.4,0.0,1.0,1.0,0.0,1.0,1.0,0.0,0.0,0.0,100.0,1.0,1.186,26.0,0.0,-1.803,50.194,66.0,0.0,26.0,26.0,26.0,26.0,-1.4,0.4,-0.12,386.1,-1.72,-3.13,-0.69,-2.5,-963.46,762.32,5.7,0.0,0.0,0.0,0.0,0.76,-7.49,-7.49,-0.61,-0.59,0.09,-0.27,39.25,-1.96,-0.39,17.86,100.0,0.0,0.0,114.61,0.0,0.0,0.0,0.0,0.0,0.0,0.0,6113.0,0.0,30.0,4.0,141.4,0.0,0.0,0.0,0.0,0.0,0.0,1.0,0.0,36.586,36.586,50.194,16.866,0.0,110.0,435.8,8750.0,0.0,0.0,110.0,110.0,433.0,0.0,0.0,0.0,1.0,333.3,78.7,78.7,72.9,72.9,34.0,-91.8,-7.83,-86.8,-19.9,3.0,-220.915,11.9,100.0,25.0,9.3,41.9,21.4,0.0,1.0,100.0,0.0,0.0,0.0,0.0,5234.0,805.0,6297.0,2427.0,311.7,322.8,339.5,348.7,25.14,22.89,26.18,24.76,325.0,325.0,355.0,355.0,100.0,99.95,100.0,100.0,-3.0,-2.97,-3.55,-3.42,-0.2,-0.3,3.3,4.6,83.1,69.1,83.4,74.5,88.9,71.4,87.8,77.4,85.4,68.3,86.0,75.0,82.7,66.7,84.9,73.8,0.74,-0.74,0.06,0.09,0.0,120.95,119.22,114.61,114.61,174.7,27.6,1.460958589419974,138.27905697231202,20.8858991900353,46.81322234211393,61.217291170897745,1,9
733,36.6,1310.5,44.05529153415078,-78.68396756946852,20.2,21.3,12.1,-4.3,6418.6,6419.0,142.0,0.0,1.0,1.0,0.0,1.0,1.0,0.0,0.0,0.0,100.0,1.0,1.186,26.0,0.0,-1.8,50.194,66.0,0.0,26.0,26.0,26.0,26.0,-1.39,0.37,0.0,385.0,-1.52,-3.17,-0.54,-2.38,-963.14,764.3,5.7,0.0,0.0,0.0,0.0,0.76,-7.49,-7.49,-0.62,0.53,0.05,0.14,39.41,-1.84,-0.39,16.71,100.0,0.0,0.0,114.9,0.0,0.0,0.0,0.0,0.0,0.0,0.0,6129.0,0.0,30.0,4.0,142.0,1.0,0.0,0.0,0.0,0.0,0.0,1.0,0.0,36.636,36.636,50.194,16.866,1.0,110.0,435.8,8750.0,0.0,0.0,110.0,110.0,433.0,0.0,0.0,0.0,1.0,333.3,76.4,76.4,72.6,72.6,34.0,-114.6,-9.89,-96.4,-18.6,3.0,-220.965,7.1,100.0,26.0,10.4,42.5,21.2,0.0,1.0,100.0,0.0,0.0,0.0,0.0,5932.0,958.0,6348.0,2178.0,309.9,322.3,339.3,349.5,25.14,22.89,26.18,24.76,325.0,325.0,355.0,355.0,100.0,99.95,100.0,100.0,-2.59,-2.54,-3.33,-3.19,-0.1,-0.2,3.0,4.3,83.1,69.0,83.4,74.5,88.9,71.4,87.9,77.4,85.4,68.3,86.1,75.0,82.7,66.7,85.0,73.9,0.46,-0.45,0.06,0.08,0.0,121.54,119.97,114.9,114.9,174.7,27.6,1.4384018909887457,142.9603792065234,24.486916354554342,50.4142396204378,61.217291170897674,1,9
