,Time,Distance,GPS Latitude,GPS Longitude,Damper Velocity (Calc) FL,Damper Velocity (Calc) FR,Damper Velocity (Calc) RL,Damper Velocity (Calc) RR,Corr Dist,Corr Dist (Unstretched),Corr Speed,ABS Active,ABS Enabled,AID Allow Tire Blankets,AID Auto Blip,AID Auto Clutch,AID Auto Shift,AID Fuel Rate,AID Ideal Line,AID Mech Damage,AID Stability,AID Tire Wear Rate,Air Density,Air Temp,Ballast,Best Lap Delta,Best Lap Time,Brake Bias,Brake Pos,Brake Temp FL,Brake Temp FR,Brake Temp RL,Brake Temp RR,CG Accel Lateral,CG Accel Longitudinal,CG Accel Vertical,CG Height,Camber FL,Camber FR,Camber RL,Camber RR,Car Coord X,Car Coord Y,Car Coord Z,Car Damage Front,Car Damage Left,Car Damage Rear,Car Damage Right,Car Pos Norm,Caster FL,Caster FR,Chassis Pitch Angle,Chassis Pitch Rate,Chassis Roll Angle,Chassis Roll Rate,Chassis Velocity X,Chassis Velocity Y,Chassis Velocity Z,Chassis Yaw Rate,Clutch Pos,DRS Active,DRS Available,Drive Train Speed,ERS Heat Charging,ERS Is Charging,ERS Max Energy,ERS Power Level,ERS Recovery Level,Engine Brake Setting,Engine Limiter,Engine RPM,Flags,Fuel Level,Gear,Ground Speed,HR Sample Clock,In Pit,KERS Charge,KERS Deployed Energy,KERS Input,KERS Max Energy,LR Sample Clock,Lap Invalidated,Lap Time,Lap Time2,Last Lap Time,Last Sector Time,MR Sample Clock,Max Fuel,Max Power,Max RPM,Max Sus Travel FL,Max Sus Travel FR,Max Sus Travel RL,Max Sus Travel RR,Max Torque,Max Turbo Boost,Num Tires Off Track,Penalties Enabled,Position,Raw Data Sample Rate,Ride Height FL,Ride Height FR,Ride Height RL,Ride Height RR,Road Temp,Self Align Torque FL,Self Align Torque FR,Self Align Torque RL,Self Align Torque RR,Session Lap Count,Session Time Left,Steering Angle,Surface Grip,Suspension Travel FL,Suspension Travel FR,Suspension Travel RL,Suspension Travel RR,TC Active,TC Enabled,Throttle Pos,Tire Dirt Level FL,Tire Dirt Level FR,Tire Dirt Level RL,Tire Dirt Level RR,Tire Load FL,Tire Load FR,Tire Load RL,Tire Load RR,Tire Loaded Radius FL,Tire Loaded Radius FR,Tire Loaded Radius RL,Tire Loaded Radius RR,Tire Pressure FL,Tire Pressure FR,Tire Pressure RL,Tire Pressure RR,Tire Radius FL,Tire Radius FR,Tire Radius RL,Tire Radius RR,Tire Rubber Grip FL,Tire Rubber Grip FR,Tire Rubber Grip RL,Tire Rubber Grip RR,Tire Slip Angle FL,Tire Slip Angle FR,Tire Slip Angle RL,Tire Slip Angle RR,Tire Slip Ratio FL,Tire Slip Ratio FR,Tire Slip Ratio RL,Tire Slip Ratio RR,Tire Temp Core FL,Tire Temp Core FR,Tire Temp Core RL,Tire Temp Core RR,Tire Temp Inner FL,Tire Temp Inner FR,Tire Temp Inner RL,Tire Temp Inner RR,Tire Temp Middle FL,Tire Temp Middle FR,Tire Temp Middle RL,Tire Temp Middle RR,Tire Temp Outer FL,Tire Temp Outer FR,Tire Temp Outer RL,Tire Temp Outer RR,Toe In FL,Toe In FR,Toe In RL,Toe In RR,Turbo Boost,Wheel Angular Speed FL,Wheel Angular Speed FR,Wheel Angular Speed RL,Wheel Angular Speed RR,Wind Direction,Wind Speed,CG Distance,Lateral Velocity,Longitudinal Velocity,Lateral Acceleration,Longitudinal Acceleration,level,curve_number
614,30.65,1049.7,44.05351447465748,-78.68261903672044,-0.7,13.3,-8.4,9.6,6157.9,6158.0,172.7,0.0,1.0,1.0,0.0,1.0,1.0,0.0,0.0,0.0,100.0,1.0,1.186,26.0,0.0,-1.788,50.194,66.0,0.0,26.0,26.0,26.0,26.0,0.61,0.34,0.01,379.1,-2.72,-2.15,-1.92,-1.25,-813.19,566.7,5.2,0.0,0.0,0.0,0.0,0.61,-7.49,-7.49,-0.78,0.23,-0.74,-0.89,47.97,0.35,-0.37,-8.74,100.0,0.0,0.0,137.19,0.0,0.0,0.0,0.0,0.0,0.0,0.0,7318.0,0.0,30.0,4.0,172.7,0.0,0.0,0.0,0.0,0.0,0.0,1.0,0.0,30.687,30.687,50.194,16.866,0.0,110.0,435.8,8750.0,0.0,0.0,110.0,110.0,433.0,0.0,0.0,0.0,1.0,333.3,73.7,73.7,64.3,64.3,34.0,16.5,68.58,12.8,63.1,3.0,-215.02,-14.9,100.0,17.1,23.3,34.4,41.3,0.0,1.0,100.0,0.0,0.0,0.0,0.0,2520.0,4739.0,4181.0,5591.0,318.6,312.0,344.6,340.5,25.16,22.87,26.14,24.71,325.0,325.0,355.0,355.0,100.0,99.93,100.0,100.0,0.97,1.02,0.58,0.7,-0.1,-0.1,2.1,1.5,83.2,68.9,83.1,74.2,86.0,69.2,85.9,76.4,82.7,66.3,84.1,74.0,80.1,64.9,83.0,72.9,-0.85,0.83,0.06,0.04,0.0,146.63,147.37,137.19,137.19,174.7,27.6,0.6984268036093689,149.44221002299443,83.5435969308483,-46.81322205760296,0.0,1,8
615,30.7,1052.1,44.05353255102177,-78.68262919905459,-5.3,5.6,-4.8,12.8,6160.3,6160.0,173.3,0.0,1.0,1.0,0.0,1.0,1.0,0.0,0.0,0.0,100.0,1.0,1.186,26.0,0.0,-1.788,50.194,66.0,0.0,26.0,26.0,26.0,26.0,0.7,0.36,0.04,378.9,-2.97,-2.2,-1.89,-1.13,-814.32,568.71,5.2,0.0,0.0,0.0,0.0,0.61,-7.49,-7.49,-0.77,0.12,-0.77,-0.72,48.13,0.42,-0.37,-9.94,100.0,0.0,0.0,137.63,0.0,0.0,0.0,0.0,0.0,0.0,0.0,7341.0,0.0,30.0,4.0,173.3,1.0,0.0,0.0,0.0,0.0,0.0,1.0,0.0,30.734,30.734,50.194,16.866,1.0,110.0,435.8,8750.0,0.0,0.0,110.0,110.0,433.0,0.0,0.0,0.0,1.0,166.7,73.8,73.8,63.9,63.9,34.0,16.8,73.86,18.0,72.3,3.0,-215.065,-15.8,100.0,16.8,23.6,34.2,42.0,0.0,1.0,100.0,0.0,0.0,0.0,0.0,2382.0,4839.0,4188.0,5809.0,319.0,311.8,344.6,339.9,25.16,22.87,26.14,24.71,325.0,325.0,355.0,355.0,100.0,99.93,100.0,100.0,1.09,1.11,0.7,0.83,-0.1,-0.1,2.1,1.5,83.2,68.9,83.1,74.2,85.9,69.3,85.9,76.4,82.6,66.3,84.1,74.0,80.0,64.9,83.0,72.9,-0.91,0.89,0.06,0.05,0.0,147.09,147.92,137.63,137.63,174.7,27.6,0.7881624198095212,149.0821083236132,84.98400378527543,82.82339341828077,82.82339370279317,1,8
616,30.75,1054.6,44.05355170657197,-78.68264026071034,-2.6,16.4,-12.3,11.0,6162.7,6163.0,173.9,0.0,1.0,1.0,0.0,1.0,1.0,0.0,0.0,0.0,100.0,1.0,1.186,26.0,0.0,-1.791,50.194,66.0,0.0,26.0,26.0,26.0,26.0,0.77,0.35,0.02,378.8,-2.94,-2.24,-1.86,-1.16,-815.55,570.84,5.1,0.0,0.0,0.0,0.0,0.61,-7.49,-7.49,-0.77,0.42,-0.79,-0.29,48.3,0.5,-0.38,-11.04,100.0,0.0,0.0,138.18,0.0,0.0,0.0,0.0,0.0,0.0,0.0,7371.0,0.0,30.0,4.0,173.9,0.0,0.0,0.0,0.0,0.0,0.0,1.0,0.0,30.786,30.786,50.194,16.866,0.0,110.0,435.8,8750.0,0.0,0.0,110.0,110.0,433.0,0.0,0.0,0.0,1.0,333.3,73.2,73.2,64.1,64.1,34.0,18.3,81.45,21.2,78.2,3.0,-215.115,-16.6,100.0,16.7,24.4,33.6,42.5,0.0,1.0,98.4,0.0,0.0,0.0,0.0,2325.0,5048.0,3962.0,5794.0,319.1,311.2,345.2,340.0,25.16,22.87,26.14,24.71,325.0,325.0,355.0,355.0,100.0,99.93,100.0,100.0,1.19,1.22,0.82,0.94,-0.1,-0.1,2.2,1.5,83.2,68.9,83.1,74.2,85.9,69.3,85.8,76.4,82.6,66.4,84.1,74.0,80.0,64.9,83.0,72.9,-0.96,0.94,0.06,0.04,0.0,147.53,148.45,138.18,138.18,174.7,27.6,0.8460496439334987,157.7245493648225,91.82593630112761,-3.601017278323866,25.207119525707355,1,8
617,30.8,1057.0,44.05357194130811,-78.68265213175555,-6.8,11.1,-6.7,17.0,6165.1,6165.0,174.5,0.0,1.0,1.0,0.0,1.0,1.0,0.0,0.0,0.0,100.0,1.0,1.186,26.0,0.0,-1.794,50.194,66.0,0.0,26.0,26.0,26.0,26.0,0.88,0.29,0.03,378.3,-2.9,-2.01,-2.13,-1.19,-816.87,573.09,5.1,0.0,0.0,0.0,0.0,0.61,-7.49,-7.49,-0.75,0.2,-0.8,-0.66,48.46,0.59,-0.38,-11.77,100.0,0.0,0.0,138.36,0.0,0.0,0.0,0.0,0.0,0.0,0.0,7380.0,0.0,30.0,4.0,174.5,1.0,0.0,0.0,0.0,0.0,0.0,1.0,0.0,30.84,30.84,50.194,16.866,1.0,110.0,435.8,8750.0,0.0,0.0,110.0,110.0,433.0,0.0,0.0,0.0,1.0,166.7,72.9,72.9,63.5,63.5,34.0,19.5,90.34,25.2,92.2,3.0,-215.17,-17.9,100.0,16.3,25.0,33.2,43.4,0.0,1.0,90.2,0.0,0.0,0.0,0.0,2207.0,5291.0,3984.0,6067.0,319.4,310.6,345.1,339.3,25.16,22.87,26.14,24.71,325.0,325.0,355.0,355.0,100.0,99.93,100.0,100.0,1.35,1.39,0.95,1.07,-0.1,-0.1,2.0,1.3,83.2,68.9,83.1,74.2,85.8,69.3,85.8,76.4,82.5,66.4,84.0,74.0,79.9,64.9,83.0,72.9,-1.02,1.01,0.07,0.04,0.0,148.0,149.0,138.36,138.36,174.7,27.6,0.9270382947861431,148.7220065957808,87.50471573784617,-136.838650317043,-50.41424018946216,1,8
618,30.85,1059.4,44.0535888485543,-78.68266211422537,-1.9,16.5,-12.6,11.3,6167.5,6168.0,174.9,0.0,1.0,1.0,0.0,1.0,1.0,0.0,0.0,0.0,100.0,1.0,1.186,26.0,0.0,-1.797,50.194,66.0,0.0,26.0,26.0,26.0,26.0,0.93,0.25,0.04,378.2,-2.87,-2.06,-2.1,-1.07,-817.98,574.97,5.1,0.0,0.0,0.0,0.0,0.62,-7.49,-7.49,-0.75,0.39,-0.82,-0.62,48.58,0.65,-0.39,-12.47,100.0,0.0,0.0,138.68,0.0,0.0,0.0,0.0,0.0,0.0,0.0,7397.0,0.0,30.0,4.0,174.9,0.0,0.0,0.0,0.0,0.0,0.0,0.0,0.0,30.886,30.886,50.194,16.866,0.0,110.0,435.8,8750.0,0.0,0.0,110.0,110.0,433.0,0.0,0.0,0.0,1.0,333.3,72.4,72.4,63.7,63.7,34.0,20.9,95.77,27.2,97.1,3.0,-215.215,-19.2,100.0,16.2,25.8,32.6,43.9,0.0,1.0,85.5,0.0,0.0,0.0,0.0,2169.0,5401.0,3853.0,6139.0,319.5,310.2,345.5,339.1,25.15,22.87,26.14,24.71,325.0,325.0,355.0,355.0,100.0,99.93,100.0,100.0,1.47,1.5,1.04,1.15,-0.1,-0.1,2.0,1.2,83.2,68.9,83.1,74.2,85.8,69.3,85.8,76.4,82.5,66.4,84.0,74.1,79.9,64.9,82.9,72.9,-1.1,1.08,0.07,0.03,0.0,148.32,149.38,138.68,138.68,174.7,27.6,0.9638464608017193,144.0406843331182,86.7845122821814,79.22237613995748,93.62644468422872,1,8
619,30.9,1061.8,44.05360791417234,-78.68267380540624,-2.2,14.8,-5.3,17.6,6170.0,6170.0,175.3,0.0,1.0,1.0,0.0,1.0,1.0,0.0,0.0,0.0,100.0,1.0,1.186,26.0,0.0,-1.797,50.194,66.0,0.0,26.0,26.0,26.0,26.0,1.01,0.26,0.07,377.7,-3.09,-2.11,-2.07,-0.98,-819.28,577.09,5.1,0.0,0.0,0.0,0.0,0.62,-7.49,-7.49,-0.74,0.36,-0.85,-0.49,48.71,0.71,-0.41,-13.27,100.0,0.0,0.0,139.05,0.0,0.0,0.0,0.0,0.0,0.0,0.0,7417.0,0.0,30.0,4.0,175.3,1.0,0.0,0.0,0.0,0.0,0.0,0.0,0.0,30.936,30.936,50.194,16.866,1.0,110.0,435.8,8750.0,0.0,0.0,110.0,110.0,433.0,0.0,0.0,0.0,1.0,333.3,71.6,71.6,63.5,63.5,34.0,23.3,105.51,29.2,102.3,3.0,-215.265,-20.7,100.0,16.1,26.6,32.3,44.8,0.0,1.0,85.9,0.0,0.0,0.0,0.0,2253.0,5676.0,3746.0,6230.0,319.3,309.5,345.7,338.8,25.15,22.87,26.14,24.72,325.0,325.0,355.0,355.0,100.0,99.93,100.0,100.0,1.64,1.66,1.13,1.24,-0.1,-0.1,2.0,1.2,83.2,68.9,83.1,74.2,85.7,69.4,85.7,76.4,82.4,66.4,84.0,74.1,79.8,65.0,82.9,73.0,-1.19,1.17,0.07,0.03,0.0,148.68,149.82,139.05,139.05,174.7,27.6,1.0452750834110607,156.64424420977656,96.86736020626904,32.409154366866915,61.217291170897994,1,8
620,30.95,1064.3,44.05362796904415,-78.68268630597656,-3.1,10.6,-12.5,12.7,6172.4,6172.0,175.8,0.0,1.0,1.0,0.0,1.0,1.0,0.0,0.0,0.0,100.0,1.0,1.186,26.0,0.0,-1.797,50.194,66.0,0.0,26.0,26.0,26.0,26.0,1.08,0.25,0.09,377.6,-3.06,-2.02,-2.31,-1.01,-820.67,579.32,5.1,0.0,0.0,0.0,0.0,0.62,-7.49,-7.49,-0.72,0.67,-0.87,-0.87,48.84,0.8,-0.4,-14.16,100.0,0.0,0.0,139.48,0.0,0.0,0.0,0.0,0.0,0.0,0.0,7440.0,0.0,30.0,4.0,175.8,0.0,0.0,0.0,0.0,0.0,0.0,0.0,0.0,30.99,30.99,50.194,16.866,0.0,110.0,435.8,8750.0,0.0,0.0,110.0,110.0,433.0,0.0,0.0,0.0,1.0,166.7,71.8,71.8,62.9,62.9,34.0,19.5,109.39,32.4,113.2,3.0,-215.32,-21.2,100.0,16.0,27.1,31.7,45.4,0.0,1.0,88.3,0.0,0.0,0.0,0.0,1902.0,5774.0,3832.0,6456.0,320.3,309.3,345.5,338.3,25.15,22.87,26.14,24.72,325.0,325.0,355.0,355.0,100.0,99.93,100.0,100.0,1.73,1.77,1.25,1.37,-0.0,-0.1,2.1,1.2,83.2,68.9,83.1,74.2,85.7,69.4,85.7,76.5,82.4,66.5,83.9,74.1,79.8,65.0,82.9,73.0,-1.23,1.22,0.08,0.03,0.0,149.0,150.24,139.48,139.48,174.7,27.6,1.1122050170719426,147.2815997698049,92.9062413992712,-144.04068402015497,-50.414239051414285,1,8
621,31.0,1066.7,44.053644696426026,-78.68269700790367,-1.2,16.6,-0.5,13.5,6174.9,6175.0,176.2,0.0,1.0,1.0,0.0,1.0,1.0,0.0,0.0,0.0,100.0,1.0,1.186,26.0,0.0,-1.8,50.194,66.0,0.0,26.0,26.0,26.0,26.0,1.11,0.29,0.08,377.2,-3.03,-1.96,-2.27,-0.93,-821.86,581.18,5.1,0.0,0.0,0.0,0.0,0.62,-7.49,-7.49,-0.7,0.91,-0.9,-1.1,48.95,0.87,-0.41,-14.71,100.0,0.0,0.0,139.97,0.0,0.0,0.0,0.0,0.0,0.0,0.0,7466.0,0.0,30.0,4.0,176.2,1.0,0.0,0.0,0.0,0.0,0.0,0.0,0.0,31.034,31.034,50.194,16.866,1.0,110.0,435.8,8750.0,0.0,0.0,110.0,110.0,433.0,0.0,0.0,0.0,1.0,333.3,71.0,71.0,62.9,62.9,34.0,21.8,113.47,31.8,113.9,3.0,-215.365,-21.2,100.0,15.9,27.9,31.7,46.1,0.0,1.0,92.6,0.0,0.0,0.0,0.0,2010.0,5907.0,3635.0,6399.0,319.9,308.8,346.0,338.4,25.15,22.87,26.14,24.72,325.0,325.0,355.0,355.0,100.0,99.93,100.0,100.0,1.8,1.83,1.33,1.46,-0.1,-0.1,2.2,1.3,83.2,69.0,83.1,74.2,85.6,69.5,85.7,76.5,82.4,66.5,83.9,74.1,79.7,65.1,82.9,73.0,-1.23,1.21,0.08,0.04,0.0,149.33,150.58,139.97,139.97,174.7,27.6,1.1500434774390054,142.24017580776106,91.82593630112761,72.02034186782157,97.22746224706441,1,8
622,31.05,1069.2,44.05366349224759,-78.68270923867752,-2.1,3.1,-0.4,16.0,6177.3,6177.0,176.7,0.0,1.0,1.0,0.0,1.0,1.0,0.0,0.0,0.0,100.0,1.0,1.186,26.0,0.0,-1.8,50.194,66.0,0.0,26.0,26.0,26.0,26.0,1.19,0.28,0.12,376.6,-3.19,-2.01,-2.22,-0.99,-823.22,583.27,5.1,0.0,0.0,0.0,0.0,0.62,-7.49,-7.49,-0.66,0.99,-0.95,-0.88,49.08,0.94,-0.4,-14.87,100.0,0.0,0.0,140.49,0.0,0.0,0.0,0.0,0.0,0.0,0.0,7494.0,0.0,30.0,4.0,176.7,0.0,0.0,0.0,0.0,0.0,0.0,0.0,0.0,31.086,31.086,50.194,16.866,0.0,110.0,435.8,8750.0,0.0,0.0,110.0,110.0,433.0,0.0,0.0,0.0,1.0,333.3,70.6,70.6,62.2,62.2,34.0,23.4,117.89,36.8,124.2,3.0,-215.415,-19.9,100.0,15.8,28.1,31.7,46.9,0.0,1.0,97.3,0.0,0.0,0.0,0.0,2133.0,6073.0,3827.0,6693.0,319.6,308.4,345.5,337.6,25.15,22.87,26.14,24.72,325.0,325.0,355.0,355.0,100.0,99.93,100.0,100.0,1.84,1.86,1.43,1.55,-0.1,-0.1,2.3,1.4,83.2,69.0,83.1,74.2,85.6,69.5,85.7,76.5,82.3,66.6,83.9,74.2,79.7,65.1,82.8,73.0,-1.18,1.16,0.08,0.03,0.0,149.72,151.01,140.48,140.48,174.7,27.6,1.2283729075488437,154.48363395658706,102.62898762397764,28.808136804030937,72.02034158330989,1,8
623,31.1,1071.6,44.05368327732292,-78.68272263856944,-2.0,8.4,0.6,12.9,6179.8,6180.0,177.3,0.0,1.0,1.0,0.0,1.0,1.0,0.0,0.0,0.0,100.0,1.0,1.186,26.0,0.0,-1.803,50.194,66.0,0.0,26.0,26.0,26.0,26.0,1.16,0.33,0.02,376.8,-3.16,-1.94,-2.39,-0.92,-824.71,585.47,5.1,0.0,0.0,0.0,0.0,0.62,-7.49,-7.49,-0.6,1.29,-0.99,-1.27,49.23,1.01,-0.39,-14.48,100.0,0.0,0.0,140.97,0.0,0.0,0.0,0.0,0.0,0.0,0.0,7519.0,0.0,30.0,4.0,177.3,1.0,0.0,0.0,0.0,0.0,0.0,0.0,0.0,31.14,31.14,50.194,16.866,1.0,110.0,435.8,8750.0,0.0,0.0,110.0,110.0,433.0,0.0,0.0,0.0,1.0,166.7,71.6,71.6,61.6,61.6,34.0,16.6,108.12,39.1,127.9,3.0,-215.47,-16.6,100.0,15.7,28.5,31.7,47.6,0.0,1.0,98.4,0.0,0.0,0.0,0.0,1653.0,5736.0,3961.0,6826.0,320.7,309.4,345.2,337.3,25.15,22.87,26.14,24.72,325.0,325.0,355.0,355.0,100.0,99.93,100.0,100.0,1.75,1.77,1.52,1.63,-0.1,-0.1,2.4,1.5,83.2,69.0,83.1,74.3,85.5,69.6,85.7,76.6,82.3,66.6,83.9,74.2,79.7,65.2,82.8,73.1,-0.99,0.96,0.07,0.03,0.0,150.19,151.49,140.97,140.97,174.7,27.6,1.2061923561356207,145.12098948816416,99.0279704594586,-144.04068430466708,-50.414239620438224,1,8
624,31.15,1074.1,44.05369973490831,-78.68273397002167,2.9,5.8,8.9,13.7,6182.3,6182.0,177.7,0.0,1.0,1.0,0.0,1.0,1.0,0.0,0.0,0.0,100.0,1.0,1.186,26.0,0.0,-1.806,50.194,66.0,0.0,26.0,26.0,26.0,26.0,1.17,0.28,0.11,376.2,-3.14,-1.92,-2.34,-0.9,-825.97,587.3,5.1,0.0,0.0,0.0,0.0,0.62,-7.49,-7.49,-0.57,1.13,-1.05,-1.37,49.36,1.03,-0.4,-13.51,100.0,0.0,0.0,141.35,0.0,0.0,0.0,0.0,0.0,0.0,0.0,7540.0,0.0,30.0,4.0,177.7,0.0,0.0,0.0,0.0,0.0,0.0,0.0,0.0,31.184,31.184,50.194,16.866,0.0,110.0,435.8,8750.0,0.0,0.0,110.0,110.0,433.0,0.0,0.0,0.0,1.0,333.3,70.3,70.3,61.7,61.7,34.0,21.3,114.74,36.7,121.1,3.0,-215.515,-14.7,100.0,15.8,28.8,32.1,48.2,0.0,1.0,98.4,0.0,0.0,0.0,0.0,2105.0,6045.0,3722.0,6574.0,319.7,308.5,345.8,337.9,25.15,22.88,26.14,24.72,325.0,325.0,355.0,355.0,100.0,99.93,100.0,100.0,1.64,1.72,1.52,1.61,-0.1,-0.1,2.3,1.5,83.2,69.0,83.1,74.3,85.5,69.6,85.7,76.6,82.2,66.7,83.9,74.3,79.6,65.2,82.8,73.1,-0.86,0.87,0.07,0.02,0.0,150.66,151.82,141.35,141.35,174.7,27.6,1.2080562900792329,140.07956552612035,97.58756366193381,28.808136804030937,64.81830873373298,1,8
625,31.2,1076.6,44.05371826093339,-78.68274701018497,1.5,-1.1,4.7,6.4,6184.7,6185.0,178.2,0.0,1.0,1.0,0.0,1.0,1.0,0.0,0.0,0.0,100.0,1.0,1.186,26.0,0.0,-1.806,50.194,66.0,0.0,26.0,26.0,26.0,26.0,1.19,0.33,0.14,375.7,-3.16,-1.92,-2.28,-0.89,-827.42,589.36,5.1,0.0,0.0,0.0,0.0,0.63,-7.49,-7.49,-0.51,1.2,-1.12,-1.22,49.51,1.02,-0.39,-12.5,100.0,0.0,0.0,141.64,0.0,0.0,0.0,0.0,0.0,0.0,0.0,7555.0,0.0,30.0,4.0,178.2,1.0,0.0,0.0,0.0,0.0,0.0,0.0,0.0,31.236,31.236,50.194,16.866,1.0,110.0,435.8,8750.0,0.0,0.0,110.0,110.0,433.0,0.0,0.0,0.0,1.0,333.3,70.1,70.1,60.7,60.7,34.0,23.4,116.13,41.2,126.3,3.0,-215.565,-14.9,100.0,15.9,28.7,32.4,48.6,0.0,1.0,98.4,0.0,0.0,0.0,0.0,2249.0,6103.0,4076.0,6840.0,319.3,308.3,344.9,337.3,25.15,22.88,26.14,24.72,325.0,325.0,355.0,355.0,100.0,99.93,100.0,100.0,1.67,1.72,1.48,1.57,-0.1,-0.1,2.2,1.5,83.2,69.0,83.1,74.3,85.5,69.7,85.6,76.7,82.2,66.7,83.9,74.3,79.6,65.3,82.8,73.2,-0.85,0.85,0.07,0.02,0.0,151.17,152.22,141.64,141.64,174.7,27.6,1.2428193754524428,148.00180316856725,105.5098013328319,28.808137088542765,68.41932458949785,1,8
626,31.25,1079.1,44.05373669702631,-78.68276032014474,6.5,3.8,2.9,5.5,6187.2,6187.0,178.8,0.0,1.0,1.0,0.0,1.0,1.0,0.0,0.0,0.0,100.0,1.0,1.186,26.0,0.0,-1.809,50.194,66.0,0.0,26.0,26.0,26.0,26.0,1.15,0.32,0.12,375.9,-3.17,-1.96,-2.33,-0.92,-828.9,591.41,5.1,0.0,0.0,0.0,0.0,0.63,-7.49,-7.49,-0.45,1.5,-1.16,-1.03,49.65,0.99,-0.38,-12.12,100.0,0.0,0.0,142.09,0.0,0.0,0.0,0.0,0.0,0.0,0.0,7579.0,0.0,30.0,4.0,178.8,0.0,0.0,0.0,0.0,0.0,0.0,0.0,0.0,31.287,31.287,50.194,16.866,0.0,110.0,435.8,8750.0,0.0,0.0,110.0,110.0,433.0,0.0,0.0,0.0,1.0,333.3,70.6,70.6,60.7,60.7,34.0,18.9,111.82,38.1,126.4,3.0,-215.62,-16.4,100.0,16.2,28.9,32.5,48.8,0.0,1.0,100.0,0.0,0.0,0.0,0.0,1867.0,5908.0,4007.0,6931.0,320.2,308.9,345.1,337.1,25.15,22.88,26.14,24.73,325.0,325.0,355.0,355.0,100.0,99.93,100.0,100.0,1.71,1.74,1.42,1.52,-0.1,-0.1,2.2,1.5,83.2,69.0,83.1,74.3,85.4,69.7,85.6,76.7,82.1,66.8,83.8,74.4,79.5,65.3,82.8,73.2,-0.94,0.93,0.06,0.03,0.0,151.62,152.68,142.09,142.09,174.7,27.6,1.1997082978791136,142.96037923497462,104.4294961208836,-61.21729088638574,10.803050412412318,1,8
627,31.3,1081.6,44.053753964001146,-78.68277309051153,9.0,6.0,10.8,12.0,6189.7,6190.0,179.3,0.0,1.0,1.0,0.0,1.0,1.0,0.0,0.0,0.0,100.0,1.0,1.186,26.0,0.0,-1.809,50.194,66.0,0.0,26.0,26.0,26.0,26.0,1.14,0.3,0.13,375.5,-3.18,-2.01,-2.35,-0.91,-830.32,593.33,5.1,0.0,0.0,0.0,0.0,0.63,-7.49,-7.49,-0.4,1.54,-1.19,-0.68,49.79,0.94,-0.39,-12.3,100.0,0.0,0.0,142.52,0.0,0.0,0.0,0.0,0.0,0.0,0.0,7602.0,0.0,30.0,4.0,179.3,1.0,0.0,0.0,0.0,0.0,0.0,0.0,0.0,31.336,31.336,50.194,16.866,1.0,110.0,435.8,8750.0,0.0,0.0,110.0,110.0,433.0,0.0,0.0,0.0,1.0,166.7,69.5,69.5,60.7,60.7,34.0,23.5,117.55,33.7,118.5,3.0,-215.665,-18.1,100.0,16.7,29.2,33.1,49.4,0.0,1.0,100.0,0.0,0.0,0.0,0.0,2191.0,6085.0,3813.0,6678.0,319.4,308.3,345.5,337.7,25.14,22.88,26.14,24.73,325.0,325.0,355.0,355.0,100.0,99.93,100.0,100.0,1.76,1.8,1.34,1.45,-0.1,-0.1,2.2,1.5,83.1,69.0,83.1,74.3,85.4,69.8,85.6,76.7,82.1,66.8,83.8,74.4,79.5,65.4,82.7,73.3,-1.04,1.04,0.07,0.03,0.0,152.03,153.1,142.52,142.52,174.7,27.6,1.1859595271340417,141.88007407992868,106.59010637407313,25.207119525707924,75.62135971516895,1,8
628,31.35,1084.1,44.05377213029758,-78.68278694006426,1.2,-2.0,5.6,7.9,6192.2,6192.0,179.8,0.0,1.0,1.0,0.0,1.0,1.0,0.0,0.0,0.0,100.0,1.0,1.186,26.0,0.0,-1.812,50.194,66.0,0.0,26.0,26.0,26.0,26.0,1.18,0.31,0.16,375.0,-3.15,-2.02,-2.36,-0.91,-831.86,595.35,5.1,0.0,0.0,0.0,0.0,0.63,-7.49,-7.49,-0.33,1.37,-1.23,-0.48,49.94,0.92,-0.39,-12.78,100.0,0.0,0.0,142.81,0.0,0.0,0.0,0.0,0.0,0.0,0.0,7618.0,0.0,30.0,4.0,179.8,0.0,0.0,0.0,0.0,0.0,0.0,1.0,0.0,31.386,31.386,50.194,16.866,0.0,110.0,435.8,8750.0,0.0,0.0,110.0,110.0,433.0,0.0,0.0,0.0,1.0,333.3,69.3,69.3,59.9,59.9,34.0,26.0,118.86,37.3,123.6,3.0,-215.715,-19.9,100.0,16.7,29.1,33.4,49.8,0.0,1.0,100.0,0.0,0.0,0.0,0.0,2331.0,6114.0,4130.0,6900.0,319.1,308.3,344.8,337.1,25.14,22.88,26.14,24.73,325.0,325.0,355.0,355.0,100.0,99.93,100.0,100.0,1.81,1.85,1.34,1.44,-0.1,-0.1,2.2,1.4,83.1,69.0,83.1,74.3,85.3,69.8,85.6,76.8,82.0,66.9,83.8,74.4,79.4,65.4,82.7,73.3,-1.13,1.13,0.07,0.02,0.0,152.45,153.53,142.81,142.81,174.7,27.6,1.2304877081872863,145.48109118754542,111.9916320924005,-14.404068259759697,39.61118863900225,1,8
629,31.4,1086.6,44.05379029659402,-78.68280105941348,0.6,-0.6,-1.6,3.7,6194.7,6195.0,180.3,0.0,1.0,1.0,0.0,1.0,1.0,0.0,0.0,0.0,100.0,1.0,1.186,26.0,0.0,-1.812,50.194,66.0,0.0,26.0,26.0,26.0,26.0,1.18,0.33,0.05,375.4,-3.14,-2.02,-2.36,-0.91,-833.43,597.37,5.1,0.0,0.0,0.0,0.0,0.63,-7.49,-7.49,-0.27,1.41,-1.23,-0.18,50.08,0.93,-0.38,-13.62,100.0,0.0,0.0,143.27,0.0,0.0,0.0,0.0,0.0,0.0,0.0,7642.0,0.0,30.0,4.0,180.3,1.0,0.0,0.0,0.0,0.0,0.0,1.0,0.0,31.437,31.437,50.194,16.866,1.0,110.0,435.8,8750.0,0.0,0.0,110.0,110.0,433.0,0.0,0.0,0.0,1.0,333.3,69.9,69.9,60.0,60.0,34.0,22.5,115.77,37.1,126.8,3.0,-215.765,-21.9,100.0,16.8,29.1,33.3,50.0,0.0,1.0,100.0,0.0,0.0,0.0,0.0,2037.0,5942.0,4094.0,7011.0,319.9,308.8,344.9,336.9,25.14,22.88,26.14,24.73,325.0,325.0,355.0,355.0,100.0,99.93,100.0,100.0,1.89,1.95,1.35,1.47,-0.1,-0.1,2.2,1.4,83.1,69.0,83.1,74.3,85.3,69.9,85.6,76.8,82.0,67.0,83.8,74.5,79.4,65.5,82.7,73.4,-1.25,1.24,0.08,0.02,0.0,152.85,153.97,143.27,143.27,174.7,27.6,1.2262952336203545,140.4396672539527,110.55122523797336,-61.217290886386024,3.6010169938120384,1,8
630,31.45,1089.1,44.053807203840215,-78.68281454923756,1.1,1.6,-0.7,6.4,6197.2,6197.0,180.8,0.0,1.0,1.0,0.0,1.0,1.0,0.0,0.0,0.0,100.0,1.0,1.186,26.0,0.0,-1.815,50.194,66.0,0.0,26.0,26.0,26.0,26.0,1.21,0.31,0.1,375.7,-3.13,-2.02,-2.39,-0.89,-834.93,599.25,5.1,0.0,0.0,0.0,0.0,0.63,-7.49,-7.49,-0.22,1.38,-1.21,0.49,50.21,0.95,-0.39,-14.67,100.0,0.0,0.0,143.74,0.0,0.0,0.0,0.0,0.0,0.0,0.0,7667.0,0.0,30.0,4.0,180.8,0.0,0.0,0.0,0.0,0.0,0.0,1.0,0.0,31.484,31.484,50.194,16.866,0.0,110.0,435.8,8750.0,0.0,0.0,110.0,110.0,433.0,0.0,0.0,0.0,1.0,333.3,69.5,69.5,60.9,60.9,34.0,24.3,119.31,32.8,122.1,3.0,-215.815,-23.5,100.0,16.8,29.2,33.2,50.3,0.0,1.0,98.4,0.0,0.0,0.0,0.0,2104.0,6051.0,3654.0,6736.0,319.6,308.4,345.9,337.5,25.14,22.88,26.14,24.73,325.0,325.0,355.0,355.0,100.0,99.93,100.0,100.0,1.98,2.03,1.4,1.5,-0.1,-0.1,2.3,1.4,83.1,69.0,83.2,74.3,85.2,70.0,85.6,76.9,82.0,67.0,83.8,74.5,79.4,65.5,82.7,73.4,-1.34,1.34,0.07,0.02,0.0,153.19,154.42,143.74,143.74,174.7,27.6,1.2530762147610974,139.35936209890681,112.3517337917817,21.606102531895317,72.02034215233354,1,8
631,31.5,1091.6,44.05382510034017,-78.68282911824758,-4.3,-0.6,-3.0,7.1,6199.7,6200.0,181.3,0.0,1.0,1.0,0.0,1.0,1.0,0.0,0.0,0.0,100.0,1.0,1.186,26.0,0.0,-1.815,50.194,66.0,0.0,26.0,26.0,26.0,26.0,1.27,0.26,0.13,375.5,-3.11,-2.01,-2.41,-0.86,-836.55,601.24,5.1,0.0,0.0,0.0,0.0,0.64,-7.49,-7.49,-0.18,0.98,-1.19,0.78,50.34,1.0,-0.4,-15.44,100.0,0.0,0.0,144.06,0.0,0.0,0.0,0.0,0.0,0.0,0.0,7684.0,0.0,30.0,4.0,181.3,1.0,0.0,0.0,0.0,0.0,0.0,1.0,0.0,31.536,31.536,50.194,16.866,1.0,110.0,435.8,8750.0,0.0,0.0,110.0,110.0,433.0,0.0,0.0,0.0,1.0,333.3,69.5,69.5,60.5,60.5,34.0,25.5,122.74,36.6,132.2,3.0,-215.865,-24.9,100.0,16.6,29.1,33.1,50.7,0.0,1.0,98.4,0.0,0.0,0.0,0.0,2129.0,6167.0,3805.0,7004.0,319.6,308.1,345.5,336.8,25.14,22.88,26.14,24.74,325.0,325.0,355.0,355.0,100.0,99.93,100.0,100.0,2.12,2.15,1.48,1.59,-0.1,-0.1,2.3,1.3,83.1,69.0,83.2,74.3,85.2,70.0,85.6,76.9,81.9,67.1,83.8,74.6,79.3,65.6,82.7,73.4,-1.44,1.42,0.08,0.03,0.0,153.56,154.82,144.06,144.06,174.7,27.6,1.3028430450365078,142.60027750714224,117.75325945320671,-21.6061025318956,39.61118806997874,1,8
632,31.55,1094.1,44.05384281697581,-78.68284395705408,-6.5,-2.0,-15.2,-0.2,6202.3,6202.0,181.7,0.0,1.0,1.0,0.0,1.0,1.0,0.0,0.0,0.0,100.0,1.0,1.186,26.0,0.0,-1.815,50.194,66.0,0.0,26.0,26.0,26.0,26.0,1.32,0.29,0.13,376.0,-3.15,-1.99,-2.42,-0.81,-838.2,603.21,5.1,0.0,0.0,0.0,0.0,0.64,-7.49,-7.49,-0.14,0.81,-1.14,0.75,50.47,1.08,-0.4,-16.3,100.0,0.0,0.0,144.48,0.0,0.0,0.0,0.0,0.0,0.0,0.0,7707.0,0.0,30.0,4.0,181.7,0.0,0.0,0.0,0.0,0.0,0.0,1.0,0.0,31.587,31.587,50.194,16.866,0.0,110.0,435.8,8750.0,0.0,0.0,110.0,110.0,433.0,0.0,0.0,0.0,1.0,333.3,70.2,70.2,61.0,61.0,34.0,22.4,121.4,38.2,137.5,3.0,-215.915,-26.1,100.0,16.3,29.0,32.3,50.7,0.0,1.0,98.4,0.0,0.0,0.0,0.0,1893.0,6116.0,3780.0,7112.0,320.3,308.3,345.6,336.6,25.14,22.89,26.14,24.74,325.0,325.0,355.0,355.0,100.0,99.93,100.0,100.0,2.26,2.27,1.58,1.7,-0.1,-0.1,2.4,1.4,83.1,69.0,83.2,74.4,85.1,70.1,85.5,77.0,81.9,67.2,83.7,74.6,79.3,65.7,82.6,73.5,-1.51,1.49,0.07,0.03,0.0,153.88,155.24,144.48,144.48,174.7,27.6,1.3577186748365804,137.19875184571725,116.31285259877957,-64.81830816470932,7.20203455664759,1,8
633,31.6,1096.6,44.053859364493356,-78.68285816633545,-4.1,1.9,-14.1,-1.8,6204.8,6205.0,182.2,0.0,1.0,1.0,0.0,1.0,1.0,0.0,0.0,0.0,100.0,1.0,1.186,26.0,0.0,-1.818,50.194,66.0,0.0,26.0,26.0,26.0,26.0,1.32,0.28,0.08,376.6,-3.13,-1.95,-2.48,-0.79,-839.78,605.05,5.1,0.0,0.0,0.0,0.0,0.64,-7.49,-7.49,-0.12,0.86,-1.09,1.24,50.59,1.17,-0.41,-17.26,100.0,0.0,0.0,144.95,0.0,0.0,0.0,0.0,0.0,0.0,0.0,7732.0,0.0,30.0,4.0,182.2,1.0,0.0,0.0,0.0,0.0,0.0,1.0,0.0,31.636,31.636,50.194,16.866,1.0,110.0,435.8,8750.0,0.0,0.0,110.0,110.0,433.0,0.0,0.0,0.0,1.0,166.7,70.2,70.2,62.3,62.3,34.0,21.9,120.85,35.6,135.4,3.0,-215.965,-27.1,100.0,16.1,29.1,31.6,50.6,0.0,1.0,97.7,0.0,0.0,0.0,0.0,1826.0,6108.0,3481.0,6986.0,320.4,308.3,346.4,337.0,25.14,22.89,26.14,24.74,325.0,325.0,355.0,355.0,100.0,99.93,100.0,100.0,2.38,2.4,1.7,1.8,-0.1,-0.1,2.5,1.5,83.1,69.0,83.2,74.4,85.1,70.2,85.5,77.0,81.8,67.2,83.7,74.7,79.2,65.7,82.6,73.6,-1.56,1.55,0.08,0.03,0.0,154.15,155.59,144.95,144.95,174.7,27.6,1.3517396198972642,136.1184466906713,118.47346290887147,18.005085538082994,79.22237670898099,1,8
634,31.65,1099.2,44.05387681133251,-78.68287354473492,-6.4,1.0,-8.6,4.8,6207.3,6207.0,182.6,0.0,1.0,1.0,0.0,1.0,1.0,0.0,0.0,0.0,100.0,1.0,1.186,26.0,0.0,-1.818,50.194,66.0,0.0,26.0,26.0,26.0,26.0,1.38,0.24,0.06,376.7,-3.12,-1.94,-2.48,-0.78,-841.49,606.99,5.1,0.0,0.0,0.0,0.0,0.64,-7.49,-7.49,-0.1,0.56,-1.01,1.55,50.71,1.27,-0.42,-17.68,100.0,0.0,0.0,145.2,0.0,0.0,0.0,0.0,0.0,0.0,0.0,7745.0,0.0,30.0,4.0,182.6,0.0,0.0,0.0,0.0,0.0,0.0,1.0,0.0,31.686,31.686,50.194,16.866,0.0,110.0,435.8,8750.0,0.0,0.0,110.0,110.0,433.0,0.0,0.0,0.0,1.0,333.3,70.2,70.2,62.3,62.3,34.0,21.7,123.69,37.7,141.6,3.0,-216.015,-28.3,100.0,15.8,29.2,31.2,50.8,0.0,1.0,94.5,0.0,0.0,0.0,0.0,1788.0,6269.0,3436.0,7058.0,320.5,307.9,346.5,336.7,25.14,22.89,26.15,24.74,325.0,325.0,355.0,355.0,100.0,99.93,100.0,100.0,2.54,2.55,1.82,1.92,-0.1,-0.1,2.4,1.4,83.1,69.1,83.2,74.4,85.1,70.3,85.5,77.1,81.8,67.3,83.7,74.7,79.2,65.8,82.6,73.6,-1.63,1.61,0.07,0.03,0.0,154.48,155.96,145.21,145.21,174.7,27.6,1.4019985734657507,138.99926039952555,124.23509026967767,-28.808136519519394,43.21220506379092,1,8
635,31.7,1101.7,44.053894078307344,-78.68288919293086,-8.7,0.3,-17.7,0.3,6209.9,6210.0,183.0,0.0,1.0,1.0,0.0,1.0,1.0,0.0,0.0,0.0,100.0,1.0,1.186,26.0,0.0,-1.821,50.194,66.0,0.0,26.0,26.0,26.0,26.0,1.45,0.22,0.09,377.1,-3.19,-1.93,-2.48,-0.76,-843.23,608.91,5.2,0.0,0.0,0.0,0.0,0.64,-7.49,-7.49,-0.09,0.37,-0.93,1.62,50.81,1.37,-0.42,-18.07,100.0,0.0,0.0,145.35,0.0,0.0,0.0,0.0,0.0,0.0,0.0,7753.0,0.0,30.0,4.0,183.0,1.0,0.0,0.0,0.0,0.0,0.0,1.0,0.0,31.737,31.737,50.194,16.866,1.0,110.0,435.8,8750.0,0.0,0.0,110.0,110.0,433.0,0.0,0.0,0.0,1.0,333.3,70.6,70.6,62.8,62.8,34.0,19.4,121.86,38.6,148.3,3.0,-216.065,-29.7,100.0,15.3,29.2,30.3,50.9,0.0,1.0,86.7,0.0,0.0,0.0,0.0,1646.0,6305.0,3365.0,7194.0,320.9,307.8,346.7,336.4,25.13,22.89,26.15,24.74,325.0,325.0,355.0,355.0,100.0,99.93,100.0,100.0,2.74,2.76,1.94,2.05,-0.1,-0.1,2.4,1.3,83.1,69.1,83.2,74.4,85.0,70.4,85.5,77.2,81.8,67.4,83.7,74.8,79.2,65.9,82.6,73.7,-1.72,1.7,0.08,0.02,0.0,154.72,156.23,145.35,145.35,174.7,27.6,1.46935359937627,133.23763303871937,122.79468341525056,-72.0203421523334,7.202033987624077,1,8
636,31.75,1104.3,44.05391008623193,-78.68290421160168,-5.7,5.5,-16.9,-0.8,6212.4,6212.0,183.2,0.0,1.0,1.0,0.0,1.0,1.0,0.0,0.0,0.0,100.0,1.0,1.186,26.0,0.0,-1.821,50.194,66.0,0.0,26.0,26.0,26.0,26.0,1.48,0.18,0.05,377.6,-3.16,-1.95,-2.57,-0.67,-844.9,610.69,5.2,0.0,0.0,0.0,0.0,0.64,-7.49,-7.49,-0.09,0.33,-0.85,1.74,50.88,1.46,-0.43,-18.53,100.0,0.0,0.0,145.53,0.0,0.0,0.0,0.0,0.0,0.0,0.0,7763.0,0.0,30.0,4.0,183.2,0.0,0.0,0.0,0.0,0.0,0.0,1.0,0.0,31.784,31.784,50.194,16.866,0.0,110.0,435.8,8750.0,0.0,0.0,110.0,110.0,433.0,0.0,0.0,0.0,1.0,166.7,70.6,70.6,63.8,63.8,34.0,18.6,120.37,36.8,146.3,3.0,-216.115,-30.8,100.0,15.1,29.5,29.5,50.8,0.0,1.0,78.1,0.0,0.0,0.0,0.0,1591.0,6340.0,3169.0,7079.0,321.0,307.7,347.2,336.7,25.13,22.89,26.15,24.75,325.0,325.0,355.0,355.0,100.0,99.93,100.0,100.0,2.92,2.89,2.05,2.16,-0.1,-0.2,2.4,1.3,83.1,69.1,83.2,74.4,85.0,70.5,85.5,77.2,81.7,67.5,83.7,74.9,79.1,66.0,82.6,73.8,-1.81,1.76,0.08,0.04,0.0,154.93,156.46,145.53,145.53,174.7,27.6,1.4917439458566606,131.7972261842922,124.95529366844008,10.803051265947659,75.6213591461453,1,8
637,31.8,1106.8,44.05392699347812,-78.68292039939058,-5.6,4.0,-12.8,2.4,6215.0,6215.0,183.5,0.0,1.0,1.0,0.0,1.0,1.0,0.0,0.0,0.0,100.0,1.0,1.186,26.0,0.0,-1.824,50.194,66.0,0.0,26.0,26.0,26.0,26.0,1.52,0.17,0.03,377.8,-3.15,-1.96,-2.56,-0.67,-846.7,612.57,5.2,0.0,0.0,0.0,0.0,0.64,-7.49,-7.49,-0.09,0.17,-0.76,1.71,50.95,1.55,-0.45,-18.65,100.0,0.0,0.0,145.64,0.0,0.0,0.0,0.0,0.0,0.0,0.0,7768.0,0.0,30.0,4.0,183.5,1.0,0.0,0.0,0.0,0.0,0.0,1.0,0.0,31.836,31.836,50.194,16.866,1.0,110.0,435.8,8750.0,0.0,0.0,110.0,110.0,433.0,0.0,0.0,0.0,1.0,333.3,70.5,70.5,64.1,64.1,34.0,17.5,120.77,36.7,149.1,3.0,-216.165,-30.9,100.0,14.8,29.7,28.8,50.9,0.0,1.0,72.7,0.0,0.0,0.0,0.0,1517.0,6462.0,3077.0,7112.0,321.2,307.3,347.4,336.6,25.13,22.89,26.15,24.75,325.0,325.0,355.0,355.0,100.0,99.93,100.0,100.0,3.01,3.0,2.15,2.25,-0.1,-0.2,2.3,1.2,83.1,69.1,83.2,74.4,84.9,70.6,85.5,77.3,81.7,67.6,83.7,74.9,79.1,66.1,82.6,73.8,-1.81,1.77,0.08,0.01,0.0,155.12,156.68,145.64,145.64,174.7,27.6,1.5297712247261028,134.31793816531413,130.3568193298651,3.6010169938120384,75.62135971516909,1,8
638,31.85,1109.4,44.05394363092783,-78.68293676704381,-5.4,0.6,-12.7,-3.2,6217.5,6218.0,183.7,0.0,1.0,1.0,0.0,1.0,1.0,0.0,0.0,0.0,100.0,1.0,1.186,26.0,0.0,-1.821,50.194,66.0,0.0,26.0,26.0,26.0,26.0,1.53,0.17,0.03,378.1,-3.24,-1.99,-2.65,-0.68,-848.52,614.42,5.2,0.0,0.0,0.0,0.0,0.65,-7.49,-7.49,-0.09,0.16,-0.67,1.7,51.01,1.64,-0.45,-18.76,100.0,0.0,0.0,145.81,0.0,0.0,0.0,0.0,0.0,0.0,0.0,7777.0,0.0,30.0,4.0,183.7,0.0,0.0,0.0,0.0,0.0,0.0,0.0,0.0,31.887,31.887,50.194,16.866,0.0,110.0,435.8,8750.0,0.0,0.0,110.0,110.0,433.0,0.0,0.0,0.0,1.0,333.3,70.8,70.8,64.7,64.7,34.0,17.0,116.9,37.1,150.4,3.0,-216.215,-30.9,100.0,14.5,29.7,28.2,50.8,0.0,1.0,71.1,0.0,0.0,0.0,0.0,1498.0,6402.0,3049.0,7158.0,321.2,307.5,347.4,336.5,25.13,22.89,26.14,24.75,325.0,325.0,355.0,355.0,100.0,99.93,100.0,100.0,3.09,3.11,2.25,2.34,-0.1,-0.2,2.3,1.2,83.1,69.1,83.2,74.4,84.9,70.7,85.5,77.4,81.6,67.7,83.6,75.0,79.0,66.2,82.5,73.9,-1.8,1.77,0.07,0.02,0.0,155.28,156.84,145.81,145.81,174.7,27.6,1.5397077644800004,132.15732788367342,132.517429639957,-75.62135943065712,7.2020345566474475,1,8
611,30.5,1050.4,44.05348623595906,-78.68259367585115,-0.4,0.5,0.0,2.1,7880.5,7881.0,164.9,0.0,1.0,1.0,0.0,1.0,1.0,0.0,0.0,0.0,100.0,1.0,1.186,26.0,0.0,-0.087,48.272,66.0,0.0,26.0,26.0,26.0,26.0,0.75,0.37,0.01,380.6,-2.78,-2.04,-1.99,-1.15,-810.37,563.56,5.2,0.0,0.0,0.0,0.0,0.61,-7.49,-7.49,-0.77,0.35,-0.48,-1.66,45.81,0.56,-0.36,-9.44,100.0,0.0,0.0,131.26,0.0,0.0,0.0,0.0,0.0,0.0,0.0,7002.0,0.0,30.0,4.0,164.9,0.0,0.0,0.0,0.0,0.0,0.0,1.0,0.0,30.516,30.516,48.272,17.064,0.0,110.0,435.8,8750.0,0.0,0.0,110.0,110.0,433.0,0.0,0.0,0.0,1.0,166.7,75.1,75.1,65.8,65.8,34.0,15.3,72.41,24.1,77.5,4.0,-263.115,-12.1,100.0,15.1,23.6,31.8,41.5,0.0,1.0,100.0,0.0,0.0,0.0,0.0,2132.0,4766.0,3933.0,5698.0,319.7,312.1,345.4,340.3,25.96,23.09,26.43,24.75,325.0,325.0,355.0,355.0,99.95,100.0,99.95,100.0,1.1,1.13,0.91,1.04,-0.1,-0.1,2.0,1.9,88.2,70.3,84.9,74.5,93.3,72.8,87.2,77.4,89.7,69.7,85.6,75.1,86.6,68.3,84.5,74.1,-0.7,0.69,0.07,0.05,0.0,139.96,140.8,131.85,130.67,174.7,27.6,0.8363611660042568,142.60027750714224,79.58247812385042,-43.212205348302746,7.20203455664759,1,8
612,30.55,1052.7,44.05350350293389,-78.6826033885245,-2.8,-2.4,4.4,7.0,7882.8,7883.0,165.5,0.0,1.0,1.0,0.0,1.0,1.0,0.0,0.0,0.0,100.0,1.0,1.186,26.0,0.0,-0.084,48.272,66.0,0.0,26.0,26.0,26.0,26.0,0.77,0.36,0.02,380.5,-2.87,-2.1,-1.92,-1.06,-811.45,565.48,5.2,0.0,0.0,0.0,0.0,0.61,-7.49,-7.49,-0.77,-0.01,-0.55,-1.47,45.98,0.57,-0.36,-9.29,100.0,0.0,0.0,131.69,0.0,0.0,0.0,0.0,0.0,0.0,0.0,7024.0,0.0,30.0,4.0,165.5,1.0,0.0,0.0,0.0,0.0,0.0,1.0,0.0,30.564,30.564,48.272,17.064,1.0,110.0,435.8,8750.0,0.0,0.0,110.0,110.0,433.0,0.0,0.0,0.0,1.0,333.3,75.3,75.3,65.4,65.4,34.0,15.0,74.39,24.7,78.0,4.0,-263.165,-12.1,100.0,15.0,23.5,32.0,41.9,0.0,1.0,100.0,0.0,0.0,0.0,0.0,2082.0,4819.0,3949.0,5736.0,319.9,312.0,345.3,340.1,25.96,23.09,26.43,24.76,325.0,325.0,355.0,355.0,99.95,100.0,99.95,100.0,1.12,1.16,0.91,1.04,-0.1,-0.1,2.0,1.9,88.2,70.3,84.9,74.5,93.2,72.8,87.2,77.4,89.6,69.8,85.6,75.1,86.5,68.3,84.5,74.1,-0.7,0.7,0.08,0.04,0.0,140.5,141.31,132.26,131.12,174.7,27.6,0.850235261559999,142.60027750714224,81.38298667765876,-3.601016993811754,32.40915351333129,1,8
613,30.6,1055.0,44.05352184909466,-78.68261400051945,1.6,6.4,-0.8,0.2,7885.1,7885.0,166.1,0.0,1.0,1.0,0.0,1.0,1.0,0.0,0.0,0.0,100.0,1.0,1.186,26.0,0.0,-0.081,48.272,66.0,0.0,26.0,26.0,26.0,26.0,0.75,0.37,0.01,380.4,-2.95,-2.18,-2.01,-1.13,-812.63,567.52,5.2,0.0,0.0,0.0,0.0,0.61,-7.49,-7.49,-0.77,0.29,-0.61,-1.45,46.16,0.57,-0.36,-9.41,100.0,0.0,0.0,132.29,0.0,0.0,0.0,0.0,0.0,0.0,0.0,7057.0,0.0,30.0,4.0,166.1,0.0,0.0,0.0,0.0,0.0,0.0,0.0,0.0,30.614,30.614,48.272,17.064,0.0,110.0,435.8,8750.0,0.0,0.0,110.0,110.0,433.0,0.0,0.0,0.0,1.0,166.7,74.8,74.8,65.5,65.5,34.0,15.3,76.57,21.7,81.1,4.0,-263.215,-12.1,100.0,15.0,23.8,32.0,41.9,0.0,1.0,100.0,0.0,0.0,0.0,0.0,2157.0,4915.0,3859.0,5684.0,319.7,311.7,345.5,340.3,25.95,23.09,26.43,24.76,325.0,325.0,355.0,355.0,99.95,100.0,99.95,100.0,1.11,1.15,0.91,1.05,-0.1,-0.1,2.5,1.6,88.2,70.3,84.9,74.5,93.2,72.8,87.2,77.4,89.6,69.8,85.6,75.1,86.4,68.3,84.5,74.1,-0.7,0.69,0.08,0.03,0.0,141.05,141.86,131.58,133.01,174.7,27.6,0.8363611660042568,142.24017580776106,82.82339347518355,-3.6010172783235816,25.207119525707355,1,8
614,30.65,1057.3,44.05353902613733,-78.68262407292143,-0.0,-0.8,3.2,6.0,7887.5,7887.0,166.8,0.0,1.0,1.0,0.0,1.0,1.0,0.0,0.0,0.0,100.0,1.0,1.186,26.0,0.0,-0.081,48.272,66.0,0.0,26.0,26.0,26.0,26.0,0.77,0.39,0.04,380.1,-2.88,-2.1,-2.09,-1.21,-813.75,569.43,5.2,0.0,0.0,0.0,0.0,0.61,-7.49,-7.49,-0.76,0.16,-0.68,-1.51,46.33,0.58,-0.36,-9.36,100.0,0.0,0.0,132.69,0.0,0.0,0.0,0.0,0.0,0.0,0.0,7078.0,0.0,30.0,4.0,166.8,1.0,0.0,0.0,0.0,0.0,0.0,0.0,0.0,30.663,30.663,48.272,17.064,1.0,110.0,435.8,8750.0,0.0,0.0,110.0,110.0,433.0,0.0,0.0,0.0,1.0,333.3,74.9,74.9,65.1,65.1,34.0,15.9,75.7,22.9,84.8,4.0,-263.265,-12.5,100.0,15.0,23.8,32.2,42.2,0.0,1.0,100.0,0.0,0.0,0.0,0.0,2185.0,4874.0,4014.0,5822.0,319.6,311.8,345.1,339.9,25.95,23.09,26.43,24.76,325.0,325.0,355.0,355.0,99.95,100.0,99.95,100.0,1.12,1.16,0.92,1.06,-0.1,-0.1,2.4,1.5,88.2,70.3,84.9,74.5,93.1,72.8,87.1,77.4,89.5,69.8,85.5,75.1,86.4,68.3,84.4,74.1,-0.72,0.71,0.08,0.04,0.0,141.56,142.39,131.94,133.43,174.7,27.6,0.8640601830891179,142.24017577930988,83.9036986302295,43.212205063790634,54.01525718327363,1,8
615,30.7,1059.7,44.05355737229809,-78.68263495471287,6.0,5.0,0.0,4.5,7889.8,7890.0,167.4,0.0,1.0,1.0,0.0,1.0,1.0,0.0,0.0,0.0,100.0,1.0,1.186,26.0,0.0,-0.078,48.272,66.0,0.0,26.0,26.0,26.0,26.0,0.78,0.38,0.02,379.9,-2.96,-2.03,-2.03,-1.12,-814.96,571.47,5.2,0.0,0.0,0.0,0.0,0.61,-7.49,-7.49,-0.75,0.39,-0.74,-1.22,46.5,0.58,-0.36,-9.71,100.0,0.0,0.0,133.23,0.0,0.0,0.0,0.0,0.0,0.0,0.0,7107.0,0.0,30.0,4.0,167.4,0.0,0.0,0.0,0.0,0.0,0.0,0.0,0.0,30.714,30.714,48.272,17.064,0.0,110.0,435.8,8750.0,0.0,0.0,110.0,110.0,433.0,0.0,0.0,0.0,1.0,166.7,74.5,74.5,65.2,65.2,34.0,16.5,79.54,23.7,79.2,4.0,-263.315,-14.4,100.0,15.3,24.0,32.2,42.4,0.0,1.0,100.0,0.0,0.0,0.0,0.0,2145.0,4972.0,3890.0,5766.0,319.7,311.5,345.5,340.1,25.95,23.09,26.43,24.76,325.0,325.0,355.0,355.0,99.95,100.0,99.95,100.0,1.2,1.23,0.91,1.05,-0.1,-0.1,2.0,1.9,88.2,70.3,84.9,74.5,93.0,72.8,87.1,77.4,89.4,69.8,85.5,75.2,86.3,68.3,84.4,74.1,-0.8,0.79,0.08,0.05,0.0,142.1,142.92,133.82,132.64,174.7,27.6,0.8678709581498854,146.56139631414013,88.22491919351091,-7.202033987624077,32.4091540823548,1,8
616,30.75,1062.0,44.05357562852669,-78.68264610630078,-3.1,5.4,4.2,8.0,7892.1,7892.0,168.0,0.0,1.0,1.0,0.0,1.0,1.0,0.0,0.0,0.0,100.0,1.0,1.186,26.0,0.0,-0.078,48.272,66.0,0.0,26.0,26.0,26.0,26.0,0.86,0.35,0.04,379.5,-2.88,-2.12,-2.12,-1.03,-816.2,573.5,5.1,0.0,0.0,0.0,0.0,0.61,-7.49,-7.49,-0.75,0.19,-0.8,-1.01,46.68,0.58,-0.36,-10.47,100.0,0.0,0.0,133.66,0.0,0.0,0.0,0.0,0.0,0.0,0.0,7129.0,0.0,30.0,4.0,168.0,1.0,0.0,0.0,0.0,0.0,0.0,0.0,0.0,30.766,30.766,48.272,17.064,1.0,110.0,435.8,8750.0,0.0,0.0,110.0,110.0,433.0,0.0,0.0,0.0,1.0,333.3,74.2,74.2,64.2,64.2,34.0,19.0,89.53,23.4,86.7,4.0,-263.365,-18.0,100.0,15.2,24.3,32.4,42.8,0.0,1.0,100.0,0.0,0.0,0.0,0.0,2121.0,5173.0,3972.0,5945.0,319.8,311.0,345.2,339.6,25.95,23.09,26.43,24.76,325.0,325.0,355.0,355.0,99.95,100.0,99.95,100.0,1.38,1.44,0.95,1.07,-0.1,-0.1,2.4,1.5,88.2,70.3,84.9,74.5,93.0,72.8,87.1,77.5,89.4,69.8,85.5,75.2,86.3,68.3,84.4,74.1,-1.02,1.01,0.08,0.03,0.0,142.59,143.46,132.91,134.4,174.7,27.6,0.9293546147730692,141.51997238054747,87.14461403846498,-54.01525632973829,7.202033987623935,1,8
617,30.8,1064.3,44.0535927156372,-78.68265671829573,-0.2,10.6,-9.8,7.4,7894.5,7894.0,168.6,0.0,1.0,1.0,0.0,1.0,1.0,0.0,0.0,0.0,100.0,1.0,1.186,26.0,0.0,-0.072,48.272,66.0,0.0,26.0,26.0,26.0,26.0,0.91,0.34,0.03,379.5,-2.95,-2.06,-2.08,-1.07,-817.38,575.4,5.1,0.0,0.0,0.0,0.0,0.62,-7.49,-7.49,-0.74,0.5,-0.83,-0.84,46.84,0.61,-0.37,-12.09,100.0,0.0,0.0,134.22,0.0,0.0,0.0,0.0,0.0,0.0,0.0,7159.0,0.0,30.0,4.0,168.6,0.0,0.0,0.0,0.0,0.0,0.0,0.0,0.0,30.813,30.813,48.272,17.064,0.0,110.0,435.8,8750.0,0.0,0.0,110.0,110.0,433.0,0.0,0.0,0.0,1.0,166.7,74.1,74.1,64.6,64.6,34.0,19.8,93.49,24.5,92.8,4.0,-263.41,-21.6,100.0,15.2,24.8,31.9,43.2,0.0,1.0,100.0,0.0,0.0,0.0,0.0,2013.0,5197.0,3836.0,6041.0,320.0,310.9,345.6,339.4,25.95,23.09,26.43,24.76,325.0,325.0,355.0,355.0,99.95,100.0,99.95,100.0,1.58,1.6,1.02,1.15,-0.1,-0.1,2.5,1.4,88.2,70.3,84.9,74.5,92.9,72.8,87.1,77.5,89.3,69.8,85.5,75.2,86.2,68.4,84.4,74.1,-1.22,1.21,0.07,0.04,0.0,143.0,144.02,133.49,134.95,174.7,27.6,0.971905345185425,141.1598706811663,88.94512259227331,39.61118806997945,64.8183075956861,1,8
618,30.85,1066.7,44.05361088193364,-78.68266831954445,-0.7,8.9,-3.0,17.0,7896.8,7897.0,169.2,0.0,1.0,1.0,0.0,1.0,1.0,0.0,0.0,0.0,100.0,1.0,1.186,26.0,0.0,-0.072,48.272,66.0,0.0,26.0,26.0,26.0,26.0,1.01,0.34,0.06,379.0,-3.03,-2.11,-2.05,-0.98,-818.67,577.42,5.1,0.0,0.0,0.0,0.0,0.62,-7.49,-7.49,-0.73,0.37,-0.86,-0.31,47.01,0.66,-0.37,-13.84,100.0,0.0,0.0,134.68,0.0,0.0,0.0,0.0,0.0,0.0,0.0,7184.0,0.0,30.0,4.0,169.2,1.0,0.0,0.0,0.0,0.0,0.0,0.0,0.0,30.864,30.864,48.272,17.064,1.0,110.0,435.8,8750.0,0.0,0.0,110.0,110.0,433.0,0.0,0.0,0.0,1.0,333.3,73.4,73.4,64.4,64.4,34.0,22.1,102.81,28.5,96.8,4.0,-263.465,-24.3,100.0,15.1,25.3,31.7,44.0,0.0,1.0,100.0,0.0,0.0,0.0,0.0,2065.0,5457.0,3720.0,6195.0,319.9,310.2,345.9,339.0,25.95,23.09,26.43,24.76,325.0,325.0,355.0,355.0,99.95,100.0,99.95,100.0,1.77,1.79,1.12,1.25,-0.1,-0.1,2.1,1.8,88.2,70.3,84.9,74.5,92.8,72.9,87.0,77.5,89.3,69.8,85.4,75.2,86.2,68.4,84.3,74.2,-1.4,1.38,0.08,0.04,0.0,143.43,144.58,135.22,134.12,174.7,27.6,1.067379969832674,145.48109118754542,93.62644479803359,36.01017079165473,61.217290601874055,1,8
619,30.9,1069.1,44.05362904823008,-78.68268010065748,-3.8,11.1,-12.1,12.2,7899.2,7899.0,169.8,0.0,1.0,1.0,0.0,1.0,1.0,0.0,0.0,0.0,100.0,1.0,1.186,26.0,0.0,-0.069,48.272,66.0,0.0,26.0,26.0,26.0,26.0,1.08,0.37,0.01,379.0,-3.0,-2.02,-2.17,-0.99,-819.98,579.44,5.1,0.0,0.0,0.0,0.0,0.62,-7.49,-7.49,-0.71,0.56,-0.86,-0.31,47.17,0.76,-0.37,-15.47,100.0,0.0,0.0,135.21,0.0,0.0,0.0,0.0,0.0,0.0,0.0,7212.0,0.0,30.0,4.0,169.8,0.0,0.0,0.0,0.0,0.0,0.0,0.0,0.0,30.914,30.914,48.272,17.064,0.0,110.0,435.8,8750.0,0.0,0.0,110.0,110.0,433.0,0.0,0.0,0.0,1.0,333.3,73.8,73.8,63.8,63.8,34.0,17.0,105.56,30.2,111.0,4.0,-263.515,-25.6,100.0,15.0,25.8,31.1,44.6,0.0,1.0,100.0,0.0,0.0,0.0,0.0,1597.0,5510.0,3767.0,6420.0,321.0,310.1,345.8,338.4,25.95,23.09,26.43,24.77,325.0,325.0,355.0,355.0,99.95,100.0,99.95,100.0,1.91,1.94,1.28,1.39,-0.1,-0.1,2.6,1.4,88.2,70.3,84.9,74.5,92.8,72.9,87.0,77.5,89.2,69.9,85.4,75.2,86.1,68.4,84.3,74.2,-1.49,1.46,0.09,0.04,0.0,143.81,145.15,134.44,135.98,174.7,27.6,1.1416654501210064,144.76088776033177,95.06685165246071,-57.61627360806273,7.202034556647305,1,8
620,30.95,1071.4,44.0536470346622,-78.68269206163484,-4.2,20.0,-5.4,16.6,7901.5,7902.0,170.4,0.0,1.0,1.0,0.0,1.0,1.0,0.0,0.0,0.0,100.0,1.0,1.186,26.0,0.0,-0.066,48.272,66.0,0.0,26.0,26.0,26.0,26.0,1.16,0.32,0.05,378.5,-2.98,-1.95,-2.27,-0.9,-821.31,581.44,5.1,0.0,0.0,0.0,0.0,0.62,-7.49,-7.49,-0.7,0.6,-0.88,-0.61,47.33,0.87,-0.38,-16.81,100.0,0.0,0.0,135.77,0.0,0.0,0.0,0.0,0.0,0.0,0.0,7242.0,0.0,30.0,4.0,170.4,1.0,0.0,0.0,0.0,0.0,0.0,0.0,0.0,30.966,30.966,48.272,17.064,1.0,110.0,435.8,8750.0,0.0,0.0,110.0,110.0,433.0,0.0,0.0,0.0,1.0,166.7,72.7,72.7,63.9,63.9,34.0,20.3,113.8,32.9,111.8,4.0,-263.565,-25.7,100.0,14.8,26.8,30.9,45.5,0.0,1.0,100.0,0.0,0.0,0.0,0.0,1801.0,5819.0,3509.0,6390.0,320.5,309.2,346.4,338.4,25.95,23.1,26.43,24.77,325.0,325.0,355.0,355.0,99.95,100.0,99.95,100.0,2.04,2.05,1.46,1.56,-0.1,-0.1,2.3,1.8,88.2,70.3,84.9,74.5,92.7,73.0,87.0,77.6,89.2,69.9,85.4,75.3,86.0,68.5,84.3,74.2,-1.5,1.48,0.07,0.04,0.0,144.22,145.68,136.31,135.23,174.7,27.6,1.2043670536842164,139.71946382673914,94.34664825369832,-14.404068259759697,46.813222626626185,1,8
621,31.0,1073.8,44.05366394190839,-78.68270366288355,-4.8,7.9,-6.7,15.9,7903.9,7904.0,170.9,0.0,1.0,1.0,0.0,1.0,1.0,0.0,0.0,0.0,100.0,1.0,1.186,26.0,0.0,-0.066,48.272,66.0,0.0,26.0,26.0,26.0,26.0,1.25,0.33,0.1,378.0,-3.07,-1.97,-2.25,-0.83,-822.6,583.32,5.1,0.0,0.0,0.0,0.0,0.62,-7.49,-7.49,-0.68,0.61,-0.9,-0.65,47.47,0.99,-0.39,-17.33,100.0,0.0,0.0,136.17,0.0,0.0,0.0,0.0,0.0,0.0,0.0,7263.0,0.0,30.0,4.0,170.9,0.0,0.0,0.0,0.0,0.0,0.0,0.0,0.0,31.014,31.014,48.272,17.064,0.0,110.0,435.8,8750.0,0.0,0.0,110.0,110.0,433.0,0.0,0.0,0.0,1.0,333.3,72.3,72.3,63.2,63.2,34.0,20.6,119.67,38.1,123.2,4.0,-263.615,-25.0,100.0,14.5,27.2,30.5,46.2,0.0,1.0,100.0,0.0,0.0,0.0,0.0,1809.0,6040.0,3637.0,6718.0,320.6,308.7,346.1,337.6,25.95,23.1,26.43,24.77,325.0,325.0,355.0,355.0,99.95,100.0,99.95,100.0,2.13,2.15,1.61,1.71,-0.1,-0.1,2.3,1.8,88.2,70.4,84.9,74.6,92.7,73.0,87.0,77.6,89.1,70.0,85.4,75.3,86.0,68.5,84.3,74.3,-1.46,1.45,0.07,0.02,0.0,144.64,146.12,136.72,135.61,174.7,27.6,1.296688088940436,143.3204809343558,99.74817391512333,-14.40406854427124,43.21220563281429,1,8
622,31.05,1076.2,44.053682827662115,-78.68271697284332,-0.8,13.9,-10.2,14.3,7906.3,7906.0,171.5,0.0,1.0,1.0,0.0,1.0,1.0,0.0,0.0,0.0,100.0,1.0,1.186,26.0,0.0,-0.066,48.272,66.0,0.0,26.0,26.0,26.0,26.0,1.28,0.34,0.08,378.1,-3.15,-1.91,-2.44,-0.84,-824.08,585.42,5.1,0.0,0.0,0.0,0.0,0.62,-7.49,-7.49,-0.65,1.08,-0.91,-0.57,47.63,1.11,-0.38,-17.72,100.0,0.0,0.0,136.78,0.0,0.0,0.0,0.0,0.0,0.0,0.0,7296.0,0.0,30.0,4.0,171.5,1.0,0.0,0.0,0.0,0.0,0.0,0.0,0.0,31.068,31.068,48.272,17.064,1.0,110.0,435.8,8750.0,0.0,0.0,110.0,110.0,433.0,0.0,0.0,0.0,1.0,166.7,72.6,72.6,63.4,63.4,34.0,16.2,116.26,37.6,129.1,4.0,-263.665,-24.3,100.0,14.5,27.9,30.0,47.0,0.0,1.0,100.0,0.0,0.0,0.0,0.0,1474.0,5890.0,3566.0,6818.0,321.3,309.0,346.3,337.4,25.95,23.1,26.43,24.77,325.0,325.0,355.0,355.0,99.95,100.0,99.95,100.0,2.21,2.23,1.75,1.86,-0.1,-0.1,2.5,1.8,88.2,70.4,84.9,74.6,92.6,73.1,87.0,77.7,89.0,70.0,85.3,75.4,85.9,68.6,84.2,74.3,-1.43,1.4,0.09,0.03,0.0,145.09,146.65,137.38,136.17,174.7,27.6,1.3268006632497589,138.27905697231202,98.66786881697975,-100.82847924087616,-21.606102531895175,1,8
623,31.1,1078.6,44.053698475858056,-78.68272830429557,-2.7,8.7,5.2,18.4,7908.7,7909.0,172.0,0.0,1.0,1.0,0.0,1.0,1.0,0.0,0.0,0.0,100.0,1.0,1.186,26.0,0.0,-0.063,48.272,66.0,0.0,26.0,26.0,26.0,26.0,1.36,0.32,0.1,377.4,-3.21,-1.93,-2.32,-0.79,-825.34,587.16,5.1,0.0,0.0,0.0,0.0,0.62,-7.49,-7.49,-0.62,0.73,-0.94,-0.61,47.76,1.17,-0.4,-17.22,100.0,0.0,0.0,137.11,0.0,0.0,0.0,0.0,0.0,0.0,0.0,7314.0,0.0,30.0,4.0,172.0,0.0,0.0,0.0,0.0,0.0,0.0,1.0,0.0,31.113,31.113,48.272,17.064,0.0,110.0,435.8,8750.0,0.0,0.0,110.0,110.0,433.0,0.0,0.0,0.0,1.0,333.3,71.6,71.6,62.8,62.8,34.0,20.5,124.56,36.1,134.1,4.0,-263.71,-23.0,100.0,14.3,28.3,30.3,47.9,0.0,1.0,100.0,0.0,0.0,0.0,0.0,1780.0,6228.0,3506.0,6775.0,320.6,308.1,346.4,337.4,25.95,23.1,26.43,24.77,325.0,325.0,355.0,355.0,99.95,100.0,99.95,100.0,2.24,2.27,1.82,1.93,-0.1,-0.1,3.0,1.4,88.2,70.4,84.9,74.6,92.6,73.1,87.0,77.7,89.0,70.1,85.3,75.4,85.9,68.6,84.2,74.4,-1.35,1.34,0.08,0.03,0.0,145.51,147.0,136.41,137.81,174.7,27.6,1.4007141035914503,133.23763301026818,97.58756366193381,21.60610281640686,72.02034158331003,1,8
624,31.15,1081.0,44.05371610256153,-78.68274134445885,-3.2,5.2,-7.7,8.0,7911.1,7911.0,172.5,0.0,1.0,1.0,0.0,1.0,1.0,0.0,0.0,0.0,100.0,1.0,1.186,26.0,0.0,-0.063,48.272,66.0,0.0,26.0,26.0,26.0,26.0,1.34,0.34,0.08,377.3,-3.21,-1.86,-2.38,-0.74,-826.79,589.12,5.1,0.0,0.0,0.0,0.0,0.63,-7.49,-7.49,-0.59,0.97,-0.97,-1.32,47.91,1.24,-0.39,-16.66,100.0,0.0,0.0,137.52,0.0,0.0,0.0,0.0,0.0,0.0,0.0,7336.0,0.0,30.0,4.0,172.5,1.0,0.0,0.0,0.0,0.0,0.0,1.0,0.0,31.164,31.164,48.272,17.064,1.0,110.0,435.8,8750.0,0.0,0.0,110.0,110.0,433.0,0.0,0.0,0.0,1.0,333.3,71.8,71.8,62.3,62.3,34.0,17.8,124.18,42.7,135.3,4.0,-263.765,-19.4,100.0,14.2,28.6,29.9,48.3,0.0,1.0,100.0,0.0,0.0,0.0,0.0,1619.0,6228.0,3708.0,6968.0,321.1,308.2,345.9,337.0,25.95,23.1,26.43,24.77,325.0,325.0,355.0,355.0,99.95,100.0,99.95,100.0,2.15,2.18,1.89,2.01,-0.1,-0.1,2.4,1.8,88.2,70.4,84.9,74.6,92.5,73.2,86.9,77.8,88.9,70.2,85.3,75.5,85.8,68.7,84.2,74.4,-1.16,1.15,0.08,0.04,0.0,145.98,147.45,138.15,136.9,174.7,27.6,1.384774349849101,140.4396672539527,105.86990297531075,21.60610281640686,75.62135914614544,1,8
625,31.2,1083.4,44.05373354940069,-78.68275474435077,5.6,10.6,3.8,6.9,7913.5,7913.0,173.0,0.0,1.0,1.0,0.0,1.0,1.0,0.0,0.0,0.0,100.0,1.0,1.186,26.0,0.0,-0.057,48.272,66.0,0.0,26.0,26.0,26.0,26.0,1.29,0.32,0.06,377.4,-3.2,-1.84,-2.43,-0.78,-828.28,591.06,5.1,0.0,0.0,0.0,0.0,0.63,-7.49,-7.49,-0.54,1.42,-1.02,-1.2,48.05,1.27,-0.39,-15.64,100.0,0.0,0.0,138.07,0.0,0.0,0.0,0.0,0.0,0.0,0.0,7365.0,0.0,30.0,4.0,173.0,0.0,0.0,0.0,0.0,0.0,0.0,1.0,0.0,31.214,31.214,48.272,17.064,0.0,110.0,435.8,8750.0,0.0,0.0,110.0,110.0,433.0,0.0,0.0,0.0,1.0,166.7,71.4,71.4,63.0,63.0,34.0,17.8,120.65,34.3,135.5,4.0,-263.815,-15.6,100.0,14.5,29.1,30.1,48.6,0.0,1.0,100.0,0.0,0.0,0.0,0.0,1653.0,6113.0,3407.0,6821.0,320.9,308.4,346.7,337.4,25.95,23.1,26.43,24.78,325.0,325.0,355.0,355.0,99.95,100.0,99.95,100.0,2.0,2.02,1.89,2.0,-0.1,-0.1,3.1,1.5,88.2,70.4,84.9,74.6,92.4,73.3,86.9,77.8,88.9,70.2,85.3,75.5,85.8,68.8,84.2,74.5,-0.94,0.93,0.09,0.02,0.0,146.51,147.9,137.56,138.59,174.7,27.6,1.330451051335599,135.39824329190887,105.14969957654836,-21.60610281640686,46.81322262662604,1,8
626,31.25,1085.8,44.05374991705391,-78.68276760464974,6.2,1.2,12.6,11.9,7915.9,7916.0,173.5,0.0,1.0,1.0,0.0,1.0,1.0,0.0,0.0,0.0,100.0,1.0,1.186,26.0,0.0,-0.06,48.272,66.0,0.0,26.0,26.0,26.0,26.0,1.3,0.31,0.14,376.5,-3.24,-1.83,-2.43,-0.8,-829.71,592.88,5.1,0.0,0.0,0.0,0.0,0.63,-7.49,-7.49,-0.5,1.23,-1.08,-1.3,48.19,1.25,-0.39,-13.68,100.0,0.0,0.0,138.24,0.0,0.0,0.0,0.0,0.0,0.0,0.0,7374.0,0.0,30.0,4.0,173.5,1.0,0.0,0.0,0.0,0.0,0.0,1.0,0.0,31.263,31.263,48.272,17.064,1.0,110.0,435.8,8750.0,0.0,0.0,110.0,110.0,433.0,0.0,0.0,0.0,1.0,333.3,70.8,70.8,61.8,61.8,34.0,20.1,121.65,39.8,137.1,4.0,-263.86,-11.9,100.0,14.8,29.2,30.7,49.2,0.0,1.0,100.0,0.0,0.0,0.0,0.0,1932.0,6239.0,3742.0,6889.0,320.2,308.1,345.8,337.1,25.95,23.11,26.43,24.78,325.0,325.0,355.0,355.0,99.95,100.0,99.95,100.0,1.79,1.85,1.8,1.93,-0.1,-0.1,2.7,1.5,88.2,70.4,84.9,74.6,92.4,73.3,86.9,77.9,88.8,70.3,85.3,75.6,85.7,68.8,84.2,74.6,-0.72,0.72,0.08,0.03,0.0,147.07,148.31,137.63,138.85,174.7,27.6,1.343763372026489,138.27905697231202,110.55122523797336,18.005085538083847,75.6213591461453,1,8
627,31.3,1088.2,44.053768083350356,-78.68278235352408,3.8,-3.8,10.3,0.3,7918.3,7918.0,174.1,0.0,1.0,1.0,0.0,1.0,1.0,0.0,0.0,0.0,100.0,1.0,1.186,26.0,0.0,-0.054,48.272,66.0,0.0,26.0,26.0,26.0,26.0,1.21,0.34,0.11,376.4,-3.24,-1.87,-2.37,-0.83,-831.35,594.9,5.1,0.0,0.0,0.0,0.0,0.63,-7.49,-7.49,-0.43,1.28,-1.16,-1.95,48.36,1.17,-0.38,-11.23,100.0,0.0,0.0,138.58,0.0,0.0,0.0,0.0,0.0,0.0,0.0,7392.0,0.0,30.0,4.0,174.1,0.0,0.0,0.0,0.0,0.0,0.0,1.0,0.0,31.317,31.317,48.272,17.064,0.0,110.0,435.8,8750.0,0.0,0.0,110.0,110.0,433.0,0.0,0.0,0.0,1.0,166.7,71.0,71.0,61.4,61.4,34.0,19.0,111.12,41.9,133.7,4.0,-263.915,-8.2,100.0,15.0,29.0,31.2,49.2,0.0,1.0,100.0,0.0,0.0,0.0,0.0,2037.0,5999.0,4014.0,6907.0,320.0,308.8,345.2,337.1,25.95,23.11,26.43,24.78,325.0,325.0,355.0,355.0,99.95,100.0,99.95,100.0,1.54,1.61,1.66,1.77,-0.1,-0.1,2.6,1.5,88.2,70.4,84.9,74.6,92.3,73.4,86.9,78.0,88.7,70.3,85.3,75.7,85.7,68.9,84.2,74.6,-0.5,0.5,0.08,0.02,0.0,147.7,148.72,137.98,139.18,174.7,27.6,1.2616655658295506,137.19875184571725,112.71183549116289,-57.61627360806244,7.202033987623793,1,8
628,31.35,1090.6,44.0537841812071,-78.682795753416,17.3,-4.0,13.5,-8.4,7920.7,7921.0,174.6,0.0,1.0,1.0,0.0,1.0,1.0,0.0,0.0,0.0,100.0,1.0,1.186,26.0,0.0,-0.054,48.272,66.0,0.0,26.0,26.0,26.0,26.0,1.06,0.34,0.09,376.8,-3.21,-1.92,-2.35,-0.89,-832.84,596.69,5.1,0.0,0.0,0.0,0.0,0.63,-7.49,-7.49,-0.38,1.54,-1.24,-1.78,48.51,1.05,-0.38,-9.17,100.0,0.0,0.0,139.01,0.0,0.0,0.0,0.0,0.0,0.0,0.0,7415.0,0.0,30.0,4.0,174.6,1.0,0.0,0.0,0.0,0.0,0.0,1.0,0.0,31.364,31.364,48.272,17.064,1.0,110.0,435.8,8750.0,0.0,0.0,110.0,110.0,433.0,0.0,0.0,0.0,1.0,333.3,70.9,70.9,62.2,62.2,34.0,17.2,100.22,34.6,122.3,4.0,-263.965,-6.4,100.0,15.8,28.8,31.9,48.8,0.0,1.0,100.0,0.0,0.0,0.0,0.0,2061.0,5730.0,3826.0,6641.0,319.9,309.4,345.7,337.9,25.94,23.11,26.43,24.78,325.0,325.0,355.0,355.0,99.95,100.0,99.95,100.0,1.35,1.41,1.46,1.59,-0.1,-0.1,2.6,1.4,88.2,70.4,84.9,74.6,92.2,73.4,86.9,78.0,88.7,70.4,85.3,75.7,85.6,68.9,84.1,74.7,-0.38,0.39,0.07,0.03,0.0,148.25,149.1,138.52,139.51,174.7,27.6,1.1168258592994702,132.51742961150578,111.27142863673573,-10.803051265947659,36.01017107616684,1,8
629,31.4,1093.0,44.053801178385456,-78.68281014256169,18.2,-5.9,21.2,-2.0,7923.2,7923.0,175.2,0.0,1.0,1.0,0.0,1.0,1.0,0.0,0.0,0.0,100.0,1.0,1.186,26.0,0.0,-0.051,48.272,66.0,0.0,26.0,26.0,26.0,26.0,0.98,0.32,0.13,376.2,-3.15,-1.99,-2.28,-0.98,-834.44,598.58,5.1,0.0,0.0,0.0,0.0,0.63,-7.49,-7.49,-0.32,1.3,-1.33,-1.67,48.67,0.89,-0.38,-7.17,100.0,0.0,0.0,139.22,0.0,0.0,0.0,0.0,0.0,0.0,0.0,7426.0,0.0,30.0,4.0,175.2,0.0,0.0,0.0,0.0,0.0,0.0,1.0,0.0,31.416,31.416,48.272,17.064,0.0,110.0,435.8,8750.0,0.0,0.0,110.0,110.0,433.0,0.0,0.0,0.0,1.0,166.7,70.2,70.2,61.6,61.6,34.0,18.6,93.12,35.7,105.7,4.0,-264.015,-6.1,100.0,16.7,28.5,33.0,48.7,0.0,1.0,100.0,0.0,0.0,0.0,0.0,2455.0,5638.0,4152.0,6447.0,318.9,309.7,344.8,338.3,25.94,23.11,26.43,24.78,325.0,325.0,355.0,355.0,99.95,100.0,99.95,100.0,1.18,1.24,1.21,1.32,-0.1,-0.1,1.8,1.7,88.1,70.4,84.9,74.7,92.2,73.4,86.9,78.0,88.6,70.4,85.3,75.7,85.5,68.9,84.1,74.7,-0.35,0.36,0.08,0.03,0.0,148.9,149.5,139.91,138.54,174.7,27.6,1.0390861369491944,136.1184467191225,116.31285259877957,-10.803051550459202,32.40915465137846,1,8
630,31.45,1095.5,44.053818175563805,-78.68282480150387,10.9,-13.1,15.5,-14.3,7925.6,7926.0,175.8,0.0,1.0,1.0,0.0,1.0,1.0,0.0,0.0,0.0,100.0,1.0,1.186,26.0,0.0,-0.054,48.272,66.0,0.0,26.0,26.0,26.0,26.0,0.86,0.34,0.16,376.2,-3.04,-2.07,-2.2,-1.03,-836.07,600.47,5.1,0.0,0.0,0.0,0.0,0.63,-7.49,-7.49,-0.26,1.17,-1.42,-1.4,48.84,0.73,-0.38,-6.08,100.0,0.0,0.0,139.54,0.0,0.0,0.0,0.0,0.0,0.0,0.0,7443.0,0.0,30.0,4.0,175.8,1.0,0.0,0.0,0.0,0.0,0.0,1.0,0.0,31.467,31.467,48.272,17.064,1.0,110.0,435.8,8750.0,0.0,0.0,110.0,110.0,433.0,0.0,0.0,0.0,1.0,166.7,70.4,70.4,61.4,61.4,34.0,19.2,84.5,29.1,99.6,4.0,-264.065,-7.9,100.0,17.3,27.9,33.7,48.0,0.0,1.0,100.0,0.0,0.0,0.0,0.0,2676.0,5383.0,4441.0,6456.0,318.4,310.4,344.1,338.3,25.94,23.11,26.43,24.79,325.0,325.0,355.0,355.0,99.95,100.0,99.95,100.0,1.09,1.14,0.98,1.11,-0.1,-0.1,2.1,1.4,88.1,70.5,84.9,74.7,92.1,73.4,86.9,78.1,88.6,70.4,85.2,75.8,85.5,68.9,84.1,74.7,-0.43,0.43,0.07,0.04,0.0,149.45,149.94,138.93,140.15,174.7,27.6,0.9385094565320052,131.43712445645986,114.51234410187358,-97.22746196255272,-39.61118806997874,1,8
631,31.5,1097.9,44.05383400362407,-78.68283874098877,17.7,-7.7,12.0,-15.2,7928.1,7928.0,176.3,0.0,1.0,1.0,0.0,1.0,1.0,0.0,0.0,0.0,100.0,1.0,1.186,26.0,0.0,-0.051,48.272,66.0,0.0,26.0,26.0,26.0,26.0,0.8,0.33,0.11,376.6,-3.14,-2.17,-2.14,-1.07,-837.62,602.23,5.1,0.0,0.0,0.0,0.0,0.64,-7.49,-7.49,-0.21,1.3,-1.46,-0.47,48.99,0.59,-0.38,-6.44,100.0,0.0,0.0,140.06,0.0,0.0,0.0,0.0,0.0,0.0,0.0,7471.0,0.0,30.0,4.0,176.3,0.0,0.0,0.0,0.0,0.0,0.0,1.0,0.0,31.516,31.516,48.272,17.064,0.0,110.0,435.8,8750.0,0.0,0.0,110.0,110.0,433.0,0.0,0.0,0.0,1.0,333.3,70.5,70.5,62.3,62.3,34.0,19.4,81.76,20.9,86.9,4.0,-264.115,-12.0,100.0,18.2,27.5,34.3,47.2,0.0,1.0,100.0,0.0,0.0,0.0,0.0,2609.0,5139.0,4219.0,6271.0,318.5,311.1,344.7,338.8,25.94,23.11,26.43,24.79,325.0,325.0,355.0,355.0,99.95,100.0,99.95,100.0,1.14,1.18,0.82,0.94,-0.1,-0.1,2.1,1.3,88.1,70.5,84.9,74.7,92.1,73.5,86.8,78.1,88.5,70.4,85.2,75.8,85.4,68.9,84.1,74.7,-0.65,0.65,0.08,0.04,0.0,149.92,150.38,139.48,140.65,174.7,27.6,0.8723531395025756,126.39570052286722,112.3517337917817,-14.404068259759697,28.808136519519252,1,8
632,31.55,1100.4,44.053849741752174,-78.68285286033797,7.4,-8.9,11.2,-0.9,7930.5,7931.0,176.9,0.0,1.0,1.0,0.0,1.0,1.0,0.0,0.0,0.0,100.0,1.0,1.186,26.0,0.0,-0.048,48.272,66.0,0.0,26.0,26.0,26.0,26.0,0.81,0.32,0.14,376.4,-3.11,-2.25,-2.29,-1.12,-839.19,603.98,5.1,0.0,0.0,0.0,0.0,0.64,-7.49,-7.49,-0.16,1.0,-1.46,0.59,49.14,0.51,-0.39,-8.05,100.0,0.0,0.0,140.4,0.0,0.0,0.0,0.0,0.0,0.0,0.0,7489.0,0.0,30.0,4.0,176.9,1.0,0.0,0.0,0.0,0.0,0.0,1.0,0.0,31.563,31.563,48.272,17.064,1.0,110.0,435.8,8750.0,0.0,0.0,110.0,110.0,433.0,0.0,0.0,0.0,1.0,333.3,70.2,70.2,62.1,62.1,34.0,23.5,87.47,17.7,82.2,4.0,-264.165,-16.6,100.0,18.5,27.0,34.9,47.2,0.0,1.0,100.0,0.0,0.0,0.0,0.0,2792.0,5227.0,4276.0,6208.0,318.1,310.9,344.5,338.9,25.94,23.12,26.43,24.79,325.0,325.0,355.0,355.0,99.95,100.0,99.95,100.0,1.25,1.3,0.75,0.86,-0.1,-0.1,2.1,1.3,88.1,70.5,84.9,74.7,92.0,73.5,86.8,78.1,88.5,70.4,85.2,75.8,85.4,68.9,84.0,74.8,-0.92,0.92,0.06,0.03,0.0,150.31,150.9,139.72,141.08,174.7,27.6,0.8820997676000149,129.9967176304839,117.3931577538255,111.63153022231214,136.83865031704315,1,8
633,31.6,1102.9,44.05386646913404,-78.68286805887313,-1.0,-6.6,-5.9,-2.8,7933.0,7933.0,177.4,0.0,1.0,1.0,0.0,1.0,1.0,0.0,0.0,0.0,100.0,1.0,1.186,26.0,0.0,-0.048,48.272,66.0,0.0,26.0,26.0,26.0,26.0,0.85,0.32,0.1,376.8,-2.81,-2.22,-2.34,-1.06,-840.88,605.84,5.1,0.0,0.0,0.0,0.0,0.64,-7.49,-7.49,-0.12,1.08,-1.41,1.26,49.3,0.51,-0.38,-10.77,100.0,0.0,0.0,140.86,0.0,0.0,0.0,0.0,0.0,0.0,0.0,7513.0,0.0,30.0,4.0,177.4,0.0,0.0,0.0,0.0,0.0,0.0,0.0,0.0,31.614,31.614,48.272,17.064,0.0,110.0,435.8,8750.0,0.0,0.0,110.0,110.0,433.0,0.0,0.0,0.0,1.0,166.7,70.6,70.6,62.3,62.3,34.0,25.5,90.55,20.5,85.4,4.0,-264.215,-20.3,100.0,18.5,26.7,34.6,47.0,0.0,1.0,100.0,0.0,0.0,0.0,0.0,2613.0,5204.0,4270.0,6408.0,318.6,310.9,344.5,338.4,25.94,23.12,26.43,24.79,325.0,325.0,355.0,355.0,99.95,100.0,99.95,100.0,1.42,1.43,0.8,0.91,-0.0,-0.1,1.7,1.6,88.1,70.5,84.9,74.7,91.9,73.5,86.8,78.1,88.4,70.4,85.1,75.8,85.3,69.0,84.0,74.8,-1.16,1.14,0.07,0.03,0.0,150.64,151.48,141.35,140.36,174.7,27.6,0.9137286249209883,137.55885354509843,126.03559882348601,-10.803051265947659,28.808136519519536,1,8
634,31.65,1105.3,44.05388409583752,-78.68288433659419,-7.2,-2.3,-11.2,6.4,7935.4,7935.0,178.0,0.0,1.0,1.0,0.0,1.0,1.0,0.0,0.0,0.0,100.0,1.0,1.186,26.0,0.0,-0.048,48.272,66.0,0.0,26.0,26.0,26.0,26.0,0.94,0.29,0.1,377.3,-3.04,-2.21,-2.11,-1.02,-842.69,607.8,5.1,0.0,0.0,0.0,0.0,0.64,-7.49,-7.49,-0.08,0.94,-1.31,1.88,49.46,0.6,-0.38,-13.41,100.0,0.0,0.0,141.42,0.0,0.0,0.0,0.0,0.0,0.0,0.0,7544.0,0.0,30.0,4.0,178.0,1.0,0.0,0.0,0.0,0.0,0.0,0.0,0.0,31.668,31.668,48.272,17.064,1.0,110.0,435.8,8750.0,0.0,0.0,110.0,110.0,433.0,0.0,0.0,0.0,1.0,166.7,71.1,71.1,62.7,62.7,34.0,22.3,96.36,26.1,95.3,4.0,-264.265,-22.2,100.0,18.1,26.6,34.0,47.4,0.0,1.0,100.0,0.0,0.0,0.0,0.0,2256.0,5315.0,4005.0,6473.0,319.4,310.6,345.2,338.3,25.94,23.12,26.43,24.79,325.0,325.0,355.0,355.0,99.95,100.0,99.95,100.0,1.55,1.58,0.95,1.08,-0.1,-0.1,1.8,1.6,88.1,70.5,84.9,74.7,91.9,73.5,86.8,78.1,88.3,70.5,85.1,75.8,85.3,69.0,84.0,74.8,-1.28,1.27,0.07,0.03,0.0,150.98,152.1,141.91,140.94,174.7,27.6,0.9887871358386495,128.91641250388912,120.27397140577746,-133.2376327542076,-79.22237670898099,1,8
635,31.7,1107.8,44.05389866484754,-78.68289809621476,-10.3,-0.2,-8.1,7.9,7937.9,7938.0,178.5,0.0,1.0,1.0,0.0,1.0,1.0,0.0,0.0,0.0,100.0,1.0,1.186,26.0,0.0,-0.045,48.272,66.0,0.0,26.0,26.0,26.0,26.0,1.02,0.31,0.06,377.4,-3.12,-2.2,-2.34,-1.01,-844.22,609.42,5.2,0.0,0.0,0.0,0.0,0.64,-7.49,-7.49,-0.06,0.55,-1.23,2.12,49.59,0.72,-0.39,-14.82,100.0,0.0,0.0,141.84,0.0,0.0,0.0,0.0,0.0,0.0,0.0,7566.0,0.0,30.0,4.0,178.5,0.0,0.0,0.0,0.0,0.0,0.0,0.0,0.0,31.713,31.713,48.272,17.064,0.0,110.0,435.8,8750.0,0.0,0.0,110.0,110.0,433.0,0.0,0.0,0.0,1.0,333.3,71.1,71.1,63.0,63.0,34.0,23.3,102.45,27.1,107.7,4.0,-264.315,-22.3,100.0,17.6,26.6,33.6,47.8,0.0,1.0,100.0,0.0,0.0,0.0,0.0,2246.0,5508.0,3851.0,6532.0,319.4,310.1,345.5,338.1,25.94,23.12,26.43,24.8,325.0,325.0,355.0,355.0,99.95,100.0,99.95,100.0,1.66,1.68,1.12,1.23,-0.1,-0.1,2.3,1.3,88.1,70.5,84.9,74.7,91.8,73.5,86.7,78.1,88.3,70.5,85.1,75.9,85.2,69.0,83.9,74.8,-1.3,1.28,0.08,0.03,0.0,151.28,152.54,141.07,142.61,174.7,27.6,1.0677546534667972,124.23509026967767,118.11336115258791,57.61627360806216,108.03051379752375,1,8
636,31.75,1110.3,44.053915122432926,-78.68291383434286,-9.7,4.2,-21.3,4.9,7940.4,7940.0,179.0,0.0,1.0,1.0,0.0,1.0,1.0,0.0,0.0,0.0,100.0,1.0,1.186,26.0,0.0,-0.042,48.272,66.0,0.0,26.0,26.0,26.0,26.0,1.11,0.29,0.09,377.8,-2.93,-2.1,-2.45,-0.9,-845.97,611.25,5.2,0.0,0.0,0.0,0.0,0.64,-7.49,-7.49,-0.05,0.52,-1.12,2.33,49.73,0.87,-0.39,-16.01,100.0,0.0,0.0,142.35,0.0,0.0,0.0,0.0,0.0,0.0,0.0,7593.0,0.0,30.0,4.0,179.0,1.0,0.0,0.0,0.0,0.0,0.0,0.0,0.0,31.764,31.764,48.272,17.064,1.0,110.0,435.8,8750.0,0.0,0.0,110.0,110.0,433.0,0.0,0.0,0.0,1.0,333.3,71.3,71.3,63.6,63.6,34.0,23.5,106.24,33.7,113.9,4.0,-264.365,-22.3,100.0,17.1,26.8,32.6,48.0,0.0,1.0,100.0,0.0,0.0,0.0,0.0,2134.0,5578.0,3805.0,6634.0,319.8,309.9,345.7,337.9,25.94,23.12,26.43,24.8,325.0,325.0,355.0,355.0,99.95,100.0,99.95,100.0,1.8,1.84,1.33,1.43,-0.1,-0.1,2.0,1.7,88.1,70.5,84.9,74.7,91.8,73.6,86.7,78.2,88.2,70.5,85.1,75.9,85.2,69.0,83.9,74.8,-1.3,1.28,0.08,0.02,0.0,151.63,153.01,142.83,141.86,174.7,27.6,1.1507823425826451,134.67803986469534,131.07702278552983,18.005085253571593,72.0203427213572,1,8
613,30.6,1049.4,44.05348461718017,-78.68259970130592,0.2,1.6,-0.6,4.2,9608.1,9608.0,165.5,0.0,1.0,1.0,0.0,1.0,1.0,0.0,0.0,0.0,100.0,1.0,1.186,26.0,0.0,0.045,48.272,66.0,0.0,26.0,26.0,26.0,26.0,0.5,0.35,0.02,380.4,-2.64,-2.19,-1.81,-1.32,-811.04,563.38,5.2,0.0,0.0,0.0,0.0,0.61,-7.49,-7.49,-0.77,0.35,-0.69,-1.16,45.97,0.28,-0.35,-6.37,100.0,0.0,0.0,131.55,0.0,0.0,0.0,0.0,0.0,0.0,0.0,7017.0,0.0,30.0,4.0,165.5,1.0,0.0,0.0,0.0,0.0,0.0,1.0,0.0,30.648,30.648,48.818,17.361,1.0,110.0,435.8,8750.0,0.0,0.0,110.0,110.0,433.0,0.0,0.0,0.0,1.0,166.7,75.2,75.2,65.5,65.5,34.0,11.5,52.1,9.8,53.1,5.0,-312.06,-10.2,100.0,16.8,22.1,34.2,39.8,0.0,1.0,100.0,0.0,0.0,0.0,0.0,2586.0,4332.0,4313.0,5431.0,318.7,313.4,344.4,341.1,26.6,23.46,26.45,25.08,325.0,325.0,355.0,355.0,99.88,100.0,99.9,99.96,0.72,0.75,0.48,0.61,-0.0,-0.1,1.8,1.9,92.2,72.6,85.1,76.5,97.8,74.8,87.1,78.9,94.1,71.6,85.5,76.5,90.4,69.9,84.3,75.2,-0.59,0.58,0.07,0.05,0.0,140.66,141.21,132.13,130.97,174.7,27.6,0.6106553856308811,143.32048090590465,79.58247812385042,3.601017278323866,21.606101962871946,1,8
614,30.65,1051.7,44.05350197408716,-78.68260941397926,-3.4,1.0,1.7,9.3,9610.4,9610.0,166.1,0.0,1.0,1.0,0.0,1.0,1.0,0.0,0.0,0.0,100.0,1.0,1.186,26.0,0.0,0.045,48.272,66.0,0.0,26.0,26.0,26.0,26.0,0.52,0.36,0.02,380.3,-2.73,-2.25,-1.76,-1.23,-812.12,565.31,5.2,0.0,0.0,0.0,0.0,0.61,-7.49,-7.49,-0.77,-0.03,-0.74,-1.22,46.15,0.3,-0.35,-7.17,100.0,0.0,0.0,132.03,0.0,0.0,0.0,0.0,0.0,0.0,0.0,7042.0,0.0,30.0,4.0,166.1,0.0,0.0,0.0,0.0,0.0,0.0,1.0,0.0,30.696,30.696,48.818,17.361,0.0,110.0,435.8,8750.0,0.0,0.0,110.0,110.0,433.0,0.0,0.0,0.0,1.0,333.3,75.2,75.2,65.1,65.1,34.0,11.5,56.28,11.5,55.4,5.0,-312.11,-10.7,100.0,16.6,22.1,34.3,40.3,0.0,1.0,100.0,0.0,0.0,0.0,0.0,2509.0,4457.0,4270.0,5452.0,319.0,313.1,344.5,341.0,26.6,23.46,26.45,25.08,325.0,325.0,355.0,355.0,99.88,100.0,99.9,99.96,0.75,0.8,0.51,0.66,-0.0,-0.1,1.8,1.8,92.2,72.6,85.1,76.5,97.7,74.8,87.0,78.9,94.0,71.6,85.4,76.5,90.3,69.9,84.2,75.2,-0.61,0.62,0.07,0.05,0.0,141.12,141.75,132.57,131.49,174.7,27.6,0.632771680782255,148.00180316856725,82.82339347518355,3.6010175628356933,18.005084969059766,1,8
