,Time,Distance,GPS Latitude,GPS Longitude,Damper Velocity (Calc) FL,Damper Velocity (Calc) FR,Damper Velocity (Calc) RL,Damper Velocity (Calc) RR,Corr Dist,Corr Dist (Unstretched),Corr Speed,ABS Active,ABS Enabled,AID Allow Tire Blankets,AID Auto Blip,AID Auto Clutch,AID Auto Shift,AID Fuel Rate,AID Ideal Line,AID Mech Damage,AID Stability,AID Tire Wear Rate,Air Density,Air Temp,Ballast,Best Lap Delta,Best Lap Time,Brake Bias,Brake Pos,Brake Temp FL,Brake Temp FR,Brake Temp RL,Brake Temp RR,CG Accel Lateral,CG Accel Longitudinal,CG Accel Vertical,CG Height,Camber FL,Camber FR,Camber RL,Camber RR,Car Coord X,Car Coord Y,Car Coord Z,Car Damage Front,Car Damage Left,Car Damage Rear,Car Damage Right,Car Pos Norm,Caster FL,Caster FR,Chassis Pitch Angle,Chassis Pitch Rate,Chassis Roll Angle,Chassis Roll Rate,Chassis Velocity X,Chassis Velocity Y,Chassis Velocity Z,Chassis Yaw Rate,Clutch Pos,DRS Active,DRS Available,Drive Train Speed,ERS Heat Charging,ERS Is Charging,ERS Max Energy,ERS Power Level,ERS Recovery Level,Engine Brake Setting,Engine Limiter,Engine RPM,Flags,Fuel Level,Gear,Ground Speed,HR Sample Clock,In Pit,KERS Charge,KERS Deployed Energy,KERS Input,KERS Max Energy,LR Sample Clock,Lap Invalidated,Lap Time,Lap Time2,Last Lap Time,Last Sector Time,MR Sample Clock,Max Fuel,Max Power,Max RPM,Max Sus Travel FL,Max Sus Travel FR,Max Sus Travel RL,Max Sus Travel RR,Max Torque,Max Turbo Boost,Num Tires Off Track,Penalties Enabled,Position,Raw Data Sample Rate,Ride Height FL,Ride Height FR,Ride Height RL,Ride Height RR,Road Temp,Self Align Torque FL,Self Align Torque FR,Self Align Torque RL,Self Align Torque RR,Session Lap Count,Session Time Left,Steering Angle,Surface Grip,Suspension Travel FL,Suspension Travel FR,Suspension Travel RL,Suspension Travel RR,TC Active,TC Enabled,Throttle Pos,Tire Dirt Level FL,Tire Dirt Level FR,Tire Dirt Level RL,Tire Dirt Level RR,Tire Load FL,Tire Load FR,Tire Load RL,Tire Load RR,Tire Loaded Radius FL,Tire Loaded Radius FR,Tire Loaded Radius RL,Tire Loaded Radius RR,Tire Pressure FL,Tire Pressure FR,Tire Pressure RL,Tire Pressure RR,Tire Radius FL,Tire Radius FR,Tire Radius RL,Tire Radius RR,Tire Rubber Grip FL,Tire Rubber Grip FR,Tire Rubber Grip RL,Tire Rubber Grip RR,Tire Slip Angle FL,Tire Slip Angle FR,Tire Slip Angle RL,Tire Slip Angle RR,Tire Slip Ratio FL,Tire Slip Ratio FR,Tire Slip Ratio RL,Tire Slip Ratio RR,Tire Temp Core FL,Tire Temp Core FR,Tire Temp Core RL,Tire Temp Core RR,Tire Temp Inner FL,Tire Temp Inner FR,Tire Temp Inner RL,Tire Temp Inner RR,Tire Temp Middle FL,Tire Temp Middle FR,Tire Temp Middle RL,Tire Temp Middle RR,Tire Temp Outer FL,Tire Temp Outer FR,Tire Temp Outer RL,Tire Temp Outer RR,Toe In FL,Toe In FR,Toe In RL,Toe In RR,Turbo Boost,Wheel Angular Speed FL,Wheel Angular Speed FR,Wheel Angular Speed RL,Wheel Angular Speed RR,Wind Direction,Wind Speed,CG Distance,Lateral Velocity,Longitudinal Velocity,Lateral Acceleration,Longitudinal Acceleration,level,curve_number
1017,50.8,673.7,44.05251065188096,-78.68008591755304,-5.0,-1.7,2.3,2.3,2244.9,2245.0,106.9,0.0,1.0,1.0,0.0,1.0,1.0,0.0,0.0,0.0,100.0,1.0,1.186,26.0,0.0,9.276,74.678,66.0,0.0,26.0,26.0,26.0,26.0,0.95,-0.23,-0.0,385.2,-2.94,-2.14,-2.1,-0.87,-531.52,455.08,4.1,0.0,0.0,0.0,0.0,0.36,-7.49,-7.49,1.06,0.57,0.48,-0.57,29.67,0.32,-0.36,-17.75,100.0,0.0,0.0,83.03,0.0,0.0,0.0,0.0,0.0,0.0,0.0,7136.0,0.0,30.0,2.0,106.9,0.0,0.0,0.0,0.0,0.0,0.0,1.0,0.0,50.836,50.836,74.679,35.607,0.0,110.0,435.8,8750.0,0.0,0.0,110.0,110.0,433.0,0.0,0.0,0.0,1.0,166.7,71.5,71.5,74.7,74.7,34.0,18.96,95.16,26.5,91.5,1.0,-128.09,-28.1,100.0,16.2,26.6,23.8,38.3,0.0,1.0,0.0,0.0,0.0,0.0,0.0,2072.0,5379.0,2632.0,5169.0,319.4,310.2,348.6,342.2,23.42,22.73,26.61,26.1,325.0,325.0,355.0,355.0,99.79,99.73,99.92,99.87,1.43,1.47,1.36,1.51,0.0,-0.1,-0.3,-0.7,72.4,68.0,86.1,82.9,68.6,64.8,96.5,94.0,66.3,62.7,94.0,91.4,64.6,61.6,92.6,90.1,-1.66,1.63,0.1,0.05,0.0,90.3,91.87,82.48,83.58,356.7,7.7,0.9774456506629922,39.61118818378344,97.94766536131499,3.6010169938120384,-79.22237613995733,0,7
1018,50.85,675.2,44.05250606534077,-78.6800969792088,-4.3,-5.1,2.2,-4.8,2246.4,2246.0,106.5,0.0,1.0,1.0,0.0,1.0,1.0,0.0,0.0,0.0,100.0,1.0,1.186,26.0,0.0,9.288,74.678,66.0,0.0,26.0,26.0,26.0,26.0,0.89,-0.08,0.05,385.4,-2.94,-2.13,-2.09,-0.89,-532.75,454.57,4.2,0.0,0.0,0.0,0.0,0.36,-7.49,-7.49,1.08,0.44,0.43,-1.0,29.59,0.32,-0.36,-16.77,100.0,0.0,0.0,83.75,0.0,0.0,0.0,0.0,0.0,0.0,0.0,7197.0,0.0,30.0,2.0,106.5,1.0,0.0,0.0,0.0,0.0,0.0,1.0,0.0,50.88,50.88,74.679,35.607,1.0,110.0,435.8,8750.0,0.0,0.0,110.0,110.0,433.0,0.0,0.0,0.0,1.0,333.3,71.9,71.9,74.8,74.8,34.0,17.28,88.52,25.8,90.6,1.0,-128.14,-24.8,100.0,16.0,26.4,23.9,38.1,0.0,1.0,13.1,0.0,0.0,0.0,0.0,2085.0,5233.0,2681.0,5115.0,319.4,310.6,348.5,342.3,23.42,22.73,26.61,26.11,325.0,325.0,355.0,355.0,99.79,99.73,99.92,99.87,1.29,1.34,1.32,1.47,-0.0,-0.0,0.7,-0.2,72.4,68.0,86.1,82.9,68.6,64.8,96.4,94.0,66.2,62.7,94.0,91.4,64.6,61.6,92.5,90.1,-1.48,1.46,0.09,0.06,0.0,90.09,91.55,83.7,83.79,356.7,7.7,0.8949860334105778,39.61118818378344,94.34664825369832,39.61118835449042,18.00508553808342,0,7
1019,50.9,676.7,44.052500759343296,-78.68010947977912,-6.5,-15.8,4.0,-7.6,2247.9,2248.0,106.7,0.0,1.0,1.0,0.0,1.0,1.0,0.0,0.0,0.0,100.0,1.0,1.186,26.0,0.0,9.297,74.678,66.0,0.0,26.0,26.0,26.0,26.0,0.8,0.2,-0.07,386.0,-2.91,-2.13,-2.04,-0.93,-534.14,453.98,4.2,0.0,0.0,0.0,0.0,0.36,-7.49,-7.49,1.13,1.03,0.35,-1.47,29.64,0.3,-0.34,-14.27,100.0,0.0,0.0,84.77,0.0,0.0,0.0,0.0,0.0,0.0,0.0,7285.0,0.0,30.0,2.0,106.7,0.0,0.0,0.0,0.0,0.0,0.0,1.0,0.0,50.931,50.931,74.679,35.607,0.0,110.0,435.8,8750.0,0.0,0.0,110.0,110.0,433.0,0.0,0.0,0.0,1.0,333.3,73.6,73.6,74.3,74.3,34.0,13.19,73.76,23.1,87.2,1.0,-128.19,-21.2,100.0,15.7,25.6,24.1,37.7,0.0,1.0,34.9,0.0,0.0,0.0,0.0,1822.0,4680.0,3078.0,5208.0,320.1,312.1,347.5,342.1,23.42,22.72,26.61,26.11,325.0,325.0,355.0,355.0,99.79,99.73,99.92,99.87,1.16,1.21,1.19,1.35,-0.1,-0.1,2.3,0.8,72.4,68.0,86.1,82.9,68.6,64.8,96.4,94.0,66.2,62.7,94.0,91.4,64.5,61.6,92.5,90.1,-1.25,1.24,0.09,0.05,0.0,90.34,91.61,84.77,84.77,356.7,7.7,0.8275868534480234,43.57230701923248,99.74817391512333,43.21220534830246,25.20712009473087,0,7
1020,50.95,678.2,44.05249518354934,-78.68012189041728,-17.1,-32.5,18.2,-5.3,2249.4,2249.0,107.2,0.0,1.0,1.0,0.0,1.0,1.0,0.0,0.0,0.0,100.0,1.0,1.186,26.0,0.0,9.309,74.678,66.0,0.0,26.0,26.0,26.0,26.0,0.69,0.4,0.03,386.7,-2.84,-2.14,-1.99,-1.0,-535.52,453.36,4.3,0.0,0.0,0.0,0.0,0.37,-7.49,-7.49,1.17,0.6,0.25,-1.87,29.8,0.28,-0.31,-12.07,100.0,0.0,0.0,85.93,0.0,0.0,0.0,0.0,0.0,0.0,0.0,7385.0,0.0,30.0,2.0,107.2,1.0,0.0,0.0,0.0,0.0,0.0,1.0,0.0,50.981,50.981,74.679,35.607,1.0,110.0,435.8,8750.0,0.0,0.0,110.0,110.0,433.0,0.0,0.0,0.0,1.0,333.3,75.8,75.8,73.5,73.5,34.0,11.34,62.31,19.6,75.2,1.0,-128.24,-19.4,100.0,14.8,24.0,25.0,37.4,0.0,1.0,64.5,0.0,0.0,0.0,0.0,1719.0,4190.0,3447.0,5210.0,320.4,313.5,346.6,342.1,23.41,22.72,26.62,26.11,325.0,325.0,355.0,355.0,99.79,99.73,99.92,99.87,1.08,1.13,1.02,1.2,-0.1,-0.1,3.1,1.8,72.3,68.0,86.1,83.0,68.5,64.8,96.3,93.9,66.2,62.7,93.9,91.4,64.5,61.6,92.5,90.0,-1.14,1.12,0.1,0.05,0.0,90.86,91.96,85.93,85.93,356.7,7.7,0.7981227975693965,43.93240871861369,96.8673602631714,14.404068544271453,-25.207119525707213,0,7
1021,51.0,679.7,44.052489787619706,-78.68013367153033,-11.6,-31.5,19.4,-9.4,2250.9,2251.0,108.0,0.0,1.0,1.0,0.0,1.0,1.0,0.0,0.0,0.0,100.0,1.0,1.186,26.0,0.0,9.318,74.678,66.0,0.0,26.0,26.0,26.0,26.0,0.63,0.48,0.02,387.2,-2.75,-2.17,-1.93,-1.05,-536.83,452.76,4.3,0.0,0.0,0.0,0.0,0.37,-7.49,-7.49,1.19,0.09,0.16,-1.46,30.01,0.25,-0.29,-11.03,100.0,0.0,0.0,86.94,0.0,0.0,0.0,0.0,0.0,0.0,0.0,7472.0,0.0,30.0,2.0,108.0,0.0,0.0,0.0,0.0,0.0,0.0,1.0,0.0,51.03,51.03,74.679,35.607,0.0,110.0,435.8,8750.0,0.0,0.0,110.0,110.0,433.0,0.0,0.0,0.0,1.0,333.3,77.2,77.2,73.2,73.2,34.0,11.6,57.86,16.5,64.4,1.0,-128.29,-19.2,100.0,14.3,22.4,26.0,37.0,0.0,1.0,87.9,0.0,0.0,0.0,0.0,1760.0,3982.0,3565.0,5119.0,320.3,314.1,346.3,342.3,23.41,22.72,26.62,26.12,325.0,325.0,355.0,355.0,99.79,99.73,99.92,99.87,1.06,1.11,0.91,1.08,-0.1,-0.1,3.5,2.4,72.3,68.0,86.1,83.0,68.5,64.8,96.3,93.9,66.2,62.7,93.9,91.3,64.5,61.6,92.4,90.0,-1.11,1.1,0.08,0.05,0.0,91.54,92.55,86.95,86.95,356.7,7.7,0.7922752047110903,45.01271387365963,97.22746196255261,39.61118835449042,32.40915351333129,0,7
1022,51.05,681.2,44.05248394202926,-78.68014617210065,-6.6,-22.4,14.8,-8.5,2252.4,2252.0,108.9,0.0,1.0,1.0,0.0,1.0,1.0,0.0,0.0,0.0,100.0,1.0,1.186,26.0,0.0,9.33,74.678,66.0,0.0,26.0,26.0,26.0,26.0,0.61,0.57,-0.08,387.5,-2.71,-2.18,-1.9,-1.1,-538.22,452.11,4.3,0.0,0.0,0.0,0.0,0.37,-7.49,-7.49,1.2,0.21,0.09,-0.97,30.27,0.23,-0.28,-10.95,100.0,0.0,0.0,88.04,0.0,0.0,0.0,0.0,0.0,0.0,0.0,7566.0,0.0,30.0,2.0,108.9,1.0,0.0,0.0,0.0,0.0,0.0,1.0,0.0,51.081,51.081,74.679,35.607,1.0,110.0,435.8,8750.0,0.0,0.0,110.0,110.0,433.0,0.0,0.0,0.0,1.0,333.3,77.9,77.9,72.9,72.9,34.0,12.09,56.41,14.2,57.7,1.0,-128.34,-19.8,100.0,13.9,21.3,26.8,36.5,0.0,1.0,95.3,0.0,0.0,0.0,0.0,1815.0,3927.0,3623.0,5129.0,320.1,314.2,346.2,342.3,23.41,22.72,26.62,26.12,325.0,325.0,355.0,355.0,99.79,99.73,99.92,99.87,1.05,1.09,0.85,1.01,-0.1,-0.1,3.9,2.9,72.3,68.0,86.1,83.0,68.5,64.8,96.3,93.9,66.1,62.7,93.8,91.3,64.5,61.6,92.4,90.0,-1.14,1.12,0.09,0.05,0.0,92.38,93.33,88.04,88.04,356.7,7.7,0.8386894538504701,47.89352755406273,100.10827561450454,28.808136519519252,3.6010169938120384,0,7
1023,51.1,682.7,44.052477826642345,-78.68015867267097,-7.5,-14.1,11.6,1.1,2253.9,2254.0,109.9,0.0,1.0,1.0,0.0,1.0,1.0,0.0,0.0,0.0,100.0,1.0,1.186,26.0,0.0,9.33,74.678,66.0,0.0,26.0,26.0,26.0,26.0,0.62,0.55,0.04,387.5,-2.67,-2.18,-1.9,-1.11,-539.61,451.43,4.4,0.0,0.0,0.0,0.0,0.37,-7.49,-7.49,1.21,0.12,0.05,-0.3,30.55,0.22,-0.27,-11.17,100.0,0.0,0.0,88.7,0.0,0.0,0.0,0.0,0.0,0.0,0.0,7624.0,0.0,30.0,2.0,109.9,0.0,0.0,0.0,0.0,0.0,0.0,0.0,0.0,51.131,51.131,74.679,35.607,0.0,110.0,435.8,8750.0,0.0,0.0,110.0,110.0,433.0,0.0,0.0,0.0,1.0,333.3,78.4,78.4,72.4,72.4,34.0,12.49,57.18,14.3,59.4,1.0,-128.39,-20.6,100.0,13.6,20.5,27.3,36.6,0.0,1.0,93.4,0.0,0.0,0.0,0.0,1829.0,3953.0,3653.0,5220.0,320.1,314.2,346.1,342.1,23.4,22.72,26.62,26.12,325.0,325.0,355.0,355.0,99.79,99.73,99.92,99.87,1.07,1.1,0.83,0.99,-0.1,-0.1,3.8,2.7,72.3,68.0,86.1,83.0,68.4,64.8,96.2,93.9,66.1,62.7,93.8,91.3,64.4,61.6,92.4,90.0,-1.19,1.18,0.09,0.05,0.0,93.21,94.18,88.7,88.7,356.7,7.7,0.8297590011563599,47.89352752561155,97.58756366193381,28.808136804031008,10.803051550459486,0,7
1024,51.15,684.3,44.05247198105191,-78.68017054371617,-3.8,-7.0,7.2,6.4,2255.5,2255.0,110.9,0.0,1.0,1.0,0.0,1.0,1.0,0.0,0.0,0.0,100.0,1.0,1.186,26.0,0.0,9.339,74.678,66.0,0.0,26.0,26.0,26.0,26.0,0.64,0.54,0.03,387.4,-2.66,-2.18,-1.9,-1.11,-540.93,450.78,4.4,0.0,0.0,0.0,0.0,0.37,-7.49,-7.49,1.21,-0.06,0.02,-0.17,30.81,0.22,-0.26,-11.52,100.0,0.0,0.0,89.24,0.0,0.0,0.0,0.0,0.0,0.0,0.0,7670.0,0.0,30.0,2.0,110.9,1.0,0.0,0.0,0.0,0.0,0.0,0.0,0.0,51.18,51.18,74.679,35.607,1.0,110.0,435.8,8750.0,0.0,0.0,110.0,110.0,433.0,0.0,0.0,0.0,1.0,333.3,78.6,78.6,72.0,72.0,34.0,13.39,60.84,14.4,62.4,1.0,-128.44,-22.7,100.0,13.4,20.2,27.7,36.9,0.0,1.0,89.8,0.0,0.0,0.0,0.0,1830.0,4050.0,3618.0,5289.0,320.1,313.9,346.2,341.9,23.4,22.71,26.62,26.12,325.0,325.0,355.0,355.0,99.79,99.73,99.92,99.87,1.14,1.18,0.82,0.98,-0.1,-0.1,3.6,2.5,72.3,68.0,86.2,83.0,68.4,64.8,96.2,93.9,66.1,62.7,93.8,91.3,64.4,61.6,92.3,90.0,-1.3,1.28,0.09,0.05,0.0,93.97,94.96,89.24,89.24,356.7,7.7,0.837914076740569,50.77434123446583,101.18858076955048,43.21220563281422,39.61118806997874,0,7
1025,51.2,685.8,44.0524651462077,-78.6801839436081,-2.6,-2.7,2.6,7.1,2257.0,2257.0,111.8,0.0,1.0,1.0,0.0,1.0,1.0,0.0,0.0,0.0,100.0,1.0,1.186,26.0,0.0,9.348,74.678,66.0,0.0,26.0,26.0,26.0,26.0,0.68,0.48,0.01,387.3,-2.66,-2.18,-1.92,-1.1,-542.42,450.02,4.5,0.0,0.0,0.0,0.0,0.37,-7.49,-7.49,1.21,-0.06,0.0,-0.02,31.07,0.21,-0.27,-12.36,100.0,0.0,0.0,89.83,0.0,0.0,0.0,0.0,0.0,0.0,0.0,7720.0,0.0,30.0,2.0,111.8,0.0,0.0,0.0,0.0,0.0,0.0,0.0,0.0,51.234,51.234,74.679,35.607,0.0,110.0,435.8,8750.0,0.0,0.0,110.0,110.0,433.0,0.0,0.0,0.0,1.0,166.7,78.4,78.4,71.9,71.9,34.0,15.17,66.39,14.7,64.7,1.0,-128.49,-25.3,100.0,13.2,20.1,27.8,37.3,0.0,1.0,81.6,0.0,0.0,0.0,0.0,1865.0,4213.0,3527.0,5289.0,320.0,313.4,346.4,341.9,23.4,22.71,26.63,26.13,325.0,325.0,355.0,355.0,99.79,99.73,99.92,99.87,1.25,1.28,0.84,0.99,-0.1,-0.1,3.4,2.3,72.2,67.9,86.2,83.0,68.4,64.8,96.2,93.8,66.1,62.7,93.8,91.3,64.4,61.6,92.3,89.9,-1.45,1.43,0.09,0.05,0.0,94.74,95.81,89.82,89.82,356.7,7.7,0.8324061508662703,52.214748088892975,101.54868246893169,-3.6010169938118963,-57.61627417708581,0,7
1026,51.25,687.4,44.05245894088862,-78.68019590458546,-1.4,2.5,-2.3,6.1,2258.6,2259.0,112.6,0.0,1.0,1.0,0.0,1.0,1.0,0.0,0.0,0.0,100.0,1.0,1.186,26.0,0.0,9.354,74.678,66.0,0.0,26.0,26.0,26.0,26.0,0.71,0.46,0.0,387.2,-2.66,-2.17,-1.95,-1.07,-543.75,449.33,4.5,0.0,0.0,0.0,0.0,0.37,-7.49,-7.49,1.21,0.04,-0.0,0.23,31.29,0.22,-0.27,-13.29,100.0,0.0,0.0,90.31,0.0,0.0,0.0,0.0,0.0,0.0,0.0,7761.0,0.0,30.0,2.0,112.6,1.0,0.0,0.0,0.0,0.0,0.0,0.0,0.0,51.281,51.281,74.679,35.607,1.0,110.0,435.8,8750.0,0.0,0.0,110.0,110.0,433.0,0.0,0.0,0.0,1.0,333.3,78.3,78.3,71.9,71.9,34.0,16.01,69.74,15.9,69.2,1.0,-128.54,-26.9,100.0,13.2,20.2,27.7,37.6,0.0,1.0,74.6,0.0,0.0,0.0,0.0,1854.0,4306.0,3460.0,5336.0,320.0,313.2,346.6,341.8,23.39,22.71,26.63,26.13,325.0,325.0,355.0,355.0,99.79,99.73,99.92,99.87,1.33,1.35,0.88,1.03,-0.1,-0.1,3.3,2.0,72.2,67.9,86.2,83.1,68.4,64.8,96.1,93.8,66.0,62.7,93.7,91.2,64.4,61.6,92.3,89.9,-1.56,1.53,0.08,0.05,0.0,95.37,96.53,90.31,90.31,356.7,7.7,0.8459905436823747,50.41423953508464,95.4269533518419,14.404068259759697,-28.80813708854305,0,7
1027,51.3,688.9,44.052452555705216,-78.68020777563065,-1.2,5.3,-4.8,7.0,2260.2,2260.0,113.3,0.0,1.0,1.0,0.0,1.0,1.0,0.0,0.0,0.0,100.0,1.0,1.186,26.0,0.0,9.363,74.678,66.0,0.0,26.0,26.0,26.0,26.0,0.75,0.45,0.0,387.1,-2.68,-2.16,-1.97,-1.05,-545.07,448.62,4.6,0.0,0.0,0.0,0.0,0.37,-7.49,-7.49,1.21,0.1,-0.01,0.22,31.49,0.23,-0.27,-14.01,100.0,0.0,0.0,90.94,0.0,0.0,0.0,0.0,0.0,0.0,0.0,7816.0,0.0,30.0,2.0,113.3,0.0,0.0,0.0,0.0,0.0,0.0,0.0,0.0,51.33,51.33,74.679,35.607,0.0,110.0,435.8,8750.0,0.0,0.0,110.0,110.0,433.0,0.0,0.0,0.0,1.0,333.3,78.1,78.1,72.0,72.0,34.0,15.94,71.79,16.5,72.2,1.0,-128.59,-27.1,100.0,13.1,20.5,27.5,37.9,0.0,1.0,77.0,0.0,0.0,0.0,0.0,1831.0,4382.0,3411.0,5402.0,320.1,313.0,346.7,341.6,23.39,22.71,26.63,26.13,325.0,325.0,355.0,355.0,99.79,99.73,99.92,99.87,1.35,1.38,0.93,1.08,-0.1,-0.1,3.4,2.0,72.2,67.9,86.2,83.1,68.3,64.8,96.1,93.8,66.0,62.7,93.7,91.2,64.3,61.6,92.2,89.9,-1.58,1.55,0.08,0.05,0.0,95.95,97.19,90.94,90.94,356.7,7.7,0.8746427842267951,53.655154914868945,98.66786876007738,64.81830788019785,64.8183081647096,0,7
1028,51.35,690.5,44.05244554099669,-78.68022054599746,-0.3,4.7,-3.1,6.8,2261.8,2262.0,114.1,0.0,1.0,1.0,0.0,1.0,1.0,0.0,0.0,0.0,100.0,1.0,1.186,26.0,0.0,9.369,74.678,66.0,0.0,26.0,26.0,26.0,26.0,0.77,0.47,0.01,386.9,-2.69,-2.16,-1.99,-1.03,-546.49,447.84,4.6,0.0,0.0,0.0,0.0,0.37,-7.49,-7.49,1.22,0.33,-0.02,0.12,31.71,0.26,-0.27,-14.63,100.0,0.0,0.0,91.75,0.0,0.0,0.0,0.0,0.0,0.0,0.0,7886.0,0.0,30.0,2.0,114.1,1.0,0.0,0.0,0.0,0.0,0.0,0.0,0.0,51.381,51.381,74.679,35.607,1.0,110.0,435.8,8750.0,0.0,0.0,110.0,110.0,433.0,0.0,0.0,0.0,1.0,333.3,77.9,77.9,71.9,71.9,34.0,16.24,72.8,17.4,74.3,1.0,-128.64,-26.9,100.0,13.1,20.7,27.3,38.3,0.0,1.0,84.4,0.0,0.0,0.0,0.0,1852.0,4423.0,3417.0,5465.0,320.0,312.8,346.7,341.5,23.39,22.71,26.63,26.14,325.0,325.0,355.0,355.0,99.79,99.73,99.92,99.87,1.36,1.38,1.0,1.14,-0.1,-0.1,3.5,2.2,72.2,67.9,86.2,83.1,68.3,64.8,96.1,93.8,66.0,62.7,93.7,91.2,64.3,61.6,92.2,89.9,-1.57,1.54,0.08,0.04,0.0,96.65,97.89,91.75,91.75,356.7,7.7,0.9021640649017229,56.896070323104425,101.90878416831286,32.4091540823548,0.0,0,7
1029,51.4,692.1,44.05243834642384,-78.6802332264321,0.0,1.1,0.7,8.0,2263.4,2263.0,115.0,0.0,1.0,1.0,0.0,1.0,1.0,0.0,0.0,0.0,100.0,1.0,1.186,26.0,0.0,9.375,74.678,66.0,0.0,26.0,26.0,26.0,26.0,0.78,0.47,0.02,386.8,-2.7,-2.15,-2.01,-1.02,-547.9,447.04,4.7,0.0,0.0,0.0,0.0,0.37,-7.49,-7.49,1.25,0.55,-0.02,0.3,31.95,0.29,-0.27,-14.99,100.0,0.0,0.0,92.45,0.0,0.0,0.0,0.0,0.0,0.0,0.0,7946.0,0.0,30.0,2.0,115.0,0.0,0.0,0.0,0.0,0.0,0.0,0.0,0.0,51.431,51.431,74.679,35.607,0.0,110.0,435.8,8750.0,0.0,0.0,110.0,110.0,433.0,0.0,0.0,0.0,1.0,333.3,77.9,77.9,71.7,71.7,34.0,15.92,72.91,18.4,78.3,1.0,-128.69,-26.4,100.0,13.1,20.7,27.4,38.7,0.0,1.0,86.3,0.0,0.0,0.0,0.0,1824.0,4421.0,3458.0,5575.0,320.1,312.8,346.6,341.2,23.38,22.7,26.64,26.14,325.0,325.0,355.0,355.0,99.79,99.73,99.92,99.87,1.36,1.39,1.05,1.2,-0.1,-0.1,3.6,2.2,72.1,67.9,86.2,83.1,68.3,64.8,96.0,93.8,66.0,62.7,93.6,91.2,64.3,61.7,92.2,89.9,-1.54,1.52,0.09,0.05,0.0,97.31,98.62,92.45,92.45,356.7,7.7,0.9108786966440702,56.896070323104425,98.66786876007738,18.005085253571522,-32.40915351333115,0,7
1030,51.45,693.7,44.05243133171532,-78.68024518740945,-1.4,0.8,1.8,9.2,2265.0,2265.0,115.8,0.0,1.0,1.0,0.0,1.0,1.0,0.0,0.0,0.0,100.0,1.0,1.186,26.0,0.0,9.381,74.678,66.0,0.0,26.0,26.0,26.0,26.0,0.78,0.51,0.01,386.7,-2.7,-2.13,-2.03,-1.0,-549.23,446.26,4.7,0.0,0.0,0.0,0.0,0.37,-7.49,-7.49,1.27,0.47,-0.02,0.43,32.17,0.32,-0.27,-14.96,100.0,0.0,0.0,93.13,0.0,0.0,0.0,0.0,0.0,0.0,0.0,8004.0,0.0,30.0,2.0,115.8,1.0,0.0,0.0,0.0,0.0,0.0,0.0,0.0,51.48,51.48,74.679,35.607,1.0,110.0,435.8,8750.0,0.0,0.0,110.0,110.0,433.0,0.0,0.0,0.0,1.0,333.3,78.1,78.1,71.5,71.5,34.0,15.23,72.38,19.4,80.6,1.0,-128.74,-25.4,100.0,13.0,20.8,27.4,39.1,0.0,1.0,88.7,0.0,0.0,0.0,0.0,1760.0,4383.0,3461.0,5658.0,320.3,312.9,346.6,341.0,23.38,22.7,26.64,26.14,325.0,325.0,355.0,355.0,99.79,99.73,99.92,99.87,1.36,1.41,1.1,1.24,-0.1,-0.1,3.6,2.3,72.1,67.9,86.2,83.1,68.3,64.8,96.0,93.7,65.9,62.7,93.6,91.2,64.3,61.7,92.1,89.9,-1.49,1.47,0.08,0.05,0.0,98.02,99.33,93.13,93.13,356.7,7.7,0.9319871243745806,58.69657884846158,98.66786881697975,50.41423962043808,28.80813708854305,0,7
1031,51.5,695.4,44.05242368748167,-78.6802578678441,-3.0,-2.3,1.2,8.0,2266.6,2267.0,116.6,0.0,1.0,1.0,0.0,1.0,1.0,0.0,0.0,0.0,100.0,1.0,1.186,26.0,0.0,9.387,74.678,66.0,0.0,26.0,26.0,26.0,26.0,0.79,0.47,0.03,386.7,-2.71,-2.12,-2.04,-1.0,-550.64,445.41,4.8,0.0,0.0,0.0,0.0,0.38,-7.49,-7.49,1.29,0.28,-0.02,0.26,32.41,0.34,-0.27,-14.6,100.0,0.0,0.0,93.81,0.0,0.0,0.0,0.0,0.0,0.0,0.0,8062.0,0.0,30.0,2.0,116.6,0.0,0.0,0.0,0.0,0.0,0.0,0.0,0.0,51.531,51.531,74.679,35.607,0.0,110.0,435.8,8750.0,0.0,0.0,110.0,110.0,433.0,0.0,0.0,0.0,1.0,333.3,78.2,78.2,71.5,71.5,34.0,14.73,70.73,19.8,80.9,1.0,-128.79,-23.2,100.0,12.9,20.7,27.5,39.5,0.0,1.0,89.5,0.0,0.0,0.0,0.0,1775.0,4382.0,3442.0,5656.0,320.2,312.9,346.6,341.0,23.38,22.7,26.64,26.15,325.0,325.0,355.0,355.0,99.79,99.73,99.92,99.87,1.3,1.34,1.13,1.26,-0.1,-0.1,3.6,2.3,72.1,67.9,86.2,83.2,68.2,64.8,96.0,93.7,65.9,62.7,93.6,91.2,64.3,61.7,92.1,89.8,-1.37,1.35,0.08,0.05,0.0,98.73,100.02,93.81,93.81,356.7,7.7,0.9197282207261013,61.93749428514823,101.54868246893169,28.808137373054663,-5.690236548616667e-07,0,7
1032,51.55,697.0,44.05241586338369,-78.68027054827874,-0.4,-2.0,1.5,3.6,2268.2,2268.0,117.5,0.0,1.0,1.0,0.0,1.0,1.0,0.0,0.0,0.0,100.0,1.0,1.186,26.0,0.0,9.39,74.678,66.0,0.0,26.0,26.0,26.0,26.0,0.79,0.47,0.02,386.7,-2.72,-2.12,-2.05,-1.0,-552.05,444.54,4.8,0.0,0.0,0.0,0.0,0.38,-7.49,-7.49,1.3,0.15,-0.02,0.39,32.64,0.36,-0.27,-13.96,100.0,0.0,0.0,94.4,0.0,0.0,0.0,0.0,0.0,0.0,0.0,8113.0,0.0,30.0,2.0,117.5,1.0,0.0,0.0,0.0,0.0,0.0,0.0,0.0,51.581,51.581,74.679,35.607,1.0,110.0,435.8,8750.0,0.0,0.0,110.0,110.0,433.0,0.0,0.0,0.0,1.0,333.3,78.3,78.3,71.7,71.7,34.0,14.85,69.2,20.4,80.6,1.0,-128.84,-21.6,100.0,12.9,20.6,27.6,39.7,0.0,1.0,86.3,0.0,0.0,0.0,0.0,1823.0,4333.0,3437.0,5600.0,320.1,313.1,346.6,341.1,23.37,22.7,26.64,26.15,325.0,325.0,355.0,355.0,99.79,99.73,99.92,99.87,1.27,1.3,1.14,1.27,-0.1,-0.1,3.5,2.2,72.1,67.9,86.3,83.2,68.2,64.8,95.9,93.7,65.9,62.8,93.5,91.2,64.2,61.7,92.1,89.8,-1.27,1.25,0.08,0.05,0.0,99.47,100.71,94.4,94.4,356.7,7.7,0.9194563611178075,61.57739258576704,98.66786876007738,14.404068259759626,-32.409154082354945,0,7
1033,51.6,698.6,44.0524083090822,-78.6802825092561,0.5,-0.9,0.4,1.5,2269.9,2270.0,118.2,0.0,1.0,1.0,0.0,1.0,1.0,0.0,0.0,0.0,100.0,1.0,1.186,26.0,0.0,9.399,74.678,66.0,0.0,26.0,26.0,26.0,26.0,0.77,0.45,0.0,386.8,-2.74,-2.13,-2.05,-1.0,-553.38,443.7,4.9,0.0,0.0,0.0,0.0,0.38,-7.49,-7.49,1.3,0.01,-0.01,0.67,32.86,0.37,-0.27,-13.23,100.0,0.0,0.0,94.87,0.0,0.0,0.0,0.0,0.0,0.0,0.0,8153.0,0.0,30.0,2.0,118.2,0.0,0.0,0.0,0.0,0.0,0.0,1.0,0.0,51.63,51.63,74.679,35.607,0.0,110.0,435.8,8750.0,0.0,0.0,110.0,110.0,433.0,0.0,0.0,0.0,1.0,333.3,78.3,78.3,71.9,71.9,34.0,14.62,68.06,19.9,80.7,1.0,-128.89,-20.8,100.0,12.9,20.5,27.6,39.8,0.0,1.0,80.5,0.0,0.0,0.0,0.0,1835.0,4314.0,3400.0,5590.0,320.1,313.1,346.7,341.2,23.37,22.7,26.64,26.15,325.0,325.0,355.0,355.0,99.79,99.73,99.92,99.87,1.24,1.27,1.1,1.24,-0.1,-0.1,3.3,2.1,72.1,67.9,86.3,83.2,68.2,64.8,95.9,93.7,65.9,62.8,93.5,91.1,64.2,61.7,92.0,89.8,-1.21,1.19,0.09,0.05,0.0,100.15,101.29,94.87,94.87,356.7,7.7,0.8918520056601319,63.377901111124196,98.3077670606962,50.41423905141457,25.20712009473101,0,7
1034,51.65,700.3,44.05240003532343,-78.68029509975858,1.3,0.4,-2.0,0.7,2271.5,2272.0,119.0,0.0,1.0,1.0,0.0,1.0,1.0,0.0,0.0,0.0,100.0,1.0,1.186,26.0,0.0,9.402,74.678,66.0,0.0,26.0,26.0,26.0,26.0,0.78,0.41,-0.0,386.9,-2.7,-2.12,-2.07,-0.99,-554.78,442.78,4.9,0.0,0.0,0.0,0.0,0.38,-7.49,-7.49,1.3,-0.18,0.01,0.66,33.07,0.36,-0.27,-12.62,100.0,0.0,0.0,95.3,0.0,0.0,0.0,0.0,0.0,0.0,0.0,8191.0,0.0,30.0,2.0,119.0,1.0,0.0,0.0,0.0,0.0,0.0,1.0,0.0,51.681,51.681,74.679,35.607,1.0,110.0,435.8,8750.0,0.0,0.0,110.0,110.0,433.0,0.0,0.0,0.0,1.0,333.3,78.2,78.2,72.2,72.2,34.0,14.93,68.02,19.6,79.8,1.0,-128.94,-20.4,100.0,12.9,20.5,27.5,39.8,0.0,1.0,74.2,0.0,0.0,0.0,0.0,1859.0,4295.0,3368.0,5527.0,320.0,313.2,346.8,341.3,23.37,22.7,26.64,26.15,325.0,325.0,355.0,355.0,99.79,99.73,99.92,99.87,1.24,1.29,1.06,1.2,-0.1,-0.1,3.1,1.9,72.0,67.8,86.3,83.2,68.2,64.8,95.9,93.7,65.8,62.8,93.5,91.1,64.2,61.7,92.0,89.8,-1.19,1.18,0.09,0.05,0.0,100.85,101.97,95.3,95.3,356.7,7.7,0.8811923740024081,66.6188164909085,101.18858076955048,28.80813680403115,5.690235127531196e-07,0,7
1035,51.7,701.9,44.0523916716325,-78.68030778019323,3.8,-0.1,-2.1,-3.0,2273.2,2273.0,119.7,0.0,1.0,1.0,0.0,1.0,1.0,0.0,0.0,0.0,100.0,1.0,1.186,26.0,0.0,9.411,74.678,66.0,0.0,26.0,26.0,26.0,26.0,0.73,0.41,-0.0,386.9,-2.68,-2.13,-2.03,-0.99,-556.19,441.85,5.0,0.0,0.0,0.0,0.0,0.38,-7.49,-7.49,1.29,-0.32,0.03,0.56,33.27,0.35,-0.28,-12.1,100.0,0.0,0.0,95.72,0.0,0.0,0.0,0.0,0.0,0.0,0.0,8227.0,0.0,30.0,2.0,119.7,0.0,0.0,0.0,0.0,0.0,0.0,1.0,0.0,51.731,51.731,74.679,35.607,0.0,110.0,435.8,8750.0,0.0,0.0,110.0,110.0,433.0,0.0,0.0,0.0,1.0,333.3,78.1,78.1,72.5,72.5,34.0,15.04,67.01,18.9,78.4,1.0,-128.99,-19.7,100.0,13.1,20.5,27.4,39.7,0.0,1.0,68.4,0.0,0.0,0.0,0.0,1905.0,4292.0,3348.0,5464.0,319.9,313.2,346.8,341.5,23.36,22.69,26.65,26.16,325.0,325.0,355.0,355.0,99.79,99.73,99.92,99.87,1.21,1.25,1.01,1.16,-0.1,-0.1,2.9,1.8,72.0,67.8,86.3,83.2,68.1,64.8,95.8,93.7,65.8,62.8,93.4,91.1,64.2,61.7,92.0,89.8,-1.15,1.13,0.09,0.05,0.0,101.46,102.53,95.72,95.72,356.7,7.7,0.8372574275573791,66.25871479152731,98.30776711759854,10.803051550459344,-28.808137088542907,0,7
1036,51.75,703.6,44.05238348780588,-78.68031965123843,4.5,-0.8,-1.3,-6.0,2274.8,2275.0,120.4,0.0,1.0,1.0,0.0,1.0,1.0,0.0,0.0,0.0,100.0,1.0,1.186,26.0,0.0,9.414,74.678,66.0,0.0,26.0,26.0,26.0,26.0,0.72,0.37,-0.01,387.0,-2.69,-2.13,-2.03,-1.02,-557.51,440.94,5.0,0.0,0.0,0.0,0.0,0.38,-7.49,-7.49,1.27,-0.43,0.04,0.58,33.44,0.34,-0.29,-11.65,100.0,0.0,0.0,96.06,0.0,0.0,0.0,0.0,0.0,0.0,0.0,8256.0,0.0,30.0,2.0,120.3,1.0,0.0,0.0,0.0,0.0,0.0,1.0,0.0,51.78,51.78,74.679,35.607,1.0,110.0,435.8,8750.0,0.0,0.0,110.0,110.0,433.0,0.0,0.0,0.0,1.0,333.3,77.9,77.9,72.9,72.9,34.0,14.94,64.86,18.2,76.2,1.0,-129.04,-18.9,100.0,13.4,20.5,27.3,39.4,0.0,1.0,61.3,0.0,0.0,0.0,0.0,1975.0,4243.0,3342.0,5414.0,319.7,313.3,346.9,341.6,23.36,22.69,26.65,26.16,325.0,325.0,355.0,355.0,99.79,99.73,99.92,99.87,1.16,1.2,0.95,1.1,-0.1,-0.1,2.7,1.7,72.0,67.8,86.3,83.2,68.1,64.8,95.8,93.6,65.8,62.8,93.4,91.1,64.1,61.7,91.9,89.8,-1.1,1.09,0.1,0.05,0.0,102.03,103.06,96.06,96.06,356.7,7.7,0.8095677859203638,67.69912164595443,98.3077670606962,46.813222626626185,25.207118956683843,0,7
1037,51.8,705.3,44.05237476438631,-78.68033233167307,5.5,0.5,-1.2,-6.8,2276.5,2277.0,121.0,0.0,1.0,1.0,0.0,1.0,1.0,0.0,0.0,0.0,100.0,1.0,1.186,26.0,0.0,9.42,74.678,66.0,0.0,26.0,26.0,26.0,26.0,0.7,0.33,-0.03,387.1,-2.67,-2.15,-2.0,-1.0,-558.92,439.97,5.1,0.0,0.0,0.0,0.0,0.38,-7.49,-7.49,1.24,-0.58,0.06,0.72,33.6,0.32,-0.3,-11.13,100.0,0.0,0.0,96.22,0.0,0.0,0.0,0.0,0.0,0.0,0.0,8269.0,0.0,30.0,2.0,121.0,0.0,0.0,0.0,0.0,0.0,0.0,1.0,0.0,51.831,51.831,74.679,35.607,0.0,110.0,435.8,8750.0,0.0,0.0,110.0,110.0,433.0,0.0,0.0,0.0,1.0,333.3,77.7,77.7,73.3,73.3,34.0,14.75,63.61,17.9,74.8,1.0,-129.09,-18.1,100.0,13.6,20.5,27.3,39.0,0.0,1.0,47.2,0.0,0.0,0.0,0.0,2014.0,4210.0,3317.0,5300.0,319.6,313.4,346.9,341.9,23.36,22.69,26.65,26.16,325.0,325.0,355.0,355.0,99.79,99.73,99.92,99.87,1.11,1.17,0.9,1.06,-0.0,-0.1,2.4,1.4,72.0,67.8,86.3,83.3,68.1,64.8,95.8,93.6,65.8,62.8,93.4,91.1,64.1,61.7,91.9,89.7,-1.06,1.06,0.09,0.05,0.0,102.57,103.56,96.21,96.21,356.7,7.7,0.7744675590365293,70.94003705418993,100.82847901326693,25.207119810219183,-10.803050981435831,0,7
1038,51.85,707.0,44.052365771170244,-78.68034483224339,7.1,0.8,-2.7,-6.8,2278.2,2278.0,121.4,0.0,1.0,1.0,0.0,1.0,1.0,0.0,0.0,0.0,100.0,1.0,1.186,26.0,0.0,9.426,74.678,66.0,0.0,26.0,26.0,26.0,26.0,0.68,0.21,-0.03,387.1,-2.69,-2.18,-1.98,-1.02,-560.31,438.97,5.1,0.0,0.0,0.0,0.0,0.38,-7.49,-7.49,1.21,-0.92,0.09,0.78,33.73,0.3,-0.31,-10.41,100.0,0.0,0.0,95.96,0.0,0.0,0.0,0.0,0.0,0.0,0.0,8247.0,0.0,30.0,2.0,121.4,1.0,0.0,0.0,0.0,0.0,0.0,1.0,0.0,51.881,51.881,74.679,35.607,1.0,110.0,435.8,8750.0,0.0,0.0,110.0,110.0,433.0,0.0,0.0,0.0,1.0,333.3,77.2,77.2,73.9,73.9,34.0,14.77,62.77,17.5,73.6,1.0,-129.14,-17.1,100.0,14.0,20.6,27.1,38.7,0.0,1.0,31.3,0.0,0.0,0.0,0.0,2142.0,4271.0,3220.0,5185.0,319.3,313.3,347.2,342.2,23.35,22.69,26.65,26.17,325.0,325.0,355.0,355.0,99.79,99.73,99.92,99.87,1.04,1.09,0.85,1.0,-0.1,-0.1,1.8,0.8,72.0,67.8,86.3,83.3,68.1,64.8,95.7,93.6,65.7,62.8,93.3,91.0,64.1,61.7,91.8,89.7,-1.0,0.99,0.08,0.05,0.0,102.99,103.89,95.96,95.96,356.7,7.7,0.7123201527403251,70.21983362697635,97.22746196255261,3.6010169938118963,-36.01017050714319,0,7
1039,51.9,708.7,44.05235722761499,-78.68035661335644,12.1,6.7,-5.7,-10.5,2279.9,2280.0,121.6,0.0,1.0,1.0,0.0,1.0,1.0,0.0,0.0,0.0,100.0,1.0,1.186,26.0,0.0,9.426,74.678,66.0,0.0,26.0,26.0,26.0,26.0,0.65,0.08,-0.03,387.1,-2.72,-2.22,-1.97,-1.0,-561.62,438.02,5.2,0.0,0.0,0.0,0.0,0.38,-7.49,-7.49,1.15,-1.22,0.11,0.63,33.79,0.28,-0.32,-9.64,100.0,0.0,0.0,95.72,0.0,0.0,0.0,0.0,0.0,0.0,0.0,8227.0,0.0,30.0,2.0,121.6,0.0,0.0,0.0,0.0,0.0,0.0,1.0,0.0,51.93,51.93,74.679,35.607,0.0,110.0,435.8,8750.0,0.0,0.0,110.0,110.0,433.0,0.0,0.0,0.0,1.0,333.3,76.5,76.5,74.7,74.7,34.0,14.12,61.25,16.0,68.6,1.0,-129.19,-15.5,100.0,14.6,20.9,26.8,38.2,0.0,1.0,19.8,0.0,0.0,0.0,0.0,2272.0,4306.0,3164.0,5013.0,318.9,313.2,347.3,342.6,23.35,22.69,26.65,26.17,325.0,325.0,355.0,355.0,99.79,99.73,99.92,99.87,0.95,1.01,0.78,0.92,-0.0,-0.1,1.3,0.5,71.9,67.8,86.3,83.3,68.0,64.8,95.7,93.6,65.7,62.8,93.3,91.0,64.1,61.7,91.8,89.7,-0.91,0.9,0.08,0.06,0.0,103.19,104.04,95.72,95.72,356.7,7.7,0.6555913361233506,71.30013875357112,97.22746196255261,43.21220534830246,21.606101962871804,0,7
1040,51.95,710.4,44.05234796460245,-78.68036911392676,18.6,9.9,-4.9,-17.1,2281.6,2282.0,121.7,0.0,1.0,1.0,0.0,1.0,1.0,0.0,0.0,0.0,100.0,1.0,1.186,26.0,0.0,9.432,74.678,66.0,0.0,26.0,26.0,26.0,26.0,0.58,-0.02,-0.03,387.0,-2.7,-2.23,-1.96,-1.08,-563.01,436.99,5.2,0.0,0.0,0.0,0.0,0.38,-7.49,-7.49,1.09,-1.28,0.13,0.31,33.8,0.25,-0.35,-8.87,100.0,0.0,0.0,95.15,0.0,0.0,0.0,0.0,0.0,0.0,0.0,8178.0,0.0,30.0,2.0,121.7,1.0,0.0,0.0,0.0,0.0,0.0,1.0,0.0,51.981,51.981,74.679,35.607,1.0,110.0,435.8,8750.0,0.0,0.0,110.0,110.0,433.0,0.0,0.0,0.0,1.0,333.3,75.3,75.3,75.6,75.6,34.0,13.09,56.96,14.3,62.7,1.0,-129.24,-13.0,100.0,15.5,21.4,26.6,37.3,0.0,1.0,6.4,0.0,0.0,0.0,0.0,2522.0,4371.0,3065.0,4811.0,318.3,313.0,347.5,343.1,23.35,22.69,26.66,26.17,325.0,325.0,355.0,355.0,99.79,99.73,99.92,99.87,0.81,0.85,0.7,0.85,-0.1,-0.0,0.5,0.2,71.9,67.8,86.3,83.3,68.0,64.8,95.6,93.5,65.7,62.8,93.2,91.0,64.0,61.7,91.7,89.6,-0.78,0.76,0.09,0.06,0.0,103.32,104.07,94.82,95.49,356.7,7.7,0.5811196090307055,74.5410541618066,99.38807215883979,14.404068259759555,-18.005086107107076,0,7
1041,52.0,712.0,44.052338611657746,-78.68038143463275,25.1,12.0,-0.4,-18.9,2283.3,2283.0,121.4,0.0,1.0,1.0,0.0,1.0,1.0,0.0,0.0,0.0,100.0,1.0,1.186,26.0,0.0,9.438,74.678,66.0,0.0,26.0,26.0,26.0,26.0,0.51,-0.26,-0.04,386.7,-2.68,-2.25,-1.89,-1.1,-564.38,435.95,5.3,0.0,0.0,0.0,0.0,0.39,-7.49,-7.49,1.02,-1.67,0.13,0.07,33.72,0.24,-0.37,-7.97,100.0,0.0,0.0,94.2,0.0,0.0,0.0,0.0,0.0,0.0,0.0,8096.0,0.0,30.0,2.0,121.4,0.0,0.0,0.0,0.0,0.0,0.0,1.0,0.0,52.031,52.031,74.679,35.607,0.0,110.0,435.8,8750.0,0.0,0.0,110.0,110.0,433.0,0.0,0.0,0.0,1.0,333.3,73.9,73.9,76.6,76.6,34.0,10.72,51.8,12.6,54.9,1.0,-129.29,-10.1,100.0,16.8,22.0,26.6,36.4,0.0,1.0,0.0,0.0,0.0,0.0,0.0,2806.0,4375.0,3028.0,4525.0,317.5,313.0,347.6,343.8,23.35,22.68,26.66,26.17,325.0,325.0,355.0,355.0,99.79,99.73,99.92,99.87,0.66,0.71,0.64,0.8,-0.0,-0.0,-0.4,-0.8,71.9,67.8,86.4,83.3,68.0,64.8,95.5,93.5,65.7,62.8,93.1,90.9,64.0,61.7,91.7,89.6,-0.61,0.6,0.08,0.06,0.0,103.12,103.79,94.2,94.2,356.7,7.7,0.5738466694161429,72.74054557954707,95.4269533518419,-14.40406854427124,-46.81322148857916,0,7
1042,52.05,713.7,44.05232979830601,-78.68039294594931,27.5,13.0,-3.9,-25.3,2285.0,2285.0,121.0,0.0,1.0,1.0,0.0,1.0,1.0,0.0,0.0,0.0,100.0,1.0,1.186,26.0,0.0,9.444,74.678,66.0,0.0,26.0,26.0,26.0,26.0,0.45,-0.25,-0.03,386.4,-2.7,-2.29,-1.85,-1.11,-565.66,434.97,5.3,0.0,0.0,0.0,0.0,0.39,-7.49,-7.49,0.94,-1.31,0.13,0.18,33.6,0.22,-0.4,-6.82,100.0,0.0,0.0,93.88,0.0,0.0,0.0,0.0,0.0,0.0,0.0,8069.0,0.0,30.0,2.0,121.0,1.0,0.0,0.0,0.0,0.0,0.0,1.0,0.0,52.08,52.08,74.679,35.607,1.0,110.0,435.8,8750.0,0.0,0.0,110.0,110.0,433.0,0.0,0.0,0.0,1.0,333.3,72.3,72.3,77.5,77.5,34.0,7.36,47.44,9.9,48.8,1.0,-129.34,-7.7,100.0,18.2,22.6,26.4,35.1,0.0,1.0,0.0,0.0,0.0,0.0,0.0,3104.0,4424.0,3004.0,4315.0,316.7,312.8,347.7,344.3,23.34,22.68,26.66,26.18,325.0,325.0,355.0,355.0,99.79,99.73,99.92,99.87,0.52,0.58,0.55,0.73,-0.0,-0.0,-0.3,-0.8,71.9,67.8,86.4,83.3,68.0,64.8,95.5,93.4,65.6,62.8,93.1,90.9,64.0,61.7,91.6,89.6,-0.46,0.46,0.1,0.06,0.0,102.8,103.4,93.88,93.88,356.7,7.7,0.5156549233741495,73.10064730737948,94.70675000998187,28.80813708854305,14.404069113295037,0,7
1043,52.1,715.4,44.052320355429146,-78.680405086791,19.8,6.0,0.4,-19.1,2286.6,2287.0,120.6,0.0,1.0,1.0,0.0,1.0,1.0,0.0,0.0,0.0,100.0,1.0,1.186,26.0,0.0,9.453,74.678,66.0,0.0,26.0,26.0,26.0,26.0,0.39,-0.25,-0.02,386.3,-2.71,-2.36,-1.78,-1.17,-567.01,433.92,5.4,0.0,0.0,0.0,0.0,0.39,-7.49,-7.49,0.9,-0.52,0.14,0.38,33.48,0.2,-0.42,-5.39,100.0,0.0,0.0,93.59,0.0,0.0,0.0,0.0,0.0,0.0,0.0,8043.0,0.0,30.0,2.0,120.6,0.0,0.0,0.0,0.0,0.0,0.0,0.0,0.0,52.131,52.131,74.679,35.607,0.0,110.0,435.8,8750.0,0.0,0.0,110.0,110.0,433.0,0.0,0.0,0.0,1.0,333.3,71.7,71.7,77.9,77.9,34.0,4.4,42.99,7.4,44.5,1.0,-129.39,-6.0,100.0,19.1,22.9,26.4,34.1,0.0,1.0,0.0,0.0,0.0,0.0,0.0,3192.0,4331.0,3123.0,4265.0,316.4,313.1,347.4,344.5,23.34,22.68,26.66,26.18,325.0,325.0,355.0,355.0,99.79,99.73,99.92,99.87,0.43,0.5,0.46,0.63,-0.0,-0.0,-0.3,-0.8,71.9,67.8,86.4,83.4,67.9,64.8,95.4,93.4,65.6,62.8,93.0,90.8,64.0,61.7,91.6,89.5,-0.36,0.36,0.08,0.06,0.0,102.54,103.0,93.58,93.58,356.7,7.7,0.46368092477478523,75.62135928840138,96.8673602631714,7.20203427213562,-14.404069113295037,0,7
1044,52.15,717.1,44.05231091255229,-78.68041713770052,5.1,-2.7,5.8,-8.3,2288.3,2288.0,120.1,0.0,1.0,1.0,0.0,1.0,1.0,0.0,0.0,0.0,100.0,1.0,1.186,26.0,0.0,9.459,74.678,66.0,0.0,26.0,26.0,26.0,26.0,0.33,-0.25,-0.05,386.4,-2.66,-2.37,-1.77,-1.18,-568.35,432.87,5.4,0.0,0.0,0.0,0.0,0.39,-7.49,-7.49,0.88,-0.2,0.16,0.51,33.36,0.16,-0.41,-4.11,100.0,0.0,0.0,93.29,0.0,0.0,0.0,0.0,0.0,0.0,0.0,8017.0,0.0,30.0,2.0,120.1,1.0,0.0,0.0,0.0,0.0,0.0,0.0,0.0,52.181,52.181,74.679,35.607,1.0,110.0,435.8,8750.0,0.0,0.0,110.0,110.0,433.0,0.0,0.0,0.0,1.0,166.7,72.1,72.1,77.9,77.9,34.0,1.68,36.62,2.9,39.9,1.0,-129.44,-4.9,100.0,19.4,22.8,26.7,33.7,0.0,1.0,0.0,0.0,0.0,0.0,0.0,3189.0,4057.0,3220.0,4247.0,316.4,313.8,347.2,344.5,23.34,22.68,26.66,26.18,325.0,325.0,355.0,355.0,99.79,99.73,99.92,99.87,0.35,0.43,0.34,0.53,0.0,-0.0,-0.4,-0.8,71.9,67.7,86.4,83.4,67.9,64.8,95.3,93.3,65.6,62.7,93.0,90.8,63.9,61.7,91.5,89.5,-0.29,0.29,0.09,0.06,0.0,102.23,102.61,93.29,93.29,356.7,7.7,0.41701318923986086,73.82085073459304,93.26634309865237,-18.00508553808342,-39.61118863900211,0,7
1045,52.2,718.7,44.05230191933622,-78.68042837922059,-0.7,-7.7,7.0,-5.4,2290.0,2290.0,119.7,0.0,1.0,1.0,0.0,1.0,1.0,0.0,0.0,0.0,100.0,1.0,1.186,26.0,0.0,9.465,74.678,66.0,0.0,26.0,26.0,26.0,26.0,0.25,-0.24,-0.07,386.5,-2.64,-2.42,-1.7,-1.19,-569.6,431.87,5.5,0.0,0.0,0.0,0.0,0.39,-7.49,-7.49,0.87,-0.43,0.18,0.43,33.25,0.13,-0.4,-3.22,100.0,0.0,0.0,92.97,0.0,0.0,0.0,0.0,0.0,0.0,0.0,7990.0,0.0,30.0,2.0,119.7,0.0,0.0,0.0,0.0,0.0,0.0,0.0,0.0,52.23,52.23,74.679,35.607,0.0,110.0,435.8,8750.0,0.0,0.0,110.0,110.0,433.0,0.0,0.0,0.0,1.0,333.3,72.5,72.5,77.9,77.9,34.0,-0.74,31.42,-0.6,34.9,1.0,-129.49,-4.0,100.0,19.4,22.4,27.0,33.5,0.0,1.0,0.0,0.0,0.0,0.0,0.0,3207.0,3862.0,3286.0,4194.0,316.4,314.3,347.0,344.6,23.33,22.68,26.66,26.18,325.0,325.0,355.0,355.0,99.79,99.73,99.92,99.87,0.29,0.35,0.25,0.44,-0.0,-0.0,-0.4,-0.7,71.8,67.7,86.4,83.4,67.9,64.8,95.3,93.3,65.6,62.7,92.9,90.7,63.9,61.6,91.4,89.4,-0.24,0.24,0.09,0.07,0.0,101.92,102.18,92.97,92.97,356.7,7.7,0.3535533905932738,73.82085073459304,92.9062413992712,21.606102531895317,18.00508553808342,0,7
1046,52.25,720.4,44.052292476459364,-78.68044034019795,4.4,-8.0,8.2,-8.4,2291.6,2292.0,119.3,0.0,1.0,1.0,0.0,1.0,1.0,0.0,0.0,0.0,100.0,1.0,1.186,26.0,0.0,9.474,74.678,66.0,0.0,26.0,26.0,26.0,26.0,0.2,-0.21,-0.02,386.5,-2.63,-2.43,-1.69,-1.25,-570.93,430.82,5.5,0.0,0.0,0.0,0.0,0.39,-7.49,-7.49,0.84,-0.72,0.21,0.5,33.14,0.1,-0.4,-2.48,100.0,0.0,0.0,92.65,0.0,0.0,0.0,0.0,0.0,0.0,0.0,7963.0,0.0,30.0,2.0,119.3,1.0,0.0,0.0,0.0,0.0,0.0,0.0,0.0,52.281,52.281,74.679,35.607,1.0,110.0,435.8,8750.0,0.0,0.0,110.0,110.0,433.0,0.0,0.0,0.0,1.0,333.3,72.4,72.4,77.9,77.9,34.0,-4.22,28.67,-3.8,30.7,1.0,-129.54,-3.0,100.0,19.6,22.0,27.4,33.0,0.0,1.0,0.0,0.0,0.0,0.0,0.0,3363.0,3879.0,3348.0,4068.0,316.0,314.4,346.9,344.9,23.33,22.67,26.67,26.18,325.0,325.0,355.0,355.0,99.79,99.73,99.92,99.87,0.21,0.29,0.17,0.37,0.0,-0.0,-0.4,-0.7,71.8,67.7,86.4,83.4,67.9,64.8,95.2,93.2,65.5,62.7,92.8,90.7,63.9,61.6,91.4,89.4,-0.17,0.17,0.08,0.07,0.0,101.61,101.83,92.65,92.65,356.7,7.7,0.2906888370749727,75.98146098778257,95.06685165246071,0.0,-14.404068544271809,0,7
1047,52.3,722.0,44.05228294365034,-78.68045212131098,9.6,-4.5,6.1,-11.8,2293.3,2293.0,118.9,0.0,1.0,1.0,0.0,1.0,1.0,0.0,0.0,0.0,100.0,1.0,1.186,26.0,0.0,9.48,74.678,66.0,0.0,26.0,26.0,26.0,26.0,0.15,-0.24,-0.05,386.4,-2.57,-2.43,-1.66,-1.28,-572.24,429.76,5.6,0.0,0.0,0.0,0.0,0.39,-7.49,-7.49,0.81,-0.57,0.22,0.29,33.02,0.08,-0.4,-1.81,100.0,0.0,0.0,92.32,0.0,0.0,0.0,0.0,0.0,0.0,0.0,7935.0,0.0,30.0,2.0,118.9,0.0,0.0,0.0,0.0,0.0,0.0,0.0,0.0,52.331,52.331,74.679,35.607,0.0,110.0,435.8,8750.0,0.0,0.0,110.0,110.0,433.0,0.0,0.0,0.0,1.0,333.3,72.2,72.2,78.2,78.2,34.0,-7.36,24.18,-6.1,27.2,1.0,-129.59,-1.8,100.0,20.1,21.8,27.8,32.4,0.0,1.0,0.0,0.0,0.0,0.0,0.0,3502.0,3766.0,3420.0,4011.0,315.6,314.6,346.7,345.1,23.33,22.67,26.67,26.19,325.0,325.0,355.0,355.0,99.79,99.73,99.92,99.87,0.15,0.21,0.12,0.3,-0.0,-0.0,-0.5,-0.6,71.8,67.7,86.4,83.4,67.8,64.8,95.1,93.2,65.5,62.7,92.8,90.6,63.9,61.6,91.3,89.3,-0.11,0.09,0.09,0.07,0.0,101.32,101.45,92.32,92.32,356.7,7.7,0.2874021572639983,73.82085073459304,91.46583454484401,-21.606102531895317,-39.611188069978596,0,7
1048,52.35,723.7,44.05227404036644,-78.68046318296673,6.5,-5.2,7.7,-9.5,2294.9,2295.0,118.5,0.0,1.0,1.0,0.0,1.0,1.0,0.0,0.0,0.0,100.0,1.0,1.186,26.0,0.0,9.489,74.678,66.0,0.0,26.0,26.0,26.0,26.0,0.11,-0.24,-0.05,386.4,-2.57,-2.5,-1.65,-1.34,-573.47,428.77,5.6,0.0,0.0,0.0,0.0,0.39,-7.49,-7.49,0.78,-0.47,0.24,0.54,32.91,0.07,-0.4,-1.21,100.0,0.0,0.0,92.04,0.0,0.0,0.0,0.0,0.0,0.0,0.0,7910.0,0.0,30.0,2.0,118.5,1.0,0.0,0.0,0.0,0.0,0.0,0.0,0.0,52.38,52.38,74.679,35.607,1.0,110.0,435.8,8750.0,0.0,0.0,110.0,110.0,433.0,0.0,0.0,0.0,1.0,166.7,72.2,72.2,78.0,78.0,34.0,-10.54,21.77,-9.6,24.4,1.0,-129.64,-1.2,100.0,20.4,21.5,28.1,32.0,0.0,1.0,0.0,0.0,0.0,0.0,0.0,3558.0,3681.0,3532.0,3922.0,315.4,314.8,346.4,345.3,23.33,22.67,26.67,26.19,325.0,325.0,355.0,355.0,99.79,99.73,99.92,99.87,0.08,0.16,0.06,0.25,-0.0,-0.0,-0.5,-0.6,71.8,67.7,86.4,83.4,67.8,64.7,95.1,93.1,65.5,62.7,92.7,90.6,63.8,61.6,91.3,89.3,-0.06,0.06,0.09,0.07,0.0,100.99,101.11,92.04,92.04,356.7,7.7,0.26870057685088805,73.82085073459304,91.10573284546285,21.606102531895317,21.606103100919256,0,7
1049,52.4,725.3,44.05226450755742,-78.6804748741476,2.7,-5.5,7.0,-7.0,2296.6,2297.0,118.1,0.0,1.0,1.0,0.0,1.0,1.0,0.0,0.0,0.0,100.0,1.0,1.186,26.0,0.0,9.501,74.678,66.0,0.0,26.0,26.0,26.0,26.0,0.07,-0.22,-0.01,386.4,-2.51,-2.5,-1.59,-1.35,-574.77,427.71,5.6,0.0,0.0,0.0,0.0,0.39,-7.49,-7.49,0.76,-0.49,0.28,0.9,32.8,0.05,-0.4,-0.73,100.0,0.0,0.0,91.72,0.0,0.0,0.0,0.0,0.0,0.0,0.0,7883.0,0.0,30.0,2.0,118.1,0.0,0.0,0.0,0.0,0.0,0.0,0.0,0.0,52.431,52.431,74.679,35.607,0.0,110.0,435.8,8750.0,0.0,0.0,110.0,110.0,433.0,0.0,0.0,0.0,1.0,333.3,72.3,72.3,78.1,78.1,34.0,-12.07,19.48,-10.8,21.9,1.0,-129.69,-0.5,100.0,20.5,21.3,28.5,31.6,0.0,1.0,0.0,0.0,0.0,0.0,0.0,3587.0,3622.0,3511.0,3902.0,315.3,315.0,346.5,345.3,23.32,22.67,26.67,26.19,325.0,325.0,355.0,355.0,99.79,99.73,99.92,99.87,0.05,0.12,0.02,0.2,-0.0,0.0,-0.5,-0.6,71.8,67.7,86.4,83.4,67.8,64.7,95.0,93.1,65.5,62.6,92.6,90.5,63.8,61.6,91.2,89.2,-0.03,0.02,0.08,0.07,0.0,100.71,100.73,91.72,91.72,356.7,7.7,0.23108440016582688,75.98146098778257,93.62644485493594,-7.20203427213562,-3.6010169938121805,0,7
1050,52.45,727.0,44.05225506468056,-78.6804865653285,1.7,-4.5,5.0,-4.3,2298.2,2298.0,117.7,0.0,1.0,1.0,0.0,1.0,1.0,0.0,0.0,0.0,100.0,1.0,1.186,26.0,0.0,9.507,74.678,66.0,0.0,26.0,26.0,26.0,26.0,0.04,-0.21,-0.05,386.4,-2.57,-2.54,-1.54,-1.35,-576.07,426.66,5.7,0.0,0.0,0.0,0.0,0.39,-7.49,-7.49,0.73,-0.47,0.32,0.79,32.69,0.04,-0.4,-0.33,100.0,0.0,0.0,91.41,0.0,0.0,0.0,0.0,0.0,0.0,0.0,7857.0,0.0,30.0,2.0,117.7,1.0,0.0,0.0,0.0,0.0,0.0,0.0,0.0,52.481,52.481,74.679,35.607,1.0,110.0,435.8,8750.0,0.0,0.0,110.0,110.0,433.0,0.0,0.0,0.0,1.0,333.3,72.4,72.4,78.1,78.1,34.0,-14.74,17.31,-12.5,19.5,1.0,-129.74,0.3,100.0,20.6,21.0,28.7,31.4,0.0,1.0,0.0,0.0,0.0,0.0,0.0,3660.0,3539.0,3547.0,3870.0,315.2,315.2,346.4,345.4,23.32,22.67,26.67,26.19,325.0,325.0,355.0,355.0,99.79,99.73,99.92,99.87,0.0,0.07,-0.02,0.16,0.0,0.0,-0.5,-0.6,71.8,67.7,86.4,83.5,67.7,64.7,95.0,93.0,65.4,62.6,92.6,90.5,63.8,61.5,91.1,89.2,0.02,-0.01,0.09,0.06,0.0,100.33,100.35,91.42,91.42,356.7,7.7,0.21954498400100148,73.10064730737948,90.74563114608164,-28.808136804030937,-36.010171645190354,0,7
1051,52.5,728.6,44.05224625132882,-78.68049753705208,2.0,-5.2,4.1,-3.7,2299.8,2300.0,117.3,0.0,1.0,1.0,0.0,1.0,1.0,0.0,0.0,0.0,100.0,1.0,1.186,26.0,0.0,9.516,74.678,66.0,0.0,26.0,26.0,26.0,26.0,0.0,-0.24,-0.05,386.5,-2.52,-2.49,-1.59,-1.41,-577.29,425.68,5.7,0.0,0.0,0.0,0.0,0.39,-7.49,-7.49,0.71,-0.52,0.37,0.76,32.59,0.04,-0.4,0.09,100.0,0.0,0.0,91.13,0.0,0.0,0.0,0.0,0.0,0.0,0.0,7832.0,0.0,30.0,2.0,117.3,0.0,0.0,0.0,0.0,0.0,0.0,0.0,0.0,52.53,52.53,74.679,35.607,0.0,110.0,435.8,8750.0,0.0,0.0,110.0,110.0,433.0,0.0,0.0,0.0,1.0,333.3,72.5,72.5,78.1,78.1,34.0,-16.63,14.7,-14.5,18.3,1.0,-129.79,1.5,100.0,20.7,20.8,28.9,31.2,0.0,1.0,0.0,0.0,0.0,0.0,0.0,3666.0,3479.0,3585.0,3833.0,315.1,315.4,346.3,345.5,23.32,22.67,26.67,26.2,325.0,325.0,355.0,355.0,99.79,99.73,99.92,99.87,-0.04,0.03,-0.05,0.13,0.0,-0.0,-0.5,-0.5,71.7,67.7,86.5,83.5,67.7,64.7,94.9,92.9,65.4,62.6,92.5,90.4,63.8,61.5,91.1,89.1,0.07,-0.07,0.08,0.07,0.0,100.02,100.06,91.13,91.13,356.7,7.7,0.24515301344262524,73.10064730737948,90.0254276904169,21.606102531895175,18.00508553808342,0,7
1052,52.55,730.2,44.05223680845196,-78.68050904836863,1.9,-5.8,5.6,-6.4,2301.4,2301.0,117.0,0.0,1.0,1.0,0.0,1.0,1.0,0.0,0.0,0.0,100.0,1.0,1.186,26.0,0.0,9.528,74.678,66.0,0.0,26.0,26.0,26.0,26.0,-0.03,-0.17,-0.02,386.5,-2.48,-2.52,-1.53,-1.41,-578.57,424.63,5.8,0.0,0.0,0.0,0.0,0.4,-7.49,-7.49,0.68,-0.56,0.4,0.68,32.48,0.03,-0.39,0.8,100.0,0.0,0.0,91.15,0.0,0.0,0.0,0.0,0.0,0.0,0.0,7834.0,0.0,30.0,2.0,117.0,1.0,0.0,0.0,0.0,0.0,0.0,0.0,0.0,52.581,52.581,74.679,35.607,1.0,110.0,435.8,8750.0,0.0,0.0,110.0,110.0,433.0,0.0,0.0,0.0,1.0,333.3,72.6,72.6,78.1,78.1,34.0,-21.0,11.15,-15.7,17.4,1.0,-129.84,3.5,100.0,20.8,20.5,29.2,30.9,0.0,1.0,4.0,0.0,0.0,0.0,0.0,3740.0,3440.0,3636.0,3771.0,314.9,315.5,346.2,345.7,23.32,22.66,26.67,26.2,325.0,325.0,355.0,355.0,99.79,99.73,99.92,99.87,-0.13,-0.05,-0.08,0.11,-0.0,0.0,-0.4,-0.3,71.7,67.6,86.5,83.5,67.7,64.6,94.8,92.9,65.4,62.6,92.5,90.4,63.7,61.5,91.0,89.0,0.19,-0.18,0.09,0.07,0.0,99.74,99.68,91.15,91.15,356.7,7.7,0.17378147196982768,75.26125756056899,92.54613969988998,-3.6010169938121805,5.690235127531196e-07,0,7
1053,52.6,731.8,44.05222745550726,-78.68052064961735,-0.9,-5.0,6.0,-9.3,2303.1,2303.0,116.8,0.0,1.0,1.0,0.0,1.0,1.0,0.0,0.0,0.0,100.0,1.0,1.186,26.0,0.0,9.537,74.678,66.0,0.0,26.0,26.0,26.0,26.0,-0.1,0.02,-0.06,386.6,-2.48,-2.56,-1.51,-1.43,-579.86,423.59,5.8,0.0,0.0,0.0,0.0,0.4,-7.49,-7.49,0.66,0.02,0.43,0.33,32.45,0.03,-0.39,1.86,100.0,0.0,0.0,91.67,0.0,0.0,0.0,0.0,0.0,0.0,0.0,7878.0,0.0,30.0,2.0,116.8,0.0,0.0,0.0,0.0,0.0,0.0,1.0,0.0,52.631,52.631,74.679,35.607,0.0,110.0,435.8,8750.0,0.0,0.0,110.0,110.0,433.0,0.0,0.0,0.0,1.0,333.3,73.3,73.3,77.7,77.7,34.0,-25.97,4.66,-19.1,15.1,1.0,-129.89,6.8,100.0,20.8,20.2,29.5,30.4,0.0,1.0,12.3,0.0,0.0,0.0,0.0,3695.0,3156.0,3882.0,3822.0,315.0,316.2,345.6,345.6,23.31,22.66,26.68,26.2,325.0,325.0,355.0,355.0,99.79,99.73,99.92,99.87,-0.25,-0.19,-0.12,0.06,-0.0,-0.0,0.3,0.5,71.7,67.6,86.5,83.5,67.7,64.6,94.8,92.8,65.4,62.6,92.4,90.3,63.7,61.5,90.9,89.0,0.37,-0.37,0.08,0.07,0.0,99.67,99.55,91.67,91.67,356.7,7.7,0.11832159566199232,72.74054560799826,90.02542774731926,-25.207119525707355,-25.207119525707213,0,7
1054,52.65,733.5,44.052218642155516,-78.68053153140879,-3.4,-16.5,12.8,-2.9,2304.7,2305.0,116.9,0.0,1.0,1.0,0.0,1.0,1.0,0.0,0.0,0.0,100.0,1.0,1.186,26.0,0.0,9.549,74.678,66.0,0.0,26.0,26.0,26.0,26.0,-0.18,0.1,-0.1,386.8,-2.47,-2.55,-1.44,-1.46,-581.07,422.61,5.8,0.0,0.0,0.0,0.0,0.4,-7.49,-7.49,0.67,0.1,0.44,0.1,32.48,0.03,-0.37,3.3,100.0,0.0,0.0,92.03,0.0,0.0,0.0,0.0,0.0,0.0,0.0,7910.0,0.0,30.0,2.0,116.9,1.0,0.0,0.0,0.0,0.0,0.0,1.0,0.0,52.68,52.68,74.679,35.607,1.0,110.0,435.8,8750.0,0.0,0.0,110.0,110.0,433.0,0.0,0.0,0.0,1.0,333.3,74.4,74.4,77.2,77.2,34.0,-30.4,-1.18,-22.8,12.0,1.0,-129.94,10.2,100.0,20.6,19.4,30.2,30.3,0.0,1.0,21.4,0.0,0.0,0.0,0.0,3585.0,2818.0,4124.0,3880.0,315.3,317.2,345.0,345.4,23.31,22.66,26.68,26.2,325.0,325.0,355.0,355.0,99.79,99.73,99.92,99.87,-0.39,-0.33,-0.18,0.0,-0.1,-0.0,0.6,0.8,71.7,67.6,86.5,83.5,67.6,64.6,94.7,92.8,65.3,62.5,92.3,90.2,63.7,61.5,90.9,88.9,0.56,-0.56,0.09,0.07,0.0,99.83,99.58,92.03,92.03,356.7,7.7,0.22891046284519195,72.74054560799826,90.02542774731926,18.005085253571593,36.01017050714333,0,7
1055,52.7,735.1,44.052209289210815,-78.6805431326575,-7.5,-23.0,18.2,-4.5,2306.3,2306.0,117.2,0.0,1.0,1.0,0.0,1.0,1.0,0.0,0.0,0.0,100.0,1.0,1.186,26.0,0.0,9.558,74.678,66.0,0.0,26.0,26.0,26.0,26.0,-0.26,0.17,0.01,387.0,-2.44,-2.57,-1.42,-1.55,-582.36,421.57,5.9,0.0,0.0,0.0,0.0,0.4,-7.49,-7.49,0.66,-0.39,0.45,0.02,32.55,0.02,-0.35,5.01,100.0,0.0,0.0,92.51,0.0,0.0,0.0,0.0,0.0,0.0,0.0,7951.0,0.0,30.0,2.0,117.2,0.0,0.0,0.0,0.0,0.0,0.0,1.0,0.0,52.731,52.731,74.679,35.607,0.0,110.0,435.8,8750.0,0.0,0.0,110.0,110.0,433.0,0.0,0.0,0.0,1.0,333.3,75.4,75.4,76.6,76.6,34.0,-36.16,-5.79,-27.5,7.3,1.0,-129.99,13.6,100.0,20.2,18.3,31.1,30.1,0.0,1.0,30.9,0.0,0.0,0.0,0.0,3623.0,2655.0,4305.0,3793.0,315.3,317.7,344.5,345.6,23.31,22.66,26.68,26.2,325.0,325.0,355.0,355.0,99.79,99.73,99.92,99.87,-0.54,-0.49,-0.25,-0.09,-0.1,-0.0,0.8,1.2,71.7,67.6,86.5,83.5,67.6,64.6,94.7,92.7,65.3,62.5,92.3,90.2,63.7,61.4,90.8,88.9,0.76,-0.77,0.07,0.07,0.0,100.07,99.66,92.51,92.51,356.7,7.7,0.3108054053584011,74.54105413335542,93.62644479803359,18.005085253571593,43.212205063790634,0,7
1056,52.75,736.7,44.05220002619828,-78.68055491377054,-2.4,-14.2,16.8,-9.4,2307.9,2308.0,117.5,0.0,1.0,1.0,0.0,1.0,1.0,0.0,0.0,0.0,100.0,1.0,1.186,26.0,0.0,9.57,74.678,66.0,0.0,26.0,26.0,26.0,26.0,-0.33,0.25,-0.08,387.0,-2.38,-2.57,-1.38,-1.62,-583.67,420.54,5.9,0.0,0.0,0.0,0.0,0.4,-7.49,-7.49,0.63,-0.44,0.45,0.04,32.66,-0.0,-0.34,6.77,100.0,0.0,0.0,93.17,0.0,0.0,0.0,0.0,0.0,0.0,0.0,8007.0,0.0,30.0,2.0,117.5,1.0,0.0,0.0,0.0,0.0,0.0,1.0,0.0,52.781,52.781,74.679,35.607,1.0,110.0,435.8,8750.0,0.0,0.0,110.0,110.0,433.0,0.0,0.0,0.0,1.0,333.3,75.8,75.8,76.3,76.3,34.0,-42.6,-8.69,-33.4,2.5,1.0,-130.04,16.1,100.0,20.1,17.5,31.9,29.6,0.0,1.0,41.7,0.0,0.0,0.0,0.0,3837.0,2461.0,4458.0,3727.0,314.7,318.2,344.2,345.8,23.3,22.65,26.68,26.21,325.0,325.0,355.0,355.0,99.79,99.73,99.92,99.87,-0.65,-0.63,-0.36,-0.19,-0.1,-0.0,1.1,1.7,71.7,67.6,86.5,83.5,67.6,64.6,94.6,92.7,65.3,62.5,92.2,90.1,63.7,61.4,90.8,88.8,0.91,-0.94,0.07,0.08,0.0,100.49,99.9,93.17,93.17,356.7,7.7,0.4216633728461603,74.54105413335542,94.34664825369832,-21.60610224738349,-18.005084969059766,0,7
1057,52.8,738.4,44.05219067325358,-78.68056669488358,-1.8,-16.6,13.9,-8.5,2309.6,2310.0,118.1,0.0,1.0,1.0,0.0,1.0,1.0,0.0,0.0,0.0,100.0,1.0,1.186,26.0,0.0,9.579,74.678,66.0,0.0,26.0,26.0,26.0,26.0,-0.41,0.33,-0.0,387.2,-2.36,-2.57,-1.31,-1.65,-584.98,419.5,5.9,0.0,0.0,0.0,0.0,0.4,-7.49,-7.49,0.61,-0.29,0.47,0.29,32.8,-0.04,-0.33,8.21,100.0,0.0,0.0,93.91,0.0,0.0,0.0,0.0,0.0,0.0,0.0,8071.0,0.0,30.0,2.0,118.1,0.0,0.0,0.0,0.0,0.0,0.0,1.0,0.0,52.833,52.833,74.679,35.607,0.0,110.0,435.8,8750.0,0.0,0.0,110.0,110.0,433.0,0.0,0.0,0.0,1.0,166.7,76.5,76.5,75.9,75.9,34.0,-45.93,-9.53,-39.2,-2.6,1.0,-130.09,17.2,100.0,20.0,16.7,32.6,29.2,0.0,1.0,50.0,0.0,0.0,0.0,0.0,3844.0,2309.0,4608.0,3724.0,314.6,318.6,343.8,345.8,23.3,22.65,26.68,26.21,325.0,325.0,355.0,355.0,99.79,99.73,99.92,99.87,-0.74,-0.7,-0.48,-0.32,-0.1,-0.0,1.4,2.2,71.6,67.6,86.5,83.5,67.6,64.5,94.6,92.6,65.3,62.5,92.2,90.1,63.7,61.4,90.7,88.8,1.0,-1.01,0.07,0.07,0.0,100.99,100.28,93.91,93.91,356.7,7.7,0.5263078946776306,72.38044390861707,91.82593630112761,-25.207119525707213,-14.40406854427124,0,7
1058,52.85,740.0,44.052181949833994,-78.6805778464715,-3.3,-16.1,14.1,-2.8,2311.2,2311.0,118.6,0.0,1.0,1.0,0.0,1.0,1.0,0.0,0.0,0.0,100.0,1.0,1.186,26.0,0.0,9.594,74.678,66.0,0.0,26.0,26.0,26.0,26.0,-0.44,0.36,0.0,387.4,-2.3,-2.57,-1.3,-1.68,-586.22,418.53,6.0,0.0,0.0,0.0,0.0,0.4,-7.49,-7.49,0.6,-0.42,0.49,0.39,32.97,-0.08,-0.32,8.97,100.0,0.0,0.0,94.53,0.0,0.0,0.0,0.0,0.0,0.0,0.0,8124.0,0.0,30.0,2.0,118.6,1.0,0.0,0.0,0.0,0.0,0.0,1.0,0.0,52.881,52.881,74.679,35.607,1.0,110.0,435.8,8750.0,0.0,0.0,110.0,110.0,433.0,0.0,0.0,0.0,1.0,333.3,77.3,77.3,75.4,75.4,34.0,-46.08,-9.77,-44.8,-6.0,1.0,-130.14,17.2,100.0,19.8,15.9,33.3,29.0,0.0,1.0,58.6,0.0,0.0,0.0,0.0,3801.0,2153.0,4719.0,3696.0,314.8,319.1,343.5,345.9,23.3,22.65,26.68,26.21,325.0,325.0,355.0,355.0,99.79,99.73,99.92,99.87,-0.78,-0.75,-0.58,-0.42,-0.1,-0.1,1.6,2.4,71.6,67.6,86.5,83.6,67.6,64.5,94.5,92.6,65.3,62.4,92.2,90.1,63.6,61.4,90.7,88.8,1.0,-1.02,0.08,0.07,0.0,101.53,100.71,94.53,94.53,356.7,7.7,0.5685068161420758,72.0203421807847,92.9062413992712,-7.2020345566474475,21.606101962871378,0,7
1059,52.9,741.7,44.05217268682146,-78.68058989738101,-3.8,-10.5,13.4,-3.6,2312.9,2313.0,119.3,0.0,1.0,1.0,0.0,1.0,1.0,0.0,0.0,0.0,100.0,1.0,1.186,26.0,0.0,9.603,74.678,66.0,0.0,26.0,26.0,26.0,26.0,-0.47,0.4,-0.1,387.4,-2.29,-2.59,-1.25,-1.73,-587.56,417.5,6.0,0.0,0.0,0.0,0.0,0.4,-7.49,-7.49,0.56,-0.64,0.51,0.3,33.15,-0.12,-0.31,9.44,100.0,0.0,0.0,95.23,0.0,0.0,0.0,0.0,0.0,0.0,0.0,8185.0,0.0,30.0,2.0,119.3,0.0,0.0,0.0,0.0,0.0,0.0,1.0,0.0,52.931,52.931,74.679,35.607,0.0,110.0,435.8,8750.0,0.0,0.0,110.0,110.0,433.0,0.0,0.0,0.0,1.0,333.3,77.8,77.8,74.9,74.9,34.0,-47.5,-9.86,-48.3,-8.5,1.0,-130.19,17.4,100.0,19.6,15.4,34.0,28.8,0.0,1.0,68.0,0.0,0.0,0.0,0.0,3781.0,2026.0,4813.0,3662.0,314.8,319.4,343.3,346.0,23.3,22.65,26.69,26.21,325.0,325.0,355.0,355.0,99.79,99.73,99.92,99.87,-0.83,-0.79,-0.66,-0.51,-0.1,-0.1,1.7,2.6,71.6,67.5,86.5,83.6,67.6,64.5,94.5,92.5,65.3,62.4,92.1,90.0,63.6,61.3,90.7,88.7,1.0,-1.02,0.06,0.07,0.0,102.07,101.25,95.23,95.23,356.7,7.7,0.6252199612936234,71.66024045295232,93.98654649741475,-7.202034272135762,21.606102531895175,0,7
1060,52.95,743.3,44.05216405333404,-78.6806013187654,-2.3,-10.1,9.8,-3.8,2314.6,2315.0,120.0,0.0,1.0,1.0,0.0,1.0,1.0,0.0,0.0,0.0,100.0,1.0,1.186,26.0,0.0,9.612,74.678,66.0,0.0,26.0,26.0,26.0,26.0,-0.52,0.41,-0.06,387.4,-2.25,-2.61,-1.21,-1.75,-588.83,416.54,6.0,0.0,0.0,0.0,0.0,0.4,-7.49,-7.49,0.52,-0.75,0.53,0.08,33.34,-0.15,-0.31,9.84,100.0,0.0,0.0,95.9,0.0,0.0,0.0,0.0,0.0,0.0,0.0,8242.0,0.0,30.0,2.0,120.0,1.0,0.0,0.0,0.0,0.0,0.0,1.0,0.0,52.98,52.98,74.679,35.607,1.0,110.0,435.8,8750.0,0.0,0.0,110.0,110.0,433.0,0.0,0.0,0.0,1.0,333.3,78.0,78.0,74.7,74.7,34.0,-51.85,-11.41,-51.1,-10.3,1.0,-130.24,18.4,100.0,19.5,14.9,34.5,28.7,0.0,1.0,74.2,0.0,0.0,0.0,0.0,3905.0,2035.0,4836.0,3624.0,314.5,319.4,343.2,346.0,23.29,22.64,26.69,26.21,325.0,325.0,355.0,355.0,99.79,99.73,99.92,99.87,-0.92,-0.88,-0.74,-0.58,-0.1,-0.1,1.9,2.8,71.6,67.5,86.5,83.6,67.6,64.5,94.4,92.5,65.3,62.4,92.1,90.0,63.6,61.3,90.6,88.7,1.05,-1.06,0.07,0.07,0.0,102.67,101.8,95.9,95.9,356.7,7.7,0.6649060083951716,71.30013875357112,95.06685165246071,14.404068544271524,50.41424018946216,0,7
1061,53.0,745.0,44.05215488025366,-78.6806136394714,-0.9,-10.2,10.1,-6.4,2316.2,2316.0,120.8,0.0,1.0,1.0,0.0,1.0,1.0,0.0,0.0,0.0,100.0,1.0,1.186,26.0,0.0,9.624,74.678,66.0,0.0,26.0,26.0,26.0,26.0,-0.57,0.43,-0.03,387.4,-2.25,-2.62,-1.19,-1.8,-590.2,415.52,6.1,0.0,0.0,0.0,0.0,0.4,-7.49,-7.49,0.48,-0.77,0.53,-0.12,33.55,-0.17,-0.31,10.52,100.0,0.0,0.0,96.6,0.0,0.0,0.0,0.0,0.0,0.0,0.0,8302.0,0.0,30.0,2.0,120.8,0.0,0.0,0.0,0.0,0.0,0.0,1.0,0.0,53.031,53.031,74.679,35.607,0.0,110.0,435.8,8750.0,0.0,0.0,110.0,110.0,433.0,0.0,0.0,0.0,1.0,333.3,78.4,78.4,74.3,74.3,34.0,-56.3,-12.96,-55.5,-11.7,1.0,-130.29,20.7,100.0,19.5,14.4,35.0,28.3,0.0,1.0,79.7,0.0,0.0,0.0,0.0,3932.0,1945.0,4987.0,3555.0,314.4,319.7,342.9,346.2,23.29,22.64,26.69,26.21,325.0,325.0,355.0,355.0,99.79,99.73,99.92,99.87,-1.06,-1.03,-0.81,-0.65,-0.1,-0.1,2.0,2.9,71.6,67.5,86.6,83.6,67.5,64.4,94.4,92.5,65.2,62.4,92.1,90.0,63.6,61.3,90.6,88.7,1.17,-1.2,0.08,0.07,0.0,103.33,102.41,96.6,96.6,356.7,7.7,0.7146327728281148,73.10064730737948,99.02797051636097,-7.202034272135762,25.20712009473101,0,7
1062,53.05,746.7,44.05214579710544,-78.68062605010957,-0.8,-8.0,11.0,-9.0,2317.9,2318.0,121.5,0.0,1.0,1.0,0.0,1.0,1.0,0.0,0.0,0.0,100.0,1.0,1.186,26.0,0.0,9.633,74.678,66.0,0.0,26.0,26.0,26.0,26.0,-0.62,0.42,-0.08,387.6,-2.21,-2.62,-1.17,-1.85,-591.58,414.51,6.1,0.0,0.0,0.0,0.0,0.41,-7.49,-7.49,0.43,-0.8,0.52,-0.35,33.77,-0.2,-0.3,11.54,100.0,0.0,0.0,97.36,0.0,0.0,0.0,0.0,0.0,0.0,0.0,8367.0,0.0,30.0,2.0,121.5,1.0,0.0,0.0,0.0,0.0,0.0,1.0,0.0,53.081,53.081,74.679,35.607,1.0,110.0,435.8,8750.0,0.0,0.0,110.0,110.0,433.0,0.0,0.0,0.0,1.0,333.3,78.8,78.8,74.1,74.1,34.0,-60.34,-13.44,-58.5,-12.4,1.0,-130.34,23.0,100.0,19.5,14.0,35.5,27.9,0.0,1.0,84.8,0.0,0.0,0.0,0.0,3994.0,1780.0,5064.0,3454.0,314.2,320.1,342.7,346.5,23.29,22.64,26.69,26.22,325.0,325.0,355.0,355.0,99.79,99.73,99.92,99.87,-1.18,-1.17,-0.87,-0.71,-0.1,-0.1,2.1,3.1,71.6,67.5,86.6,83.6,67.5,64.4,94.4,92.4,65.2,62.4,92.0,89.9,63.6,61.3,90.6,88.6,1.31,-1.34,0.07,0.08,0.0,104.04,103.02,97.36,97.36,356.7,7.7,0.7531268153505092,70.57993532635754,97.58756366193381,-28.80813680403122,-5.690236548616667e-07,0,7
1063,53.1,748.4,44.052137253550185,-78.68063801108693,-0.3,-7.4,9.3,-8.2,2319.6,2320.0,122.3,0.0,1.0,1.0,0.0,1.0,1.0,0.0,0.0,0.0,100.0,1.0,1.186,26.0,0.0,9.642,74.678,66.0,0.0,26.0,26.0,26.0,26.0,-0.68,0.44,-0.08,387.6,-2.21,-2.62,-1.12,-1.87,-592.91,413.56,6.1,0.0,0.0,0.0,0.0,0.41,-7.49,-7.49,0.39,-0.87,0.51,-0.34,33.98,-0.24,-0.3,12.59,100.0,0.0,0.0,98.01,0.0,0.0,0.0,0.0,0.0,0.0,0.0,8423.0,0.0,30.0,2.0,122.3,0.0,0.0,0.0,0.0,0.0,0.0,0.0,0.0,53.13,53.13,74.679,35.607,0.0,110.0,435.8,8750.0,0.0,0.0,110.0,110.0,433.0,0.0,0.0,0.0,1.0,333.3,78.9,78.9,73.9,73.9,34.0,-64.27,-14.08,-62.6,-14.4,1.0,-130.39,24.4,100.0,19.4,13.6,36.0,27.5,0.0,1.0,86.3,0.0,0.0,0.0,0.0,4057.0,1731.0,5132.0,3418.0,314.1,320.2,342.5,346.5,23.29,22.64,26.69,26.22,325.0,325.0,355.0,355.0,99.79,99.73,99.92,99.87,-1.31,-1.27,-0.96,-0.81,-0.1,-0.1,2.1,3.2,71.5,67.5,86.6,83.6,67.5,64.4,94.4,92.4,65.2,62.3,92.0,89.9,63.6,61.3,90.6,88.6,1.41,-1.43,0.07,0.08,0.0,104.69,103.58,98.01,98.01,356.7,7.7,0.8138795979750323,70.21983362697635,99.0279704594586,10.803051550459628,54.01525661424998,0,7
1064,53.15,750.1,44.05212826033412,-78.68065078145372,2.1,-7.9,9.4,-8.0,2321.3,2321.0,123.1,0.0,1.0,1.0,0.0,1.0,1.0,0.0,0.0,0.0,100.0,1.0,1.186,26.0,0.0,9.654,74.678,66.0,0.0,26.0,26.0,26.0,26.0,-0.72,0.44,-0.03,387.5,-2.18,-2.64,-1.08,-1.92,-594.33,412.56,6.1,0.0,0.0,0.0,0.0,0.41,-7.49,-7.49,0.34,-0.94,0.49,-0.58,34.19,-0.28,-0.3,13.49,100.0,0.0,0.0,98.65,0.0,0.0,0.0,0.0,0.0,0.0,0.0,8479.0,0.0,30.0,2.0,123.1,1.0,0.0,0.0,0.0,0.0,0.0,0.0,0.0,53.181,53.181,74.679,35.607,1.0,110.0,435.8,8750.0,0.0,0.0,110.0,110.0,433.0,0.0,0.0,0.0,1.0,333.3,79.0,79.0,73.6,73.6,34.0,-67.52,-14.6,-69.0,-16.2,1.0,-130.44,24.6,100.0,19.5,13.2,36.5,27.1,0.0,1.0,85.9,0.0,0.0,0.0,0.0,4166.0,1724.0,5244.0,3346.0,313.8,320.3,342.3,346.7,23.28,22.63,26.7,26.22,325.0,325.0,355.0,355.0,99.79,99.73,99.92,99.87,-1.37,-1.34,-1.07,-0.91,-0.1,-0.1,2.1,3.2,71.5,67.5,86.6,83.6,67.5,64.4,94.3,92.4,65.2,62.3,92.0,89.9,63.6,61.2,90.5,88.6,1.43,-1.45,0.08,0.07,0.0,105.38,104.19,98.65,98.65,356.7,7.7,0.8443340571124678,71.6602404814035,102.98908932335881,-18.00508553808328,18.00508610710679,0,7
1065,53.2,751.8,44.05211935705022,-78.68066373168486,10.7,-4.5,13.5,-3.7,2323.0,2323.0,123.4,0.0,1.0,1.0,0.0,1.0,1.0,0.0,0.0,0.0,100.0,1.0,1.186,26.0,0.0,9.663,74.678,66.0,0.0,26.0,26.0,26.0,26.0,-0.8,-0.03,-0.08,387.4,-2.15,-2.68,-1.04,-1.96,-595.77,411.57,6.2,0.0,0.0,0.0,0.0,0.41,-7.49,-7.49,0.25,-2.43,0.45,-1.13,34.27,-0.31,-0.31,13.59,100.0,0.0,0.0,96.23,0.0,0.0,0.0,0.0,0.0,0.0,0.0,8268.0,0.0,30.0,0.0,123.4,0.0,0.0,0.0,0.0,0.0,0.0,0.0,0.0,53.231,53.231,74.679,35.607,0.0,110.0,435.8,8750.0,0.0,0.0,110.0,110.0,433.0,0.0,0.0,0.0,1.0,333.3,78.4,78.4,73.9,73.9,34.0,-72.44,-15.47,-80.2,-22.2,1.0,-130.49,24.3,100.0,20.1,13.0,37.1,26.9,0.0,1.0,0.0,0.0,0.0,0.0,0.0,4379.0,1783.0,5120.0,2953.0,313.2,320.1,342.5,347.7,23.28,22.63,26.7,26.22,325.0,325.0,355.0,355.0,99.79,99.73,99.92,99.87,-1.41,-1.37,-1.13,-0.98,-0.1,0.0,0.1,0.2,71.5,67.4,86.6,83.6,67.5,64.3,94.3,92.3,65.3,62.3,92.0,89.8,63.6,61.2,90.5,88.5,1.41,-1.43,0.07,0.08,0.0,105.62,104.48,96.67,95.79,356.7,7.7,0.8045495634204273,68.41932507316803,100.82847907016928,-43.21220563281443,-14.40406854427124,0,7
1066,53.25,753.5,44.05211117322361,-78.6806759624587,36.8,18.7,-4.1,-33.4,2324.8,2325.0,123.2,0.0,1.0,1.0,0.0,1.0,1.0,0.0,0.0,0.0,100.0,1.0,1.186,26.0,0.0,9.672,74.678,66.0,0.0,26.0,26.0,26.0,26.0,-0.81,-0.1,-0.07,386.9,-2.14,-2.76,-0.98,-2.0,-597.13,410.66,6.2,0.0,0.0,0.0,0.0,0.41,-7.49,-7.49,0.11,-2.91,0.41,-0.98,34.22,-0.33,-0.36,14.31,100.0,0.0,0.0,96.09,0.0,0.0,0.0,0.0,0.0,0.0,0.0,7913.0,0.0,30.0,0.0,123.2,1.0,0.0,0.0,0.0,0.0,0.0,0.0,0.0,53.28,53.28,74.679,35.607,1.0,110.0,435.8,8750.0,0.0,0.0,110.0,110.0,433.0,0.0,0.0,0.0,1.0,333.3,75.6,75.6,75.7,75.7,34.0,-84.07,-19.12,-75.3,-19.3,1.0,-130.54,24.3,100.0,21.9,13.9,36.9,25.2,0.0,1.0,0.0,0.0,0.0,0.0,0.0,4930.0,2142.0,4813.0,2542.0,311.8,319.1,343.3,348.7,23.28,22.63,26.7,26.22,325.0,325.0,355.0,355.0,99.79,99.73,99.92,99.87,-1.41,-1.36,-1.18,-1.03,-0.1,0.0,-0.0,0.0,71.5,67.4,86.6,83.6,67.6,64.3,94.3,92.3,65.3,62.3,91.9,89.8,63.6,61.2,90.5,88.5,1.41,-1.43,0.07,0.08,0.0,105.54,104.28,96.62,95.56,356.7,7.7,0.8191458966508959,67.33901991812206,101.54868246893169,-2.8451182743083336e-07,50.41423905141471,0,7
1067,53.3,755.2,44.0521025397362,-78.68068909255415,34.0,24.2,-21.3,-37.2,2326.5,2326.0,123.6,0.0,1.0,1.0,0.0,1.0,1.0,0.0,0.0,0.0,100.0,1.0,1.186,26.0,0.0,9.681,74.678,66.0,0.0,26.0,26.0,26.0,26.0,-0.84,0.44,-0.02,386.3,-2.17,-2.81,-0.94,-2.0,-598.59,409.7,6.2,0.0,0.0,0.0,0.0,0.41,-7.49,-7.49,0.02,0.15,0.39,0.43,34.33,-0.4,-0.4,16.71,100.0,0.0,0.0,97.53,0.0,0.0,0.0,0.0,0.0,0.0,0.0,6538.0,0.0,30.0,3.0,123.6,0.0,0.0,0.0,0.0,0.0,0.0,0.0,0.0,53.331,53.331,74.679,35.607,0.0,110.0,435.8,8750.0,0.0,0.0,110.0,110.0,433.0,0.0,0.0,0.0,1.0,333.3,74.2,74.2,76.1,76.1,34.0,-85.42,-19.96,-84.6,-15.2,1.0,-130.59,24.3,100.0,23.6,15.1,35.9,23.4,0.0,1.0,0.0,0.0,0.0,0.0,0.0,4971.0,2194.0,5123.0,2907.0,311.6,318.9,342.6,347.9,23.28,22.63,26.7,26.22,325.0,325.0,355.0,355.0,99.79,99.73,99.92,99.87,-1.41,-1.38,-1.39,-1.25,-0.1,-0.1,1.1,4.4,71.5,67.4,86.6,83.7,67.6,64.3,94.3,92.2,65.3,62.3,91.9,89.7,63.6,61.2,90.5,88.4,1.4,-1.43,0.06,0.08,0.0,106.07,104.53,97.31,97.76,356.7,7.7,0.94847245611035,68.41932504471684,105.86990297531075,-25.20711952570707,21.606102531895175,0,7
657,32.8,674.8,44.052353450464246,-78.68038889900208,25.5,22.5,-18.8,-22.0,4027.6,4028.0,123.1,0.0,1.0,1.0,0.0,1.0,1.0,0.0,0.0,0.0,100.0,1.0,1.186,26.0,0.0,-9.777,74.678,66.0,0.0,26.0,26.0,26.0,26.0,0.95,-0.2,-0.04,387.3,-2.88,-2.14,-2.11,-0.84,-565.21,437.6,5.3,0.0,0.0,0.0,0.0,0.38,-7.49,-7.49,0.92,-1.36,0.45,0.89,34.19,0.47,-0.41,-16.71,100.0,0.0,0.0,95.75,0.0,0.0,0.0,0.0,0.0,0.0,0.0,6418.0,0.0,30.0,3.0,123.1,0.0,0.0,0.0,0.0,0.0,0.0,1.0,0.0,32.809,32.809,84.921,24.333,0.0,110.0,435.8,8750.0,0.0,0.0,110.0,110.0,433.0,0.0,0.0,0.0,1.0,333.3,73.3,73.3,78.3,78.3,34.0,21.75,96.26,21.9,87.7,2.0,-194.99,-24.3,100.0,15.4,24.9,22.4,38.0,0.0,1.0,0.0,0.0,0.0,0.0,0.0,2227.0,5325.0,2313.0,5019.0,319.5,311.3,349.6,342.9,25.95,24.52,27.77,26.91,325.0,325.0,355.0,355.0,100.0,99.96,100.0,100.0,1.5,1.56,1.34,1.49,-0.0,-0.0,-0.2,-0.5,88.2,79.3,93.3,87.9,87.3,80.8,91.3,87.8,84.1,77.6,90.1,86.0,81.9,76.0,88.9,84.7,-1.43,1.41,0.1,0.05,0.0,104.16,105.61,95.17,96.32,356.7,7.7,0.9716480844420988,70.57993532635754,99.38807221574214,43.212205348302604,5.690235127531196e-07,0,7
658,32.85,676.5,44.05234427738387,-78.68040157943673,7.6,8.6,-4.9,-8.2,4029.3,4029.0,122.8,0.0,1.0,1.0,0.0,1.0,1.0,0.0,0.0,0.0,100.0,1.0,1.186,26.0,0.0,-9.771,74.678,66.0,0.0,26.0,26.0,26.0,26.0,0.94,-0.19,-0.03,387.3,-2.88,-2.11,-2.13,-0.81,-566.62,436.58,5.3,0.0,0.0,0.0,0.0,0.39,-7.49,-7.49,0.88,-0.49,0.49,0.96,34.09,0.5,-0.42,-16.43,100.0,0.0,0.0,95.48,0.0,0.0,0.0,0.0,0.0,0.0,0.0,6401.0,0.0,30.0,3.0,122.8,1.0,0.0,0.0,0.0,0.0,0.0,1.0,0.0,32.859,32.859,84.921,24.333,1.0,110.0,435.8,8750.0,0.0,0.0,110.0,110.0,433.0,0.0,0.0,0.0,1.0,333.3,73.2,73.2,78.3,78.3,34.0,19.05,90.23,23.6,91.7,2.0,-195.04,-20.5,100.0,15.7,25.3,22.1,37.6,0.0,1.0,0.0,0.0,0.0,0.0,0.0,2144.0,5211.0,2394.0,5128.0,319.7,311.5,349.4,342.6,25.94,24.52,27.76,26.91,325.0,325.0,355.0,355.0,100.0,99.96,100.0,100.0,1.36,1.41,1.39,1.56,0.0,-0.0,-0.3,-0.5,88.1,79.3,93.3,87.9,87.2,80.8,91.3,87.8,84.0,77.6,90.0,85.9,81.9,76.0,88.8,84.7,-1.23,1.2,0.09,0.05,0.0,103.88,105.32,94.93,96.04,356.7,7.7,0.9594790253048786,73.82085073459304,100.82847907016928,21.606102816407144,-25.20712009473101,0,7
