,Time,Distance,GPS Latitude,GPS Longitude,Damper Velocity (Calc) FL,Damper Velocity (Calc) FR,Damper Velocity (Calc) RL,Damper Velocity (Calc) RR,Corr Dist,Corr Dist (Unstretched),Corr Speed,ABS Active,ABS Enabled,AID Allow Tire Blankets,AID Auto Blip,AID Auto Clutch,AID Auto Shift,AID Fuel Rate,AID Ideal Line,AID Mech Damage,AID Stability,AID Tire Wear Rate,Air Density,Air Temp,Ballast,Best Lap Delta,Best Lap Time,Brake Bias,Brake Pos,Brake Temp FL,Brake Temp FR,Brake Temp RL,Brake Temp RR,CG Accel Lateral,CG Accel Longitudinal,CG Accel Vertical,CG Height,Camber FL,Camber FR,Camber RL,Camber RR,Car Coord X,Car Coord Y,Car Coord Z,Car Damage Front,Car Damage Left,Car Damage Rear,Car Damage Right,Car Pos Norm,Caster FL,Caster FR,Chassis Pitch Angle,Chassis Pitch Rate,Chassis Roll Angle,Chassis Roll Rate,Chassis Velocity X,Chassis Velocity Y,Chassis Velocity Z,Chassis Yaw Rate,Clutch Pos,DRS Active,DRS Available,Drive Train Speed,ERS Heat Charging,ERS Is Charging,ERS Max Energy,ERS Power Level,ERS Recovery Level,Engine Brake Setting,Engine Limiter,Engine RPM,Flags,Fuel Level,Gear,Ground Speed,HR Sample Clock,In Pit,KERS Charge,KERS Deployed Energy,KERS Input,KERS Max Energy,LR Sample Clock,Lap Invalidated,Lap Time,Lap Time2,Last Lap Time,Last Sector Time,MR Sample Clock,Max Fuel,Max Power,Max RPM,Max Sus Travel FL,Max Sus Travel FR,Max Sus Travel RL,Max Sus Travel RR,Max Torque,Max Turbo Boost,Num Tires Off Track,Penalties Enabled,Position,Raw Data Sample Rate,Ride Height FL,Ride Height FR,Ride Height RL,Ride Height RR,Road Temp,Self Align Torque FL,Self Align Torque FR,Self Align Torque RL,Self Align Torque RR,Session Lap Count,Session Time Left,Steering Angle,Surface Grip,Suspension Travel FL,Suspension Travel FR,Suspension Travel RL,Suspension Travel RR,TC Active,TC Enabled,Throttle Pos,Tire Dirt Level FL,Tire Dirt Level FR,Tire Dirt Level RL,Tire Dirt Level RR,Tire Load FL,Tire Load FR,Tire Load RL,Tire Load RR,Tire Loaded Radius FL,Tire Loaded Radius FR,Tire Loaded Radius RL,Tire Loaded Radius RR,Tire Pressure FL,Tire Pressure FR,Tire Pressure RL,Tire Pressure RR,Tire Radius FL,Tire Radius FR,Tire Radius RL,Tire Radius RR,Tire Rubber Grip FL,Tire Rubber Grip FR,Tire Rubber Grip RL,Tire Rubber Grip RR,Tire Slip Angle FL,Tire Slip Angle FR,Tire Slip Angle RL,Tire Slip Angle RR,Tire Slip Ratio FL,Tire Slip Ratio FR,Tire Slip Ratio RL,Tire Slip Ratio RR,Tire Temp Core FL,Tire Temp Core FR,Tire Temp Core RL,Tire Temp Core RR,Tire Temp Inner FL,Tire Temp Inner FR,Tire Temp Inner RL,Tire Temp Inner RR,Tire Temp Middle FL,Tire Temp Middle FR,Tire Temp Middle RL,Tire Temp Middle RR,Tire Temp Outer FL,Tire Temp Outer FR,Tire Temp Outer RL,Tire Temp Outer RR,Toe In FL,Toe In FR,Toe In RL,Toe In RR,Turbo Boost,Wheel Angular Speed FL,Wheel Angular Speed FR,Wheel Angular Speed RL,Wheel Angular Speed RR,Wind Direction,Wind Speed,CG Distance,Lateral Velocity,Longitudinal Velocity,Lateral Acceleration,Longitudinal Acceleration,level,curve_number
286,14.25,472.6,44.053180376680885,-78.67907876728658,25.3,45.4,73.1,94.9,5580.7,5581.0,93.3,0.0,1.0,1.0,0.0,1.0,1.0,0.0,0.0,0.0,100.0,1.0,1.186,26.0,0.0,-1.281,50.194,66.0,0.0,26.0,26.0,26.0,26.0,-0.31,0.51,0.07,385.1,-2.4,-2.44,-1.33,-1.55,-419.53,529.55,3.6,0.0,0.0,0.0,0.0,0.28,-7.49,-7.49,-2.57,1.72,-1.15,-1.05,25.93,-0.01,-0.18,7.5,100.0,0.0,0.0,74.57,0.0,0.0,0.0,0.0,0.0,0.0,0.0,6409.0,0.0,30.0,2.0,93.3,0.0,0.0,0.0,0.0,0.0,0.0,0.0,0.0,14.286,14.286,50.194,13.681,0.0,110.0,435.8,8750.0,0.0,0.0,110.0,110.0,433.0,0.0,0.0,0.0,1.0,333.3,78.1,78.1,75.9,75.9,34.0,-34.6,-4.42,-42.1,-3.1,3.0,-198.615,14.7,100.0,17.6,15.6,29.3,26.4,0.0,1.0,58.6,0.0,0.0,0.0,0.0,3627.0,2821.0,4845.0,4315.0,315.8,317.3,343.0,343.8,25.04,23.04,25.97,24.7,325.0,325.0,355.0,355.0,100.0,99.9,100.0,100.0,-0.5,-0.42,-0.53,-0.31,-0.1,-0.1,1.9,2.8,82.5,70.0,82.1,74.1,84.9,73.5,82.1,75.6,81.6,70.3,80.5,73.4,79.1,68.8,79.5,72.4,0.85,-0.86,0.08,0.08,0.0,79.98,79.34,74.57,74.57,174.7,27.6,0.6009159675029446,92.5461396714388,2.1606103100919016,46.81322205760239,-10.803050981435804,1,5
287,14.3,473.9,44.05316841570353,-78.6790784974901,33.3,6.2,93.9,53.8,5582.0,5582.0,94.2,0.0,1.0,1.0,0.0,1.0,1.0,0.0,0.0,0.0,100.0,1.0,1.186,26.0,0.0,-1.281,50.194,66.0,0.0,26.0,26.0,26.0,26.0,-0.34,0.48,0.11,382.5,-2.35,-2.54,-1.28,-1.7,-419.5,528.22,3.5,0.0,0.0,0.0,0.0,0.28,-7.49,-7.49,-2.49,0.93,-1.27,-2.13,26.17,-0.02,-0.2,7.25,100.0,0.0,0.0,75.14,0.0,0.0,0.0,0.0,0.0,0.0,0.0,6458.0,0.0,30.0,2.0,94.2,1.0,0.0,0.0,0.0,0.0,0.0,0.0,0.0,14.337,14.337,50.194,13.681,1.0,110.0,435.8,8750.0,0.0,0.0,110.0,110.0,433.0,0.0,0.0,0.0,1.0,333.3,77.2,77.2,71.8,71.8,34.0,-41.2,-6.06,-45.6,-1.6,3.0,-198.67,16.0,100.0,19.3,15.9,34.0,29.1,0.0,1.0,54.7,0.0,0.0,0.0,0.0,3968.0,2507.0,5347.0,4323.0,314.9,318.2,341.7,343.8,25.04,23.04,25.97,24.7,325.0,325.0,355.0,355.0,100.0,99.9,100.0,100.0,-0.57,-0.52,-0.47,-0.3,-0.1,-0.1,1.6,2.5,82.5,70.0,82.1,74.1,84.8,73.4,82.1,75.6,81.6,70.3,80.4,73.4,79.1,68.8,79.5,72.4,0.91,-0.93,0.07,0.07,0.0,80.72,80.05,75.14,75.14,174.7,27.6,0.5984145720150872,96.14715677905546,1.4404068544271444,14.404068828783352,-14.404069113295147,1,5
288,14.35,475.2,44.05315636479401,-78.67907840755794,13.5,-5.8,38.6,17.4,5583.4,5583.0,95.0,0.0,1.0,1.0,0.0,1.0,1.0,0.0,0.0,0.0,100.0,1.0,1.186,26.0,0.0,-1.281,50.194,66.0,0.0,26.0,26.0,26.0,26.0,-0.39,0.49,0.07,382.3,-2.32,-2.58,-1.25,-1.77,-419.49,526.88,3.5,0.0,0.0,0.0,0.0,0.28,-7.49,-7.49,-2.46,-0.04,-1.33,0.46,26.42,-0.01,-0.24,7.9,100.0,0.0,0.0,75.99,0.0,0.0,0.0,0.0,0.0,0.0,0.0,6531.0,0.0,30.0,2.0,95.0,0.0,0.0,0.0,0.0,0.0,0.0,1.0,0.0,14.388,14.388,50.194,13.681,0.0,110.0,435.8,8750.0,0.0,0.0,110.0,110.0,433.0,0.0,0.0,0.0,1.0,166.7,77.3,77.3,71.3,71.3,34.0,-45.9,-8.92,-44.7,-3.1,3.0,-198.715,19.0,100.0,20.0,15.6,36.0,30.0,0.0,1.0,60.2,0.0,0.0,0.0,0.0,3958.0,2335.0,5151.0,3915.0,314.9,318.7,342.1,344.8,25.04,23.04,25.97,24.69,325.0,325.0,355.0,355.0,100.0,99.9,100.0,100.0,-0.7,-0.66,-0.51,-0.35,-0.1,-0.1,1.8,2.7,82.5,70.0,82.0,74.1,84.8,73.4,82.1,75.6,81.5,70.3,80.4,73.4,79.0,68.7,79.5,72.3,1.08,-1.09,0.07,0.07,0.0,81.41,80.72,75.99,75.99,174.7,27.6,0.630158710167526,93.98654655431713,0.7202033987623869,-10.803050981435547,-10.803051550459509,1,5
289,14.4,476.5,44.05314494340961,-78.67907831762578,-4.0,-3.5,-2.4,-3.7,5584.7,5585.0,95.9,0.0,1.0,1.0,0.0,1.0,1.0,0.0,0.0,0.0,100.0,1.0,1.186,26.0,0.0,-1.287,50.194,66.0,0.0,26.0,26.0,26.0,26.0,-0.42,0.52,-0.02,382.9,-2.36,-2.52,-1.28,-1.75,-419.48,525.61,3.5,0.0,0.0,0.0,0.0,0.28,-7.49,-7.49,-2.45,0.14,-1.31,0.42,26.65,-0.01,-0.24,9.21,100.0,0.0,0.0,77.05,0.0,0.0,0.0,0.0,0.0,0.0,0.0,6622.0,0.0,30.0,2.0,95.9,1.0,0.0,0.0,0.0,0.0,0.0,1.0,0.0,14.436,14.436,50.194,13.681,1.0,110.0,435.8,8750.0,0.0,0.0,110.0,110.0,433.0,0.0,0.0,0.0,1.0,333.3,77.7,77.7,72.2,72.2,34.0,-47.6,-12.28,-40.2,-4.8,3.0,-198.765,22.7,100.0,19.8,15.4,35.8,29.8,0.0,1.0,72.7,0.0,0.0,0.0,0.0,3746.0,2354.0,4738.0,3796.0,315.5,318.6,343.2,345.2,25.04,23.04,25.97,24.69,325.0,325.0,355.0,355.0,100.0,99.9,100.0,100.0,-0.84,-0.81,-0.56,-0.41,-0.1,-0.1,2.2,3.2,82.5,70.0,82.0,74.1,84.7,73.4,82.0,75.6,81.5,70.2,80.4,73.3,79.0,68.7,79.5,72.3,1.29,-1.31,0.07,0.07,0.0,82.15,81.41,77.05,77.05,174.7,27.6,0.6687301398920195,95.06685168091191,0.36010169938119346,21.606102531895317,0.0,1,5
290,14.45,477.9,44.053132622703615,-78.67907831762578,-5.9,-4.7,-4.5,-9.1,5586.0,5586.0,96.9,0.0,1.0,1.0,0.0,1.0,1.0,0.0,0.0,0.0,100.0,1.0,1.186,26.0,0.0,-1.296,50.194,66.0,0.0,26.0,26.0,26.0,26.0,-0.49,0.6,-0.02,383.2,-2.35,-2.52,-1.24,-1.77,-419.48,524.24,3.4,0.0,0.0,0.0,0.0,0.28,-7.49,-7.49,-2.42,0.57,-1.36,-1.2,26.93,-0.02,-0.23,11.07,100.0,0.0,0.0,78.07,0.0,0.0,0.0,0.0,0.0,0.0,0.0,6710.0,0.0,30.0,2.0,96.9,0.0,0.0,0.0,0.0,0.0,0.0,1.0,0.0,14.487,14.487,50.194,13.681,0.0,110.0,435.8,8750.0,0.0,0.0,110.0,110.0,433.0,0.0,0.0,0.0,1.0,333.3,78.2,78.2,72.3,72.3,34.0,-54.8,-13.9,-45.8,-6.9,3.0,-198.82,27.7,100.0,19.5,15.2,35.6,29.4,0.0,1.0,82.0,0.0,0.0,0.0,0.0,3873.0,2077.0,5004.0,3768.0,315.2,319.3,342.6,345.2,25.04,23.04,25.97,24.69,325.0,325.0,355.0,355.0,100.0,99.9,100.0,100.0,-1.03,-1.0,-0.65,-0.51,-0.1,-0.1,2.4,3.6,82.5,70.0,82.0,74.1,84.7,73.3,82.0,75.6,81.5,70.2,80.4,73.3,79.0,68.7,79.5,72.3,1.56,-1.59,0.07,0.07,0.0,83.14,82.18,78.07,78.07,174.7,27.6,0.7749193506423748,96.14715680750666,0.7202033987623869,18.005085538083136,14.404068544271446,1,5
291,14.5,479.2,44.053120931522734,-78.6790784974901,1.1,-10.2,13.8,-6.8,5587.4,5587.0,97.9,0.0,1.0,1.0,0.0,1.0,1.0,0.0,0.0,0.0,100.0,1.0,1.186,26.0,0.0,-1.302,50.194,66.0,0.0,26.0,26.0,26.0,26.0,-0.61,0.57,-0.03,383.0,-2.32,-2.53,-1.18,-1.84,-419.5,522.94,3.4,0.0,0.0,0.0,0.0,0.28,-7.49,-7.49,-2.38,0.48,-1.44,-1.2,27.21,-0.04,-0.22,13.22,100.0,0.0,0.0,78.82,0.0,0.0,0.0,0.0,0.0,0.0,0.0,6774.0,0.0,30.0,2.0,97.9,1.0,0.0,0.0,0.0,0.0,0.0,1.0,0.0,14.534,14.534,50.194,13.681,1.0,110.0,435.8,8750.0,0.0,0.0,110.0,110.0,433.0,0.0,0.0,0.0,1.0,333.3,78.5,78.5,71.7,71.7,34.0,-65.3,-15.08,-56.8,-9.9,3.0,-198.865,33.7,100.0,19.5,14.7,36.3,29.0,0.0,1.0,80.1,0.0,0.0,0.0,0.0,4107.0,1816.0,5357.0,3711.0,314.6,320.0,341.7,345.4,25.04,23.04,25.96,24.69,325.0,325.0,355.0,355.0,100.0,99.9,100.0,100.0,-1.29,-1.27,-0.78,-0.63,-0.1,-0.1,2.3,3.7,82.5,70.0,82.0,74.1,84.7,73.3,82.0,75.5,81.5,70.2,80.4,73.3,79.0,68.6,79.4,72.3,1.9,-1.93,0.07,0.07,0.0,84.05,82.91,78.82,78.82,174.7,27.6,0.8354040938372279,96.86736023472022,1.800508553808338,75.62135914614544,21.606103100919018,1,5
292,14.55,480.6,44.05310843095241,-78.67907876728658,9.1,-12.3,21.2,-8.2,5588.8,5589.0,98.9,0.0,1.0,1.0,0.0,1.0,1.0,0.0,0.0,0.0,100.0,1.0,1.186,26.0,0.0,-1.311,50.194,66.0,0.0,26.0,26.0,26.0,26.0,-0.74,0.49,0.05,382.8,-2.3,-2.53,-1.12,-1.9,-419.53,521.55,3.3,0.0,0.0,0.0,0.0,0.28,-7.49,-7.49,-2.35,-0.11,-1.54,-1.23,27.48,-0.05,-0.22,15.64,100.0,0.0,0.0,79.21,0.0,0.0,0.0,0.0,0.0,0.0,0.0,6808.0,0.0,30.0,2.0,98.9,0.0,0.0,0.0,0.0,0.0,0.0,1.0,0.0,14.586,14.586,50.194,13.681,0.0,110.0,435.8,8750.0,0.0,0.0,110.0,110.0,433.0,0.0,0.0,0.0,1.0,333.3,78.3,78.3,71.5,71.5,34.0,-76.4,-18.18,-69.0,-13.7,3.0,-198.915,41.8,100.0,20.0,14.0,37.4,28.6,0.0,1.0,58.2,0.0,0.0,0.0,0.0,4362.0,1780.0,5459.0,3561.0,313.9,320.2,341.4,345.7,25.04,23.04,25.96,24.69,325.0,325.0,355.0,355.0,100.0,99.9,100.0,100.0,-1.63,-1.64,-0.92,-0.78,-0.1,-0.1,1.8,3.4,82.5,70.0,82.0,74.1,84.7,73.3,82.0,75.5,81.4,70.1,80.4,73.3,78.9,68.6,79.4,72.3,2.34,-2.4,0.07,0.07,0.0,84.94,83.6,79.21,79.21,174.7,27.6,0.8889319434017432,103.7092927221212,2.880813708854289,46.81322234211464,25.20711952570726,1,5
293,14.6,482.0,44.05309503106049,-78.67907921694739,22.4,-7.8,18.2,-24.3,5590.2,5590.0,99.7,0.0,1.0,1.0,0.0,1.0,1.0,0.0,0.0,0.0,100.0,1.0,1.186,26.0,0.0,-1.311,50.194,66.0,0.0,26.0,26.0,26.0,26.0,-0.86,0.38,0.04,382.8,-2.27,-2.57,-1.03,-2.0,-419.58,520.06,3.3,0.0,0.0,0.0,0.0,0.28,-7.49,-7.49,-2.34,-0.52,-1.66,-1.86,27.7,-0.07,-0.24,18.52,100.0,0.0,0.0,79.54,0.0,0.0,0.0,0.0,0.0,0.0,0.0,6836.0,0.0,30.0,2.0,99.7,1.0,0.0,0.0,0.0,0.0,0.0,1.0,0.0,14.64,14.64,50.194,13.681,1.0,110.0,435.8,8750.0,0.0,0.0,110.0,110.0,433.0,0.0,0.0,0.0,1.0,166.7,77.5,77.5,72.2,72.2,34.0,-89.2,-18.83,-79.5,-15.8,3.0,-198.97,50.0,100.0,21.1,13.7,38.3,27.4,0.0,1.0,40.9,0.0,0.0,0.0,0.0,4787.0,1659.0,5485.0,3211.0,312.9,320.5,341.3,346.6,25.04,23.04,25.96,24.69,325.0,325.0,355.0,355.0,100.0,99.9,100.0,100.0,-1.98,-2.01,-1.06,-0.94,-0.1,-0.1,1.3,3.2,82.5,70.0,82.0,74.1,84.6,73.3,82.0,75.5,81.4,70.1,80.3,73.3,78.9,68.6,79.4,72.3,2.8,-2.89,0.06,0.06,0.0,85.7,84.15,79.54,79.54,174.7,27.6,0.9410632284814873,101.54868246893169,4.321220506379064,-79.22237613995733,32.40915351333111,1,5
294,14.65,483.4,44.053083070083126,-78.6790798464725,26.8,-6.6,13.9,-31.9,5591.5,5592.0,100.2,0.0,1.0,1.0,0.0,1.0,1.0,0.0,0.0,0.0,100.0,1.0,1.186,26.0,0.0,-1.323,50.194,66.0,0.0,26.0,26.0,26.0,26.0,-0.98,0.19,0.02,382.8,-2.23,-2.62,-0.92,-2.08,-419.65,518.73,3.2,0.0,0.0,0.0,0.0,0.28,-7.49,-7.49,-2.35,-0.82,-1.79,-1.71,27.82,-0.09,-0.26,20.88,100.0,0.0,0.0,79.29,0.0,0.0,0.0,0.0,0.0,0.0,0.0,6814.0,0.0,30.0,2.0,100.2,0.0,0.0,0.0,0.0,0.0,0.0,1.0,0.0,14.688,14.688,50.194,13.681,0.0,110.0,435.8,8750.0,0.0,0.0,110.0,110.0,433.0,0.0,0.0,0.0,1.0,166.7,76.7,76.7,73.0,73.0,34.0,-98.2,-18.63,-91.2,-18.4,3.0,-199.015,56.3,100.0,22.4,13.3,39.0,25.8,0.0,1.0,21.0,0.0,0.0,0.0,0.0,5163.0,1575.0,5521.0,2879.0,311.9,320.7,341.3,347.5,25.03,23.04,25.96,24.69,325.0,325.0,355.0,355.0,100.0,99.9,100.0,100.0,-2.3,-2.33,-1.23,-1.09,-0.1,-0.1,0.4,2.5,82.5,70.0,82.0,74.1,84.6,73.2,82.0,75.5,81.4,70.1,80.3,73.3,78.9,68.6,79.4,72.3,3.18,-3.27,0.06,0.08,0.0,86.2,84.41,79.29,79.29,174.7,27.6,0.9984487968844471,95.78705510812547,6.1217290601874,-25.207119810219183,36.01017164519044,1,5
295,14.7,484.8,44.053071109105765,-78.67908074579411,30.1,-2.6,9.1,-33.0,5592.9,5593.0,100.4,0.0,1.0,1.0,0.0,1.0,1.0,0.0,0.0,0.0,100.0,1.0,1.186,26.0,0.0,-1.338,50.194,66.0,0.0,26.0,26.0,26.0,26.0,-1.09,0.09,0.01,382.8,-2.21,-2.66,-0.83,-2.16,-419.75,517.4,3.2,0.0,0.0,0.0,0.0,0.28,-7.49,-7.49,-2.35,-0.78,-1.91,-1.3,27.88,-0.12,-0.28,23.58,100.0,0.0,0.0,79.19,0.0,0.0,0.0,0.0,0.0,0.0,0.0,6806.0,0.0,30.0,2.0,100.4,1.0,0.0,0.0,0.0,0.0,0.0,1.0,0.0,14.736,14.736,50.194,13.681,1.0,110.0,435.8,8750.0,0.0,0.0,110.0,110.0,433.0,0.0,0.0,0.0,1.0,166.7,75.5,75.5,74.1,74.1,34.0,-105.5,-18.77,-97.0,-20.6,3.0,-199.065,62.8,100.0,24.0,13.2,39.4,24.1,0.0,1.0,11.1,0.0,0.0,0.0,0.0,5557.0,1556.0,5501.0,2593.0,310.9,320.8,341.3,348.3,25.03,23.03,25.96,24.69,325.0,325.0,355.0,355.0,100.0,99.9,100.0,100.0,-2.59,-2.64,-1.4,-1.27,-0.1,-0.1,0.1,2.0,82.5,70.0,82.0,74.1,84.7,73.2,82.0,75.5,81.4,70.1,80.3,73.3,78.9,68.5,79.4,72.3,3.53,-3.66,0.06,0.08,0.0,86.51,84.49,79.52,78.87,174.7,27.6,1.0937549999885716,99.02797048790977,7.922237670898109,28.80813651951911,36.01017164519044,1,5
296,14.75,486.2,44.053058338738964,-78.67908182498005,27.6,0.3,6.6,-26.0,5594.3,5594.0,100.3,0.0,1.0,1.0,0.0,1.0,1.0,0.0,0.0,0.0,100.0,1.0,1.186,26.0,0.0,-1.347,50.194,66.0,0.0,26.0,26.0,26.0,26.0,-1.2,-0.21,-0.01,382.8,-2.2,-2.69,-0.75,-2.22,-419.87,515.98,3.1,0.0,0.0,0.0,0.0,0.28,-7.49,-7.49,-2.35,-1.1,-2.02,-1.11,27.84,-0.17,-0.3,27.17,100.0,0.0,0.0,77.86,0.0,0.0,0.0,0.0,0.0,0.0,0.0,6692.0,0.0,30.0,2.0,100.3,0.0,0.0,0.0,0.0,0.0,0.0,1.0,0.0,14.787,14.787,50.194,13.681,0.0,110.0,435.8,8750.0,0.0,0.0,110.0,110.0,433.0,0.0,0.0,0.0,1.0,333.3,74.4,74.4,75.1,75.1,34.0,-106.3,-17.96,-101.6,-23.8,3.0,-199.115,71.0,100.0,25.3,13.2,39.8,22.8,0.0,1.0,0.0,0.0,0.0,0.0,0.0,5848.0,1521.0,5462.0,2241.0,310.2,320.9,341.4,349.2,25.03,23.03,25.96,24.69,325.0,325.0,355.0,355.0,100.0,99.9,100.0,100.0,-2.96,-3.05,-1.66,-1.55,-0.1,0.0,-0.7,-0.4,82.5,70.0,82.0,74.0,84.7,73.2,82.0,75.5,81.4,70.0,80.3,73.2,79.0,68.5,79.4,72.2,3.98,-4.14,0.06,0.08,0.0,86.48,84.24,78.81,76.91,174.7,27.6,1.2182774724995944,98.66786876007738,9.722746224706444,-10.8030512659478,43.21220506379062,1,5
297,14.8,487.6,44.05304646769377,-78.67908317396245,29.9,4.2,2.6,-32.8,5595.7,5596.0,99.9,0.0,1.0,1.0,0.0,1.0,1.0,0.0,0.0,0.0,100.0,1.0,1.186,26.0,0.0,-1.365,50.194,66.0,0.0,26.0,26.0,26.0,26.0,-1.33,-0.21,0.0,382.6,-2.19,-2.72,-0.67,-2.28,-420.02,514.66,3.1,0.0,0.0,0.0,0.0,0.28,-7.49,-7.49,-2.35,-0.99,-2.13,-1.22,27.74,-0.24,-0.33,30.87,100.0,0.0,0.0,77.56,0.0,0.0,0.0,0.0,0.0,0.0,0.0,6666.0,0.0,30.0,2.0,99.9,1.0,0.0,0.0,0.0,0.0,0.0,1.0,0.0,14.834,14.834,50.194,13.681,1.0,110.0,435.8,8750.0,0.0,0.0,110.0,110.0,433.0,0.0,0.0,0.0,1.0,166.7,73.0,73.0,76.2,76.2,34.0,-104.0,-16.89,-108.1,-23.3,3.0,-199.165,79.2,100.0,26.8,13.4,39.9,21.2,0.0,1.0,0.0,0.0,0.0,0.0,0.0,6261.0,1526.0,5518.0,1982.0,309.1,320.8,341.3,349.8,25.03,23.03,25.96,24.69,325.0,325.0,355.0,355.0,100.0,99.9,100.0,100.0,-3.39,-3.51,-1.98,-1.89,-0.1,0.0,-0.7,-0.4,82.5,70.0,82.0,74.0,84.7,73.2,81.9,75.4,81.5,70.0,80.3,73.2,79.0,68.5,79.4,72.2,4.44,-4.65,0.06,0.09,0.0,86.27,83.7,78.69,76.44,174.7,27.6,1.3464768843169943,97.94766536131499,12.243458177277171,18.005085822595248,50.41423905141451,1,5
298,14.85,489.0,44.05303387719128,-78.67908488267351,27.6,-0.1,4.5,-31.4,5597.1,5597.0,99.5,0.0,1.0,1.0,0.0,1.0,1.0,0.0,0.0,0.0,100.0,1.0,1.186,26.0,0.0,-1.365,50.194,66.0,0.0,26.0,26.0,26.0,26.0,-1.43,-0.22,0.01,382.7,-2.18,-2.75,-0.58,-2.36,-420.21,513.26,3.1,0.0,0.0,0.0,0.0,0.28,-7.49,-7.49,-2.32,-0.42,-2.26,-0.96,27.62,-0.35,-0.34,34.48,100.0,0.0,0.0,77.22,0.0,0.0,0.0,0.0,0.0,0.0,0.0,6637.0,0.0,30.0,2.0,99.5,0.0,0.0,0.0,0.0,0.0,0.0,0.0,0.0,14.886,14.886,50.194,13.681,0.0,110.0,435.8,8750.0,0.0,0.0,110.0,110.0,433.0,0.0,0.0,0.0,1.0,333.3,72.3,72.3,76.9,76.9,34.0,-92.0,-12.25,-114.5,-22.6,3.0,-199.215,86.8,100.0,28.2,13.4,40.1,19.6,0.0,1.0,0.0,0.0,0.0,0.0,0.0,6489.0,1309.0,5699.0,1805.0,308.5,321.4,340.8,350.3,25.03,23.03,25.96,24.69,325.0,325.0,355.0,355.0,100.0,99.9,100.0,100.0,-3.85,-4.0,-2.38,-2.3,-0.2,0.0,-0.7,-0.4,82.5,70.0,82.0,74.0,84.8,73.2,82.0,75.4,81.5,70.0,80.3,73.2,79.0,68.5,79.4,72.2,4.86,-5.11,0.06,0.1,0.0,86.03,83.16,78.49,75.95,174.7,27.6,1.4468586662144993,100.46837734233691,14.764170129847896,-10.803051265947659,43.21220506379061,1,5
299,14.9,490.3,44.05302137662096,-78.67908686118103,1.8,-77.5,-13.3,-1.0,5598.5,5598.0,99.0,0.0,1.0,1.0,0.0,1.0,1.0,0.0,0.0,0.0,100.0,1.0,1.186,26.0,0.0,-1.377,50.194,66.0,0.0,26.0,26.0,26.0,26.0,-1.37,-0.2,-0.09,386.9,-2.3,-3.94,-0.65,-2.27,-420.43,511.87,3.0,0.0,0.0,0.0,0.0,0.29,-7.49,-7.49,-2.31,-1.82,-2.17,6.64,27.5,-0.52,-0.33,33.5,100.0,0.0,0.0,76.81,0.0,0.0,0.0,0.0,0.0,0.0,0.0,6602.0,0.0,30.0,2.0,99.0,1.0,0.0,0.0,0.0,0.0,0.0,0.0,0.0,14.937,14.937,50.194,13.681,1.0,110.0,435.8,8750.0,0.0,0.0,110.0,110.0,433.0,0.0,0.0,0.0,1.0,333.3,80.8,80.8,87.4,87.4,34.0,-56.3,0.0,-100.0,-31.8,3.0,-199.265,93.0,100.0,28.3,9.5,39.4,19.6,0.0,1.0,0.0,0.0,0.0,0.0,0.0,6446.0,0.0,5272.0,2290.0,308.6,325.0,341.8,349.1,25.03,23.03,25.96,24.68,325.0,325.0,355.0,355.0,100.0,99.9,100.0,100.0,-4.68,0.0,-2.82,-2.75,-0.2,0.0,-0.8,-0.4,82.5,69.9,82.0,74.0,84.8,73.1,82.0,75.4,81.6,70.0,80.3,73.2,79.1,68.4,79.4,72.1,5.22,-5.52,0.06,0.09,0.0,85.42,83.11,78.03,75.6,174.7,27.6,1.3874436925511608,96.86736023472022,16.564678683656233,-46.813222626626185,39.61118863900244,1,5
300,14.95,491.7,44.05300968544008,-78.67908901955289,1.3,-27.4,-62.0,49.3,5599.8,5600.0,98.6,0.0,1.0,1.0,0.0,1.0,1.0,0.0,0.0,0.0,100.0,1.0,1.186,26.0,0.0,-1.389,50.194,66.0,0.0,26.0,26.0,26.0,26.0,-1.42,-0.23,-0.09,391.6,-2.63,-2.25,-0.93,-1.98,-420.67,510.57,3.0,0.0,0.0,0.0,0.0,0.29,-7.49,-7.49,-2.37,-3.13,-1.89,6.7,27.38,-0.61,-0.35,31.68,100.0,0.0,0.0,76.39,0.0,0.0,0.0,0.0,0.0,0.0,0.0,6565.0,0.0,30.0,2.0,98.6,0.0,0.0,0.0,0.0,0.0,0.0,0.0,0.0,14.984,14.984,50.194,13.681,0.0,110.0,435.8,8750.0,0.0,0.0,110.0,110.0,433.0,0.0,0.0,0.0,1.0,333.3,89.3,89.3,102.1,102.1,34.0,-31.2,0.0,-80.1,-44.2,3.0,-199.315,97.8,100.0,28.4,8.2,36.3,22.1,0.0,1.0,0.0,0.0,0.0,0.0,0.0,6758.0,0.0,4564.0,2917.0,307.9,325.0,343.6,347.4,25.03,23.03,25.96,24.68,325.0,325.0,355.0,355.0,100.0,99.9,100.0,100.0,-5.3,0.0,-2.97,-2.89,-0.3,0.0,-1.0,-0.4,82.5,69.9,82.0,74.0,84.9,73.1,82.0,75.4,81.7,69.9,80.3,73.2,79.2,68.4,79.4,72.1,5.51,-5.83,0.07,0.09,0.0,84.79,83.11,77.5,75.28,174.7,27.6,1.4413188405068464,95.78705507967429,18.72528899374814,10.803050981435831,46.813222626626256,1,5
301,15.0,493.1,44.05299745466625,-78.67909153765339,-105.2,-15.0,-68.4,-62.8,5601.2,5601.0,98.2,0.0,1.0,1.0,0.0,1.0,1.0,0.0,0.0,0.0,100.0,1.0,1.186,26.0,0.0,-1.401,50.194,66.0,0.0,26.0,26.0,26.0,26.0,-0.79,-0.09,-0.41,398.1,-0.65,-1.9,-1.22,-3.1,-420.95,509.21,2.9,0.0,0.0,0.0,0.0,0.29,-7.49,-7.49,-2.49,-3.66,-1.55,10.59,27.27,-0.78,-0.31,29.92,100.0,0.0,0.0,76.69,0.0,0.0,0.0,0.0,0.0,0.0,0.0,6591.0,0.0,30.0,2.0,98.2,1.0,0.0,0.0,0.0,0.0,0.0,0.0,0.0,15.036,15.036,50.194,13.681,1.0,110.0,435.8,8750.0,0.0,0.0,110.0,110.0,433.0,0.0,0.0,0.0,1.0,333.3,97.0,97.0,94.2,94.2,34.0,-2.0,0.0,-70.5,-3.0,3.0,-199.365,101.5,100.0,23.1,7.4,32.9,18.9,0.0,1.0,12.3,0.0,0.0,0.0,0.0,1232.0,0.0,4294.0,336.0,321.1,325.0,344.3,353.7,25.03,23.03,25.96,24.68,325.0,325.0,355.0,355.0,100.0,99.9,100.0,100.0,-5.79,0.0,-3.26,-3.29,-0.0,0.0,-0.4,-0.3,82.4,69.9,82.0,74.0,85.0,73.0,82.0,75.3,81.7,69.9,80.3,73.1,79.2,68.3,79.4,72.1,5.74,-6.07,0.08,0.09,0.0,84.23,83.11,77.49,75.88,174.7,27.6,0.8945948803788226,97.9476653328638,21.24600094631886,-10.803050981435831,36.01017050714297,1,5
302,15.05,494.4,44.05298522389241,-78.67909432555037,-372.7,-22.6,-21.9,-242.4,5602.6,5603.0,98.3,0.0,1.0,1.0,0.0,1.0,1.0,0.0,0.0,0.0,100.0,1.0,1.186,26.0,0.0,-1.413,50.194,66.0,0.0,26.0,26.0,26.0,26.0,-1.05,0.26,-0.47,398.4,-2.61,-1.41,-1.78,-1.93,-421.26,507.85,2.9,0.0,0.0,0.0,0.0,0.29,-7.49,-7.49,-2.81,-8.63,-0.98,13.98,27.29,-1.08,-0.11,24.5,100.0,0.0,0.0,81.03,0.0,0.0,0.0,0.0,0.0,0.0,0.0,6964.0,0.0,30.0,2.0,98.3,0.0,0.0,0.0,0.0,0.0,0.0,0.0,0.0,15.087,15.087,50.194,13.681,0.0,110.0,435.8,8750.0,0.0,0.0,110.0,110.0,433.0,0.0,0.0,0.0,1.0,333.3,92.1,92.1,71.5,71.5,34.0,7.1,2.37,-55.2,-0.3,3.0,-199.415,103.5,100.0,4.5,6.3,31.8,6.8,0.0,1.0,52.3,0.0,0.0,0.0,0.0,2683.0,2370.0,5366.0,189.0,318.6,319.4,341.7,354.5,25.03,23.03,25.95,24.68,325.0,325.0,355.0,355.0,100.0,99.9,100.0,100.0,-7.31,-7.05,-3.73,-3.65,-0.2,1.1,4.2,7.0,82.4,69.9,82.0,74.0,85.0,73.0,82.0,75.3,81.7,69.8,80.4,73.1,79.2,68.3,79.4,72.1,5.95,-6.21,0.08,0.12,0.0,83.65,82.37,81.03,81.03,174.7,27.6,1.1794066304714417,94.7067499815307,22.326306044462438,-36.01017079165487,36.010171076166735,1,5
303,15.1,495.8,44.052973802508006,-78.67909711344734,338.6,368.4,94.7,114.4,5603.9,5604.0,98.9,0.0,1.0,1.0,0.0,1.0,1.0,0.0,0.0,0.0,100.0,1.0,1.186,26.0,0.0,-1.413,50.194,66.0,0.0,26.0,26.0,26.0,26.0,-1.65,0.31,0.31,382.0,-3.09,-1.81,0.36,-0.97,-421.57,506.58,2.8,0.0,0.0,0.0,0.0,0.29,-7.49,-7.49,-3.1,-3.21,-0.97,-10.45,27.45,-0.98,-0.31,32.96,100.0,0.0,0.0,82.13,0.0,0.0,0.0,0.0,0.0,0.0,0.0,7059.0,0.0,30.0,2.0,98.9,1.0,0.0,0.0,0.0,0.0,0.0,0.0,0.0,15.134,15.134,50.194,13.681,1.0,110.0,435.8,8750.0,0.0,0.0,110.0,110.0,433.0,0.0,0.0,0.0,1.0,333.3,65.2,65.2,69.8,69.8,34.0,7.4,-6.06,-35.2,-5.1,3.0,-199.465,103.1,100.0,21.4,24.7,36.6,12.5,0.0,1.0,89.8,0.0,0.0,0.0,0.0,5907.0,5159.0,3567.0,1975.0,310.2,311.1,345.2,349.8,25.03,23.03,25.95,24.68,325.0,325.0,355.0,355.0,100.0,99.9,100.0,100.0,-6.36,-6.41,-3.56,-3.41,-0.7,-0.5,4.5,8.1,82.4,69.9,82.0,74.0,85.0,73.0,82.1,75.3,81.8,69.9,80.4,73.1,79.3,68.4,79.5,72.1,5.86,-6.13,0.07,0.11,0.0,84.81,81.99,82.13,82.13,174.7,27.6,1.7072492495239233,94.34664825369832,24.847018053935532,21.606102247383348,68.4193251585216,1,5
304,15.15,497.2,44.05296166166633,-78.67910053086945,386.8,9.3,-145.5,20.3,5605.3,5605.0,99.2,0.0,1.0,1.0,0.0,1.0,1.0,0.0,0.0,0.0,100.0,1.0,1.186,26.0,0.0,-1.422,50.194,66.0,0.0,26.0,26.0,26.0,26.0,-1.96,0.35,0.33,376.2,-2.25,-3.3,-0.37,-2.34,-421.95,505.23,2.8,0.0,0.0,0.0,0.0,0.29,-7.49,-7.49,-2.8,10.88,-2.29,-31.29,27.54,-1.16,-0.32,49.25,100.0,0.0,0.0,82.53,0.0,0.0,0.0,0.0,0.0,0.0,0.0,7093.0,0.0,30.0,2.0,99.2,0.0,0.0,0.0,0.0,0.0,0.0,0.0,0.0,15.186,15.186,50.194,13.681,0.0,110.0,435.8,8750.0,0.0,0.0,110.0,110.0,433.0,0.0,0.0,0.0,1.0,333.3,55.0,55.0,83.7,83.7,34.0,-57.3,-8.58,-109.3,1.6,3.0,-199.515,98.6,100.0,40.7,25.2,29.3,13.5,1.0,1.0,100.0,0.0,0.0,0.0,0.0,9645.0,1731.0,8475.0,1726.0,300.7,319.9,334.8,350.5,25.03,23.03,25.95,24.68,325.0,325.0,355.0,355.0,100.0,99.9,100.0,100.0,-5.25,-5.4,-4.3,-4.29,-0.5,-0.2,2.4,13.1,82.4,69.9,82.0,74.0,85.2,73.1,82.1,75.3,81.9,70.0,80.5,73.1,79.4,68.4,79.5,72.1,5.61,-5.9,0.08,0.1,0.0,86.68,82.23,79.92,85.14,174.7,27.6,2.0181674856165928,96.86736020626904,29.1682385603146,-7.20203427213562,64.81830759568595,1,5
305,15.2,498.6,44.05294961075681,-78.67910439795234,119.2,-238.0,614.7,60.7,5606.7,5607.0,99.6,0.0,1.0,1.0,0.0,1.0,1.0,0.0,0.0,0.0,100.0,1.0,1.186,26.0,0.0,-1.431,50.194,66.0,0.0,26.0,26.0,26.0,26.0,-2.08,0.58,0.64,370.8,-1.17,-4.15,0.34,-3.6,-422.38,503.89,2.7,0.0,0.0,0.0,0.0,0.29,-7.49,-7.49,-2.08,10.97,-3.36,-2.59,27.64,-1.31,-0.32,48.21,100.0,0.0,0.0,83.95,0.0,0.0,0.0,0.0,0.0,0.0,0.0,7215.0,0.0,30.0,2.0,99.6,1.0,0.0,0.0,0.0,0.0,0.0,0.0,0.0,15.237,15.237,50.194,13.681,1.0,110.0,435.8,8750.0,0.0,0.0,110.0,110.0,433.0,0.0,0.0,0.0,1.0,333.3,65.9,65.9,63.1,63.1,34.0,-48.8,0.0,-120.7,2.5,3.0,-199.565,93.5,100.0,46.7,13.3,60.0,16.6,0.0,1.0,100.0,0.0,0.0,0.0,0.0,9871.0,0.0,11646.0,2302.0,299.6,325.0,326.3,349.1,25.03,23.03,25.95,24.68,325.0,325.0,355.0,355.0,100.0,99.9,100.0,100.0,-5.54,0.0,-4.88,-4.99,-0.4,0.0,3.1,12.6,82.4,69.9,82.0,74.0,85.3,73.1,82.2,75.3,82.1,69.9,80.6,73.1,79.5,68.4,79.7,72.1,5.33,-5.62,0.02,0.1,0.0,86.71,82.26,82.86,85.04,174.7,27.6,2.2521989254948154,93.62644482648476,31.328848813504127,-39.611187785466626,54.015257183273846,1,5
306,15.25,500.0,44.05293827930458,-78.67910835496741,-257.4,-29.4,55.6,115.8,5608.1,5608.0,100.0,0.0,1.0,1.0,0.0,1.0,1.0,0.0,0.0,0.0,100.0,1.0,1.186,26.0,0.0,-1.44,50.194,66.0,0.0,26.0,26.0,26.0,26.0,-1.8,0.48,0.3,379.7,-1.21,-3.79,0.06,-3.36,-422.82,502.63,2.7,0.0,0.0,0.0,0.0,0.29,-7.49,-7.49,-1.57,4.69,-2.96,17.11,27.76,-1.37,-0.35,37.64,100.0,0.0,0.0,82.88,0.0,0.0,0.0,0.0,0.0,0.0,0.0,7123.0,0.0,30.0,2.0,100.0,0.0,0.0,0.0,0.0,0.0,0.0,0.0,0.0,15.284,15.284,50.194,13.681,0.0,110.0,435.8,8750.0,0.0,0.0,110.0,110.0,433.0,0.0,0.0,0.0,1.0,333.3,85.8,85.8,61.5,61.5,34.0,-0.2,0.0,-104.9,-1.4,3.0,-199.615,92.0,100.0,33.8,11.8,62.8,22.3,0.0,1.0,100.0,0.0,0.0,0.0,0.0,5925.0,0.0,9885.0,2790.0,309.7,325.0,330.1,347.8,25.03,23.03,25.95,24.68,325.0,325.0,355.0,355.0,100.0,99.9,100.0,100.0,-6.28,0.0,-4.87,-4.96,-0.3,0.0,2.4,8.9,82.4,69.9,82.0,74.0,85.4,73.0,82.4,75.4,82.2,69.9,80.8,73.1,79.7,68.4,79.8,72.1,5.21,-5.5,0.02,0.08,0.0,86.12,82.26,83.11,82.65,174.7,27.6,1.8869022232219665,92.90624142772238,34.56976427864198,18.00508553808328,72.0203427213573,1,5
307,15.3,501.4,44.052926408259374,-78.67911303143977,-371.3,-75.8,-278.7,18.9,5609.5,5609.0,100.9,0.0,1.0,1.0,0.0,1.0,1.0,0.0,0.0,0.0,100.0,1.0,1.186,26.0,0.0,-1.452,50.194,66.0,0.0,26.0,26.0,26.0,26.0,-0.99,0.55,-0.32,394.6,-1.64,-2.87,-0.65,-2.55,-423.34,501.31,2.7,0.0,0.0,0.0,0.0,0.29,-7.49,-7.49,-1.43,-1.19,-2.0,19.24,28.0,-1.53,-0.25,28.76,100.0,0.0,0.0,85.13,0.0,0.0,0.0,0.0,0.0,0.0,0.0,7316.0,0.0,30.0,2.0,100.9,1.0,0.0,0.0,0.0,0.0,0.0,0.0,0.0,15.336,15.336,50.194,13.681,1.0,110.0,435.8,8750.0,0.0,0.0,110.0,110.0,433.0,0.0,0.0,0.0,1.0,166.7,102.7,102.7,74.4,74.4,34.0,5.2,0.0,-20.1,0.1,3.0,-199.665,95.1,100.0,15.3,8.0,48.9,23.3,0.0,1.0,100.0,0.0,0.0,0.0,0.0,2129.0,0.0,5544.0,2516.0,319.4,325.0,340.9,348.4,25.03,23.03,25.95,24.67,325.0,325.0,355.0,355.0,100.0,99.9,100.0,100.0,-7.22,0.0,-4.73,-4.81,-0.4,0.0,6.1,9.7,82.4,69.9,82.0,74.0,85.5,73.0,82.5,75.4,82.2,69.8,80.9,73.2,79.7,68.3,80.0,72.2,5.39,-5.65,0.04,0.08,0.0,86.07,82.26,85.13,85.13,174.7,27.6,1.176860229593982,95.42695338029309,38.53088308563986,-2.8451182743083336e-07,43.21220506379056,1,5
308,15.35,502.8,44.05291444728202,-78.6791179777086,-153.6,-55.3,-319.6,-29.3,5610.9,5611.0,101.7,0.0,1.0,1.0,0.0,1.0,1.0,0.0,0.0,0.0,100.0,1.0,1.186,26.0,0.0,-1.452,50.194,66.0,0.0,26.0,26.0,26.0,26.0,-0.68,0.48,-0.56,400.4,-2.02,-2.08,-1.04,-1.83,-423.89,499.98,2.6,0.0,0.0,0.0,0.0,0.29,-7.49,-7.49,-1.58,-5.7,-1.26,10.23,28.2,-1.77,-0.07,20.52,100.0,0.0,0.0,86.3,0.0,0.0,0.0,0.0,0.0,0.0,0.0,7417.0,0.0,30.0,2.0,101.7,0.0,0.0,0.0,0.0,0.0,0.0,1.0,0.0,15.387,15.387,50.194,13.681,0.0,110.0,435.8,8750.0,0.0,0.0,110.0,110.0,433.0,0.0,0.0,0.0,1.0,333.3,103.2,103.2,85.2,85.2,34.0,2.7,0.0,-11.9,2.5,3.0,-199.72,102.1,100.0,7.6,5.3,32.9,21.8,1.0,1.0,100.0,0.0,0.0,0.0,0.0,1236.0,0.0,3775.0,2492.0,322.0,325.0,345.6,348.6,25.03,23.02,25.95,24.67,325.0,325.0,355.0,355.0,100.0,99.9,100.0,100.0,-8.48,0.0,-4.74,-4.72,-0.3,0.0,5.9,11.5,82.4,69.9,82.0,74.0,85.5,72.9,82.6,75.5,82.2,69.8,80.9,73.2,79.7,68.3,80.0,72.2,5.8,-6.06,0.08,0.09,0.0,86.1,82.26,86.53,86.06,174.7,27.6,1.0031948963187562,92.9062413992712,38.89098478502104,-28.80813680403108,21.606102531895246,1,5
309,15.4,504.2,44.05290320576194,-78.67912274411312,91.5,-19.8,-94.2,-10.4,5612.3,5612.0,102.4,0.0,1.0,1.0,0.0,1.0,1.0,0.0,0.0,0.0,100.0,1.0,1.186,26.0,0.0,-1.461,50.194,66.0,0.0,26.0,26.0,26.0,26.0,-1.2,0.46,-0.23,393.0,-2.21,-1.97,-1.05,-1.75,-424.42,498.73,2.6,0.0,0.0,0.0,0.0,0.29,-7.49,-7.49,-1.89,-6.73,-1.03,1.45,28.39,-1.75,-0.03,18.01,100.0,0.0,0.0,86.09,0.0,0.0,0.0,0.0,0.0,0.0,0.0,7398.0,0.0,30.0,2.0,102.4,1.0,0.0,0.0,0.0,0.0,0.0,1.0,0.0,15.436,15.436,50.194,13.681,1.0,110.0,435.8,8750.0,0.0,0.0,110.0,110.0,433.0,0.0,0.0,0.0,1.0,333.3,86.8,86.8,86.5,86.5,34.0,15.3,2.35,-4.6,0.2,3.0,-199.765,109.9,100.0,12.2,4.3,28.2,21.3,1.0,1.0,100.0,0.0,0.0,0.0,0.0,4891.0,1282.0,4312.0,2801.0,312.8,321.9,344.4,347.7,25.03,23.02,25.95,24.67,325.0,325.0,355.0,355.0,100.0,99.9,100.0,100.0,-9.03,-9.17,-4.51,-4.4,-0.8,-2.9,8.2,10.2,82.4,69.9,81.9,74.0,85.6,72.9,82.6,75.5,82.3,69.7,81.0,73.3,79.8,68.2,80.1,72.2,6.2,-6.55,0.09,0.09,0.0,86.21,82.89,85.8,86.37,174.7,27.6,1.3055650117860849,92.54613969988998,40.69149333882938,21.606102816407144,61.217290601874126,1,5
310,15.45,505.6,44.05289133471675,-78.67912814004275,343.5,191.7,130.1,-4.6,5613.8,5614.0,103.0,0.0,1.0,1.0,0.0,1.0,1.0,0.0,0.0,0.0,100.0,1.0,1.186,26.0,0.0,-1.473,50.194,66.0,0.0,26.0,26.0,26.0,26.0,-1.77,0.47,0.28,380.6,-2.25,-2.63,-0.63,-2.15,-425.02,497.41,2.6,0.0,0.0,0.0,0.0,0.29,-7.49,-7.49,-2.09,-1.64,-1.38,-10.56,28.57,-1.48,-0.21,24.44,100.0,0.0,0.0,85.56,0.0,0.0,0.0,0.0,0.0,0.0,0.0,7353.0,0.0,30.0,2.0,103.0,0.0,0.0,0.0,0.0,0.0,0.0,1.0,0.0,15.486,15.486,50.194,13.681,0.0,110.0,435.8,8750.0,0.0,0.0,110.0,110.0,433.0,0.0,0.0,0.0,1.0,333.3,67.5,67.5,81.0,81.0,34.0,29.7,4.71,-48.3,-5.8,3.0,-199.815,114.2,100.0,29.3,13.8,34.7,21.1,0.0,1.0,82.8,0.0,0.0,0.0,0.0,8213.0,2119.0,6668.0,2412.0,304.4,319.2,338.5,348.7,25.03,23.02,25.95,24.67,325.0,325.0,355.0,355.0,100.0,99.91,100.0,100.0,-8.24,-8.52,-4.09,-3.95,-0.8,-0.8,5.6,8.0,82.4,69.9,81.9,73.9,85.7,72.9,82.7,75.5,82.4,69.8,81.1,73.3,79.9,68.3,80.1,72.3,6.41,-6.83,0.07,0.09,0.0,87.4,85.16,85.56,85.56,174.7,27.6,1.8526197667087545,95.06685168091191,45.01271384520845,-10.803051265947516,61.217290601874055,1,5
311,15.5,507.1,44.052879463671545,-78.67913398563319,216.6,21.8,248.2,-16.5,5615.2,5615.0,103.6,0.0,1.0,1.0,0.0,1.0,1.0,0.0,0.0,0.0,100.0,1.0,1.186,26.0,0.0,-1.485,50.194,66.0,0.0,26.0,26.0,26.0,26.0,-1.92,0.39,0.37,374.5,-1.84,-3.18,-0.26,-2.79,-425.67,496.09,2.5,0.0,0.0,0.0,0.0,0.3,-7.49,-7.49,-1.96,4.14,-1.81,-1.52,28.74,-1.27,-0.37,32.0,100.0,0.0,0.0,85.2,0.0,0.0,0.0,0.0,0.0,0.0,0.0,7322.0,0.0,30.0,2.0,103.6,1.0,0.0,0.0,0.0,0.0,0.0,1.0,0.0,15.537,15.537,50.194,13.681,1.0,110.0,435.8,8750.0,0.0,0.0,110.0,110.0,433.0,0.0,0.0,0.0,1.0,333.3,62.5,62.5,74.1,74.1,34.0,34.8,0.93,-98.4,-8.0,3.0,-199.865,114.8,100.0,40.2,14.9,47.1,20.3,0.0,1.0,73.8,0.0,0.0,0.0,0.0,9482.0,591.0,8112.0,2197.0,300.9,323.2,334.8,349.3,25.03,23.02,25.95,24.67,325.0,325.0,355.0,355.0,100.0,99.91,100.0,100.0,-7.51,-7.89,-4.04,-3.98,-0.7,-0.6,3.7,7.0,82.4,69.9,81.9,73.9,86.0,72.9,82.8,75.5,82.7,69.8,81.2,73.3,80.1,68.3,80.2,72.3,6.45,-6.89,0.05,0.08,0.0,88.59,85.72,85.2,85.2,174.7,27.6,1.9938405151867087,91.46583457329523,46.81322239901679,-50.414239620438366,50.41423962043815,1,5
312,15.55,508.5,44.052868491947955,-78.67913983122362,-27.7,-48.9,68.6,38.4,5616.6,5617.0,104.1,0.0,1.0,1.0,0.0,1.0,1.0,0.0,0.0,0.0,100.0,1.0,1.186,26.0,0.0,-1.5,50.194,66.0,0.0,26.0,26.0,26.0,26.0,-1.7,0.43,0.21,376.0,-1.97,-3.24,-0.46,-2.67,-426.32,494.87,2.5,0.0,0.0,0.0,0.0,0.3,-7.49,-7.49,-1.68,4.72,-1.53,12.41,28.91,-1.2,-0.38,30.99,100.0,0.0,0.0,85.25,0.0,0.0,0.0,0.0,0.0,0.0,0.0,7327.0,0.0,30.0,2.0,104.1,0.0,0.0,0.0,0.0,0.0,0.0,1.0,0.0,15.584,15.584,50.194,13.681,0.0,110.0,435.8,8750.0,0.0,0.0,110.0,110.0,433.0,0.0,0.0,0.0,1.0,166.7,68.6,68.6,70.8,70.8,34.0,25.7,0.0,-100.5,-16.2,3.0,-199.915,115.6,100.0,38.8,12.5,50.5,22.2,0.0,1.0,74.2,0.0,0.0,0.0,0.0,7278.0,0.0,7615.0,3235.0,306.4,325.0,335.9,346.7,25.03,23.02,25.95,24.67,325.0,325.0,355.0,355.0,100.0,99.91,100.0,100.0,-7.58,0.0,-4.02,-3.99,-0.5,0.0,3.1,6.4,82.4,69.9,81.9,73.9,86.1,72.9,82.9,75.6,82.8,69.8,81.3,73.3,80.3,68.2,80.3,72.3,6.49,-6.94,0.04,0.09,0.0,88.99,85.81,85.25,85.25,174.7,27.6,1.7660690813215658,90.02542771886807,50.05413780725227,7.202033987623793,75.62135971516909,1,5
313,15.6,510.0,44.0528569806314,-78.6791464862035,-183.5,-36.6,-74.4,81.3,5618.1,5618.0,104.8,0.0,1.0,1.0,0.0,1.0,1.0,0.0,0.0,0.0,100.0,1.0,1.186,26.0,0.0,-1.5,50.194,66.0,0.0,26.0,26.0,26.0,26.0,-1.5,0.43,0.04,380.6,-2.31,-2.62,-0.81,-2.32,-427.06,493.59,2.5,0.0,0.0,0.0,0.0,0.3,-7.49,-7.49,-1.46,2.7,-0.86,11.38,29.09,-1.15,-0.32,26.37,100.0,0.0,0.0,85.68,0.0,0.0,0.0,0.0,0.0,0.0,0.0,7364.0,0.0,30.0,2.0,104.8,1.0,0.0,0.0,0.0,0.0,0.0,1.0,0.0,15.636,15.636,50.194,13.681,1.0,110.0,435.8,8750.0,0.0,0.0,110.0,110.0,433.0,0.0,0.0,0.0,1.0,333.3,75.9,75.9,72.5,72.5,34.0,18.5,0.43,-76.7,-23.2,3.0,-199.965,118.2,100.0,29.6,10.7,46.8,26.2,0.0,1.0,75.8,0.0,0.0,0.0,0.0,5577.0,324.0,5833.0,3697.0,310.7,324.1,340.4,345.4,25.03,23.02,25.95,24.67,325.0,325.0,355.0,355.0,100.0,99.91,100.0,100.0,-7.83,-8.27,-3.7,-3.68,-0.6,-1.4,3.2,6.1,82.4,69.9,81.9,73.9,86.3,72.8,83.0,75.6,83.0,69.7,81.3,73.4,80.4,68.2,80.4,72.3,6.64,-7.09,0.05,0.07,0.0,89.23,86.14,85.68,85.68,174.7,27.6,1.560929210438449,92.1860379720576,54.3753583705337,-10.803051550459486,50.41423962043808,1,5
314,15.65,511.4,44.052845469314846,-78.67915341097988,-74.5,-16.4,-90.3,18.2,5619.6,5620.0,105.5,0.0,1.0,1.0,0.0,1.0,1.0,0.0,0.0,0.0,100.0,1.0,1.186,26.0,0.0,-1.512,50.194,66.0,0.0,26.0,26.0,26.0,26.0,-1.45,0.41,-0.05,382.9,-2.3,-2.36,-0.95,-2.27,-427.83,492.31,2.4,0.0,0.0,0.0,0.0,0.3,-7.49,-7.49,-1.36,1.02,-0.6,2.26,29.28,-1.07,-0.26,23.28,100.0,0.0,0.0,85.9,0.0,0.0,0.0,0.0,0.0,0.0,0.0,7382.0,0.0,30.0,2.0,105.5,0.0,0.0,0.0,0.0,0.0,0.0,1.0,0.0,15.687,15.687,50.194,13.681,0.0,110.0,435.8,8750.0,0.0,0.0,110.0,110.0,433.0,0.0,0.0,0.0,1.0,333.3,77.8,77.8,75.0,75.0,34.0,18.3,0.8,-86.6,-23.5,3.0,-200.02,122.3,100.0,25.9,9.8,42.3,27.2,0.0,1.0,66.4,0.0,0.0,0.0,0.0,5566.0,518.0,5845.0,3156.0,311.0,323.6,340.5,346.7,25.03,23.02,25.95,24.67,325.0,325.0,355.0,355.0,100.0,99.91,100.0,100.0,-7.96,-8.37,-3.28,-3.22,-0.6,-1.2,3.1,5.5,82.4,69.9,81.9,73.9,86.4,72.8,83.0,75.6,83.1,69.7,81.4,73.4,80.5,68.2,80.4,72.3,6.86,-7.33,0.06,0.07,0.0,89.61,87.01,85.9,85.9,174.7,27.6,1.5076803374721048,88.94512256382212,55.095561769296076,-46.81322205760253,32.40915351333122,1,5
315,15.7,512.9,44.052834767387736,-78.67916024582408,12.4,-6.4,-4.7,-37.4,5621.0,5621.0,106.0,0.0,1.0,1.0,0.0,1.0,1.0,0.0,0.0,0.0,100.0,1.0,1.186,26.0,0.0,-1.53,50.194,66.0,0.0,26.0,26.0,26.0,26.0,-1.58,0.33,0.08,382.5,-2.14,-2.51,-0.74,-2.34,-428.59,491.12,2.4,0.0,0.0,0.0,0.0,0.3,-7.49,-7.49,-1.3,1.1,-0.57,1.05,29.43,-0.93,-0.25,23.39,100.0,0.0,0.0,85.74,0.0,0.0,0.0,0.0,0.0,0.0,0.0,7369.0,0.0,30.0,2.0,106.0,1.0,0.0,0.0,0.0,0.0,0.0,1.0,0.0,15.734,15.734,50.194,13.681,1.0,110.0,435.8,8750.0,0.0,0.0,110.0,110.0,433.0,0.0,0.0,0.0,1.0,333.3,75.8,75.8,75.7,75.7,34.0,23.6,1.13,-112.1,-21.8,3.0,-200.065,128.1,100.0,26.5,9.5,42.1,25.3,0.0,1.0,50.4,0.0,0.0,0.0,0.0,6795.0,683.0,6411.0,2614.0,307.8,323.1,339.1,348.2,25.03,23.02,25.95,24.67,325.0,325.0,355.0,355.0,100.0,99.91,100.0,100.0,-7.98,-8.43,-2.98,-2.9,-0.6,-0.9,2.5,4.8,82.4,69.9,81.9,73.9,86.6,72.8,83.1,75.7,83.2,69.7,81.4,73.4,80.7,68.2,80.5,72.4,7.16,-7.69,0.06,0.08,0.0,90.04,87.7,85.74,85.74,174.7,27.6,1.6160754932861277,87.50471576629735,57.61627372186682,2.8451182743083336e-07,68.41932515852157,1,5
316,15.75,514.4,44.05282361579982,-78.67916780012557,47.7,14.0,26.3,-27.4,5622.5,5623.0,106.4,0.0,1.0,1.0,0.0,1.0,1.0,0.0,0.0,0.0,100.0,1.0,1.186,26.0,0.0,-1.545,50.194,66.0,0.0,26.0,26.0,26.0,26.0,-1.65,0.16,0.14,381.2,-2.2,-2.5,-0.71,-2.35,-429.43,489.88,2.4,0.0,0.0,0.0,0.0,0.3,-7.49,-7.49,-1.22,1.71,-0.5,2.88,29.54,-0.75,-0.27,24.38,100.0,0.0,0.0,84.77,0.0,0.0,0.0,0.0,0.0,0.0,0.0,7286.0,0.0,30.0,2.0,106.4,0.0,0.0,0.0,0.0,0.0,0.0,1.0,0.0,15.786,15.786,50.194,13.681,0.0,110.0,435.8,8750.0,0.0,0.0,110.0,110.0,433.0,0.0,0.0,0.0,1.0,333.3,73.5,73.5,74.3,74.3,34.0,24.8,1.72,-140.5,-29.0,3.0,-200.115,134.1,100.0,28.9,10.2,43.4,23.9,0.0,1.0,23.4,0.0,0.0,0.0,0.0,7076.0,957.0,6815.0,2698.0,307.1,322.4,338.1,348.0,25.03,23.02,25.95,24.67,325.0,325.0,355.0,355.0,100.0,99.91,100.0,100.0,-7.94,-8.41,-2.7,-2.6,-0.6,-0.6,1.1,3.4,82.5,69.9,81.9,73.9,86.8,72.8,83.1,75.7,83.4,69.7,81.4,73.4,80.8,68.2,80.5,72.3,7.5,-8.06,0.05,0.08,0.0,90.48,88.24,84.77,84.77,174.7,27.6,1.6636405861844077,88.94512259227331,61.93749428514823,-28.808137088542907,50.414239620438224,1,5
317,15.8,515.8,44.05281255414407,-78.6791757141557,25.0,25.5,22.2,-3.6,5624.0,5624.0,106.3,0.0,1.0,1.0,0.0,1.0,1.0,0.0,0.0,0.0,100.0,1.0,1.186,26.0,0.0,-1.566,50.194,66.0,0.0,26.0,26.0,26.0,26.0,-1.63,-0.09,0.14,380.7,-2.21,-2.54,-0.64,-2.43,-430.31,488.65,2.4,0.0,0.0,0.0,0.0,0.3,-7.49,-7.49,-1.13,1.44,-0.34,4.08,29.52,-0.57,-0.3,25.27,100.0,0.0,0.0,83.24,0.0,0.0,0.0,0.0,0.0,0.0,0.0,7154.0,0.0,30.0,2.0,106.3,1.0,0.0,0.0,0.0,0.0,0.0,1.0,0.0,15.837,15.837,50.194,13.681,1.0,110.0,435.8,8750.0,0.0,0.0,110.0,110.0,433.0,0.0,0.0,0.0,1.0,333.3,72.0,72.0,74.3,74.3,34.0,25.1,2.01,-134.4,-34.9,3.0,-200.17,138.7,100.0,30.1,11.5,44.5,23.7,0.0,1.0,4.4,0.0,0.0,0.0,0.0,7131.0,1070.0,6365.0,2568.0,306.9,322.1,339.1,348.4,25.03,23.02,25.95,24.67,325.0,325.0,355.0,355.0,100.0,99.91,100.0,100.0,-7.85,-8.36,-2.41,-2.31,-0.5,-0.4,0.2,0.7,82.5,69.9,81.9,73.9,86.9,72.8,83.1,75.6,83.6,69.7,81.5,73.4,81.0,68.2,80.5,72.3,7.75,-8.36,0.05,0.09,0.0,90.52,88.41,84.15,82.33,174.7,27.6,1.6384749006316819,84.62390205744306,62.65769768391064,-64.81830788019778,25.207119525707498,1,5
318,15.85,517.3,44.05280248174208,-78.67918344832151,12.5,27.3,-3.9,-1.2,5625.5,5625.0,105.9,0.0,1.0,1.0,0.0,1.0,1.0,0.0,0.0,0.0,100.0,1.0,1.186,26.0,0.0,-1.566,50.194,66.0,0.0,26.0,26.0,26.0,26.0,-1.62,-0.27,0.11,380.5,-2.34,-2.53,-0.59,-2.36,-431.17,487.53,2.4,0.0,0.0,0.0,0.0,0.3,-7.49,-7.49,-1.07,0.96,-0.18,3.57,29.39,-0.47,-0.32,28.08,100.0,0.0,0.0,82.61,0.0,0.0,0.0,0.0,0.0,0.0,0.0,7100.0,0.0,30.0,2.0,105.9,0.0,0.0,0.0,0.0,0.0,0.0,0.0,0.0,15.884,15.884,50.194,13.681,0.0,110.0,435.8,8750.0,0.0,0.0,110.0,110.0,433.0,0.0,0.0,0.0,1.0,333.3,70.6,70.6,74.5,74.5,34.0,24.9,2.85,-124.9,-33.6,3.0,-200.215,143.6,100.0,30.8,12.9,44.3,23.7,0.0,1.0,4.4,0.0,0.0,0.0,0.0,7067.0,1423.0,6035.0,2473.0,307.0,321.2,340.0,348.6,25.03,23.02,25.95,24.67,325.0,325.0,355.0,355.0,100.0,99.91,100.0,100.0,-7.76,-8.28,-2.31,-2.22,-0.5,-0.1,-0.3,-0.3,82.5,69.8,81.9,73.9,87.1,72.8,83.1,75.6,83.7,69.7,81.5,73.4,81.2,68.2,80.6,72.3,8.01,-8.64,0.05,0.08,0.0,90.28,88.11,83.75,81.47,174.7,27.6,1.646025516205627,82.46329180425353,64.45820623771898,-14.404068544271524,57.616273608062016,1,5
277,13.8,472.0,44.053210324090365,-78.67906860495243,-156.4,-140.6,299.0,-3.6,7302.1,7302.0,102.9,0.0,1.0,1.0,0.0,1.0,1.0,0.0,0.0,0.0,100.0,1.0,1.186,26.0,0.0,-0.345,48.272,66.0,0.0,26.0,26.0,26.0,26.0,-1.5,0.56,0.28,380.8,-1.54,-3.28,-0.25,-3.02,-418.4,532.88,3.7,0.0,0.0,0.0,0.0,0.27,-7.49,-7.49,-2.04,2.27,-2.4,0.17,28.59,-0.8,-0.2,22.21,100.0,0.0,0.0,82.61,0.0,0.0,0.0,0.0,0.0,0.0,0.0,7100.0,0.0,30.0,2.0,102.9,0.0,0.0,0.0,0.0,0.0,0.0,0.0,0.0,13.814,13.814,48.272,13.394,0.0,110.0,435.8,8750.0,0.0,0.0,110.0,110.0,433.0,0.0,0.0,0.0,1.0,333.3,86.9,86.9,58.2,58.2,34.0,-70.0,0.0,-185.1,-41.8,4.0,-246.415,54.0,100.0,25.4,9.1,57.3,22.9,0.0,1.0,60.9,0.0,0.0,0.0,0.0,4665.0,0.0,8800.0,4057.0,313.2,325.0,332.9,344.6,25.39,22.95,26.38,24.77,325.0,325.0,355.0,355.0,99.97,100.0,99.97,100.0,-3.48,0.0,-2.84,-2.65,-0.1,0.0,1.8,4.1,84.7,69.4,84.6,74.6,93.3,76.0,85.7,76.9,89.8,72.8,84.2,74.7,86.8,71.3,83.3,73.7,3.06,-3.15,0.02,0.08,0.0,88.55,85.93,82.61,82.61,174.7,27.6,1.625423021862309,98.3077670606962,10.082847867185267,-14.404068259759555,-50.41423962043819,1,5
278,13.85,473.4,44.05319800338437,-78.67906752576651,-137.8,-31.3,-105.0,30.7,7303.5,7304.0,103.7,0.0,1.0,1.0,0.0,1.0,1.0,0.0,0.0,0.0,100.0,1.0,1.186,26.0,0.0,-0.351,48.272,66.0,0.0,26.0,26.0,26.0,26.0,-0.99,0.49,-0.23,388.8,-1.53,-3.06,-0.46,-2.73,-418.28,531.51,3.6,0.0,0.0,0.0,0.0,0.27,-7.49,-7.49,-2.1,-4.84,-2.26,7.52,28.8,-0.69,-0.24,16.42,100.0,0.0,0.0,84.19,0.0,0.0,0.0,0.0,0.0,0.0,0.0,7236.0,0.0,30.0,2.0,103.7,1.0,0.0,0.0,0.0,0.0,0.0,0.0,0.0,13.863,13.863,48.272,13.394,1.0,110.0,435.8,8750.0,0.0,0.0,110.0,110.0,433.0,0.0,0.0,0.0,1.0,333.3,94.8,94.8,68.1,68.1,34.0,-38.9,0.0,-107.7,-12.0,4.0,-246.46,57.8,100.0,18.5,7.5,52.0,24.5,0.0,1.0,82.0,0.0,0.0,0.0,0.0,3393.0,0.0,6376.0,1815.0,316.4,325.0,339.1,350.2,25.39,22.95,26.38,24.77,325.0,325.0,355.0,355.0,99.97,100.0,99.97,100.0,-3.93,0.0,-2.29,-2.23,-0.2,0.0,2.9,4.8,84.7,69.4,84.6,74.6,93.3,76.0,85.7,76.9,89.8,72.8,84.2,74.7,86.8,71.2,83.3,73.7,3.29,-3.4,0.04,0.08,0.0,88.53,85.93,84.2,84.2,174.7,27.6,1.128317331250389,102.26888589614525,8.282339370279303,82.82339370279288,-32.409153513331084,1,5
279,13.9,474.9,44.053184783356755,-78.67906653651274,-76.2,-31.5,-294.1,-97.4,7305.0,7305.0,104.5,0.0,1.0,1.0,0.0,1.0,1.0,0.0,0.0,0.0,100.0,1.0,1.186,26.0,0.0,-0.357,48.272,66.0,0.0,26.0,26.0,26.0,26.0,-0.76,0.5,-0.42,393.5,-1.96,-2.48,-0.79,-2.12,-418.17,530.04,3.6,0.0,0.0,0.0,0.0,0.28,-7.49,-7.49,-2.38,-6.66,-1.73,12.68,29.03,-0.7,-0.19,16.26,100.0,0.0,0.0,85.89,0.0,0.0,0.0,0.0,0.0,0.0,0.0,7382.0,0.0,30.0,2.0,104.5,0.0,0.0,0.0,0.0,0.0,0.0,0.0,0.0,13.914,13.914,48.272,13.394,0.0,110.0,435.8,8750.0,0.0,0.0,110.0,110.0,433.0,0.0,0.0,0.0,1.0,333.3,91.9,91.9,80.0,80.0,34.0,-26.7,0.0,-48.3,-10.1,4.0,-246.515,59.0,100.0,14.7,5.9,37.3,19.6,0.0,1.0,75.8,0.0,0.0,0.0,0.0,2869.0,0.0,4240.0,2070.0,317.8,325.0,344.5,349.7,25.39,22.95,26.38,24.77,325.0,325.0,355.0,355.0,99.97,100.0,99.97,100.0,-4.19,0.0,-2.34,-2.27,-0.3,0.0,4.5,6.3,84.7,69.4,84.6,74.6,93.3,75.9,85.7,76.9,89.8,72.7,84.3,74.7,86.8,71.2,83.4,73.7,3.39,-3.51,0.07,0.09,0.0,89.12,85.93,85.89,85.89,174.7,27.6,1.0019980039900278,106.59010643097548,6.841932515852158,18.00508553808342,-36.01017164519046,1,5
280,13.95,476.3,44.05317138346483,-78.67906581705546,35.2,121.8,-158.6,9.3,7306.4,7306.0,105.3,0.0,1.0,1.0,0.0,1.0,1.0,0.0,0.0,0.0,100.0,1.0,1.186,26.0,0.0,-0.357,48.272,66.0,0.0,26.0,26.0,26.0,26.0,-1.23,0.49,-0.06,388.4,-2.38,-2.28,-1.08,-1.72,-418.09,528.55,3.5,0.0,0.0,0.0,0.0,0.28,-7.49,-7.49,-2.67,-4.18,-1.39,-2.06,29.26,-0.65,-0.2,20.4,100.0,0.0,0.0,85.58,0.0,0.0,0.0,0.0,0.0,0.0,0.0,7355.0,0.0,30.0,2.0,105.3,1.0,0.0,0.0,0.0,0.0,0.0,0.0,0.0,13.964,13.964,48.272,13.394,1.0,110.0,435.8,8750.0,0.0,0.0,110.0,110.0,433.0,0.0,0.0,0.0,1.0,333.3,79.2,79.2,82.2,82.2,34.0,-64.6,-30.2,-54.3,-21.0,4.0,-246.565,57.1,100.0,16.5,12.0,29.4,20.1,0.0,1.0,54.7,0.0,0.0,0.0,0.0,4889.0,2468.0,3998.0,3033.0,312.9,318.3,345.3,347.1,25.39,22.95,26.38,24.77,325.0,325.0,355.0,355.0,99.97,100.0,99.97,100.0,-3.75,-3.69,-2.29,-2.14,-0.3,-0.2,3.4,5.5,84.7,69.4,84.6,74.6,93.3,75.9,85.7,76.9,89.8,72.7,84.3,74.7,86.8,71.2,83.4,73.7,3.3,-3.4,0.09,0.09,0.0,90.28,88.53,85.58,85.58,174.7,27.6,1.3253678734600443,104.06939444995359,4.681322205760257,-18.00508553808328,-43.212205063790634,1,5
281,14.0,477.8,44.05315879296234,-78.67906536739466,195.6,64.9,102.8,-2.8,7307.9,7308.0,106.0,0.0,1.0,1.0,0.0,1.0,1.0,0.0,0.0,0.0,100.0,1.0,1.186,26.0,0.0,-0.363,48.272,66.0,0.0,26.0,26.0,26.0,26.0,-1.41,0.35,0.15,382.1,-2.13,-2.87,-0.68,-2.19,-418.04,527.15,3.5,0.0,0.0,0.0,0.0,0.28,-7.49,-7.49,-2.71,0.51,-1.92,-12.93,29.44,-0.58,-0.29,25.92,100.0,0.0,0.0,85.31,0.0,0.0,0.0,0.0,0.0,0.0,0.0,7332.0,0.0,30.0,2.0,106.0,0.0,0.0,0.0,0.0,0.0,0.0,0.0,0.0,14.013,14.013,48.272,13.394,0.0,110.0,435.8,8750.0,0.0,0.0,110.0,110.0,433.0,0.0,0.0,0.0,1.0,333.3,71.1,71.1,77.7,77.7,34.0,-129.6,-23.37,-121.5,-16.3,4.0,-246.615,51.5,100.0,26.2,15.3,34.5,19.9,0.0,1.0,47.6,0.0,0.0,0.0,0.0,6802.0,1844.0,6415.0,2132.0,308.0,319.8,339.3,349.4,25.4,22.95,26.38,24.77,325.0,325.0,355.0,355.0,99.97,100.0,99.97,100.0,-2.88,-2.84,-2.23,-2.05,-0.2,-0.1,1.9,4.4,84.7,69.4,84.6,74.6,93.3,75.9,85.7,76.9,89.8,72.7,84.3,74.7,86.9,71.1,83.4,73.7,2.99,-3.1,0.08,0.09,0.0,91.46,89.06,85.31,85.31,174.7,27.6,1.4605136082899055,104.78959787716715,2.520712009473095,46.81322234211436,-43.212205063790634,1,5
282,14.05,479.3,44.05314521320609,-78.67906518753033,108.7,-31.4,194.2,-12.2,7309.4,7309.0,106.5,0.0,1.0,1.0,0.0,1.0,1.0,0.0,0.0,0.0,100.0,1.0,1.186,26.0,0.0,-0.366,48.272,66.0,0.0,26.0,26.0,26.0,26.0,-1.4,0.31,0.16,379.0,-1.81,-3.29,-0.4,-2.6,-418.02,525.64,3.4,0.0,0.0,0.0,0.0,0.28,-7.49,-7.49,-2.55,2.59,-2.35,-0.04,29.59,-0.6,-0.32,27.66,100.0,0.0,0.0,85.39,0.0,0.0,0.0,0.0,0.0,0.0,0.0,7339.0,0.0,30.0,2.0,106.5,1.0,0.0,0.0,0.0,0.0,0.0,0.0,0.0,14.064,14.064,48.272,13.394,1.0,110.0,435.8,8750.0,0.0,0.0,110.0,110.0,433.0,0.0,0.0,0.0,1.0,333.3,70.9,70.9,71.9,71.9,34.0,-144.5,-4.28,-153.0,-20.4,4.0,-246.665,46.6,100.0,31.7,13.7,44.2,19.3,0.0,1.0,35.7,0.0,0.0,0.0,0.0,7131.0,495.0,7352.0,2356.0,307.0,323.6,336.9,349.0,25.4,22.95,26.38,24.77,325.0,325.0,355.0,355.0,99.97,100.0,99.97,100.0,-2.57,-2.59,-2.46,-2.34,-0.1,-0.2,1.3,4.0,84.7,69.4,84.6,74.5,93.4,75.9,85.7,76.9,89.8,72.6,84.3,74.7,86.9,71.1,83.4,73.7,2.7,-2.78,0.06,0.09,0.0,92.05,89.47,85.4,85.4,174.7,27.6,1.4428097587693256,108.75071668416503,0.36010169938119346,10.803050981435973,-3.601016993811932,1,5
283,14.1,480.8,44.053131633449844,-78.6790652774625,-33.3,-29.1,34.1,57.0,7310.9,7311.0,106.9,0.0,1.0,1.0,0.0,1.0,1.0,0.0,0.0,0.0,100.0,1.0,1.186,26.0,0.0,-0.372,48.272,66.0,0.0,26.0,26.0,26.0,26.0,-1.34,0.19,0.09,379.8,-1.97,-3.05,-0.61,-2.44,-418.03,524.13,3.4,0.0,0.0,0.0,0.0,0.28,-7.49,-7.49,-2.42,0.54,-2.17,5.88,29.7,-0.59,-0.32,23.81,100.0,0.0,0.0,84.79,0.0,0.0,0.0,0.0,0.0,0.0,0.0,7287.0,0.0,30.0,2.0,106.9,0.0,0.0,0.0,0.0,0.0,0.0,1.0,0.0,14.116,14.116,48.272,13.394,0.0,110.0,435.8,8750.0,0.0,0.0,110.0,110.0,433.0,0.0,0.0,0.0,1.0,333.3,74.1,74.1,70.1,70.1,34.0,-99.8,-9.31,-131.9,-35.7,4.0,-246.715,47.7,100.0,30.0,12.2,45.9,22.2,0.0,1.0,21.4,0.0,0.0,0.0,0.0,5452.0,918.0,6309.0,3084.0,311.3,322.6,339.4,347.0,25.4,22.95,26.38,24.77,325.0,325.0,355.0,355.0,99.97,100.0,99.97,100.0,-2.81,-2.86,-2.39,-2.27,-0.1,-0.2,0.4,2.8,84.8,69.4,84.6,74.5,93.4,75.8,85.8,76.9,89.8,72.6,84.3,74.7,86.9,71.1,83.4,73.7,2.72,-2.8,0.05,0.09,0.0,92.06,89.93,84.79,84.79,174.7,27.6,1.35639227364358,105.86990297531075,2.1606103100919016,-28.808137088542765,43.212205063790634,1,5
284,14.15,482.2,44.053118773150885,-78.6790657271233,-56.7,-1.5,-51.4,26.2,7312.4,7312.0,107.1,0.0,1.0,1.0,0.0,1.0,1.0,0.0,0.0,0.0,100.0,1.0,1.186,26.0,0.0,-0.375,48.272,66.0,0.0,26.0,26.0,26.0,26.0,-1.27,0.08,-0.05,381.6,-2.09,-2.86,-0.74,-2.3,-418.08,522.7,3.3,0.0,0.0,0.0,0.0,0.28,-7.49,-7.49,-2.4,-1.24,-2.05,1.05,29.75,-0.54,-0.32,22.0,100.0,0.0,0.0,84.36,0.0,0.0,0.0,0.0,0.0,0.0,0.0,7250.0,0.0,30.0,2.0,107.1,1.0,0.0,0.0,0.0,0.0,0.0,1.0,0.0,14.163,14.163,48.272,13.394,1.0,110.0,435.8,8750.0,0.0,0.0,110.0,110.0,433.0,0.0,0.0,0.0,1.0,333.3,75.3,75.3,72.4,72.4,34.0,-90.9,-14.19,-112.2,-32.1,4.0,-246.765,52.7,100.0,27.2,12.2,43.4,23.5,0.0,1.0,8.3,0.0,0.0,0.0,0.0,5236.0,1268.0,5576.0,2638.0,311.9,321.5,341.3,348.1,25.4,22.95,26.38,24.77,325.0,325.0,355.0,355.0,99.97,100.0,99.97,100.0,-3.01,-3.07,-2.15,-2.03,-0.1,-0.1,0.2,1.7,84.8,69.4,84.6,74.5,93.4,75.8,85.8,76.8,89.8,72.6,84.3,74.6,86.9,71.0,83.4,73.7,2.97,-3.08,0.05,0.08,0.0,92.04,90.18,84.83,83.88,174.7,27.6,1.2734991166074674,105.86990297531075,4.681322205760257,28.808137088542765,46.81322148857886,1,5
285,14.2,483.7,44.053105193394636,-78.67906644658058,-11.2,4.9,-40.3,-30.6,7313.8,7314.0,106.9,0.0,1.0,1.0,0.0,1.0,1.0,0.0,0.0,0.0,100.0,1.0,1.186,26.0,0.0,-0.381,48.272,66.0,0.0,26.0,26.0,26.0,26.0,-1.31,-0.22,-0.05,382.5,-2.07,-2.86,-0.67,-2.32,-418.16,521.19,3.3,0.0,0.0,0.0,0.0,0.28,-7.49,-7.49,-2.44,-1.86,-2.12,-0.84,29.69,-0.5,-0.34,23.6,100.0,0.0,0.0,82.91,0.0,0.0,0.0,0.0,0.0,0.0,0.0,7126.0,0.0,30.0,2.0,106.9,0.0,0.0,0.0,0.0,0.0,0.0,1.0,0.0,14.214,14.214,48.272,13.394,0.0,110.0,435.8,8750.0,0.0,0.0,110.0,110.0,433.0,0.0,0.0,0.0,1.0,333.3,74.1,74.1,75.3,75.3,34.0,-104.3,-15.4,-106.8,-22.8,4.0,-246.815,60.5,100.0,26.6,12.4,41.4,22.0,0.0,1.0,0.0,0.0,0.0,0.0,0.0,6120.0,1383.0,5466.0,1917.0,309.7,321.2,341.6,350.0,25.4,22.95,26.38,24.77,325.0,325.0,355.0,355.0,99.97,100.0,99.97,100.0,-3.25,-3.32,-2.07,-1.96,-0.1,0.0,-0.8,-0.5,84.8,69.4,84.6,74.5,93.4,75.8,85.8,76.8,89.9,72.5,84.3,74.6,86.9,71.0,83.4,73.6,3.4,-3.52,0.05,0.09,0.0,91.91,89.96,83.73,82.1,174.7,27.6,1.3292855223765887,108.75071668416503,6.841932458949788,-7.202033987623935,43.21220563281436,1,5
286,14.25,485.2,44.05309161363839,-78.67906743583434,28.4,14.9,-21.1,-43.8,7315.3,7315.0,106.5,0.0,1.0,1.0,0.0,1.0,1.0,0.0,0.0,0.0,100.0,1.0,1.186,26.0,0.0,-0.381,48.272,66.0,0.0,26.0,26.0,26.0,26.0,-1.38,-0.2,-0.02,382.5,-2.09,-2.87,-0.61,-2.35,-418.27,519.68,3.2,0.0,0.0,0.0,0.0,0.28,-7.49,-7.49,-2.47,-0.87,-2.2,-0.15,29.57,-0.49,-0.37,27.24,100.0,0.0,0.0,82.6,0.0,0.0,0.0,0.0,0.0,0.0,0.0,7099.0,0.0,30.0,2.0,106.5,1.0,0.0,0.0,0.0,0.0,0.0,1.0,0.0,14.264,14.264,48.272,13.394,1.0,110.0,435.8,8750.0,0.0,0.0,110.0,110.0,433.0,0.0,0.0,0.0,1.0,333.3,72.4,72.4,76.9,76.9,34.0,-103.3,-15.72,-108.6,-21.8,4.0,-246.865,68.2,100.0,28.0,13.2,40.3,19.8,0.0,1.0,0.0,0.0,0.0,0.0,0.0,6475.0,1461.0,5512.0,1811.0,308.8,321.0,341.5,350.3,25.41,22.95,26.38,24.76,325.0,325.0,355.0,355.0,99.97,100.0,99.97,100.0,-3.53,-3.61,-2.23,-2.11,-0.1,0.0,-0.8,-0.5,84.8,69.4,84.6,74.5,93.5,75.8,85.8,76.8,89.9,72.5,84.3,74.6,87.0,71.0,83.4,73.6,3.83,-3.99,0.06,0.09,0.0,91.67,89.45,83.57,81.63,174.7,27.6,1.3945608627808252,105.14969957654836,9.002542769041693,-46.81322234211436,46.81322319564995,1,5
287,14.3,486.7,44.05307893320374,-78.67906869488459,15.6,4.1,-1.5,-14.9,7316.8,7317.0,106.1,0.0,1.0,1.0,0.0,1.0,1.0,0.0,0.0,0.0,100.0,1.0,1.186,26.0,0.0,-0.381,48.272,66.0,0.0,26.0,26.0,26.0,26.0,-1.45,-0.24,0.0,382.4,-2.11,-2.87,-0.56,-2.37,-418.41,518.27,3.2,0.0,0.0,0.0,0.0,0.28,-7.49,-7.49,-2.43,0.0,-2.27,-0.09,29.45,-0.53,-0.37,30.36,100.0,0.0,0.0,82.28,0.0,0.0,0.0,0.0,0.0,0.0,0.0,7072.0,0.0,30.0,2.0,106.1,0.0,0.0,0.0,0.0,0.0,0.0,1.0,0.0,14.313,14.313,48.272,13.394,0.0,110.0,435.8,8750.0,0.0,0.0,110.0,110.0,433.0,0.0,0.0,0.0,1.0,333.3,72.1,72.1,77.0,77.0,34.0,-94.7,-13.47,-113.7,-23.6,4.0,-246.915,73.8,100.0,28.8,13.4,40.2,19.0,0.0,1.0,0.0,0.0,0.0,0.0,0.0,6526.0,1368.0,5717.0,1862.0,308.6,321.3,341.0,350.2,25.41,22.95,26.38,24.76,325.0,325.0,355.0,355.0,99.97,100.0,99.97,100.0,-3.78,-3.89,-2.45,-2.34,-0.2,0.0,-0.8,-0.5,84.8,69.4,84.6,74.5,93.5,75.7,85.8,76.8,89.9,72.5,84.3,74.6,87.0,71.0,83.4,73.6,4.16,-4.34,0.06,0.09,0.0,91.44,88.92,83.4,81.16,174.7,27.6,1.4697278659670299,104.06939444995359,11.523254778514783,14.40406854427124,54.01525661425012,1,5
288,14.35,488.2,44.053065623243974,-78.67907031366349,3.2,-4.2,8.9,-2.2,7318.3,7318.0,105.6,0.0,1.0,1.0,0.0,1.0,1.0,0.0,0.0,0.0,100.0,1.0,1.186,26.0,0.0,-0.384,48.272,66.0,0.0,26.0,26.0,26.0,26.0,-1.51,-0.22,-0.02,382.5,-2.1,-2.86,-0.53,-2.39,-418.59,516.79,3.1,0.0,0.0,0.0,0.0,0.28,-7.49,-7.49,-2.36,0.13,-2.33,0.08,29.31,-0.62,-0.37,32.48,100.0,0.0,0.0,81.9,0.0,0.0,0.0,0.0,0.0,0.0,0.0,7039.0,0.0,30.0,2.0,105.6,1.0,0.0,0.0,0.0,0.0,0.0,1.0,0.0,14.364,14.364,48.272,13.394,1.0,110.0,435.8,8750.0,0.0,0.0,110.0,110.0,433.0,0.0,0.0,0.0,1.0,333.3,72.5,72.5,76.7,76.7,34.0,-81.2,-9.19,-116.0,-24.0,4.0,-246.965,78.6,100.0,29.0,13.1,40.7,18.9,0.0,1.0,0.0,0.0,0.0,0.0,0.0,6508.0,1105.0,5901.0,1850.0,308.7,322.0,340.5,350.2,25.41,22.95,26.38,24.76,325.0,325.0,355.0,355.0,99.97,100.0,99.97,100.0,-4.11,-4.24,-2.72,-2.63,-0.2,0.0,-0.8,-0.5,84.8,69.4,84.6,74.5,93.5,75.7,85.8,76.7,90.0,72.5,84.3,74.5,87.1,71.0,83.4,73.5,4.42,-4.64,0.06,0.09,0.0,91.09,88.4,83.1,80.7,174.7,27.6,1.526073392730507,106.59010643097548,14.404068430466705,18.00508553808342,57.61627360806209,1,5
289,14.4,489.6,44.053052313284205,-78.67907229217101,-1.6,-8.4,8.2,-2.3,7319.7,7320.0,105.1,0.0,1.0,1.0,0.0,1.0,1.0,0.0,0.0,0.0,100.0,1.0,1.186,26.0,0.0,-0.387,48.272,66.0,0.0,26.0,26.0,26.0,26.0,-1.52,-0.22,0.0,382.7,-2.1,-2.83,-0.51,-2.42,-418.81,515.31,3.1,0.0,0.0,0.0,0.0,0.28,-7.49,-7.49,-2.29,-0.31,-2.39,0.56,29.18,-0.72,-0.36,33.57,100.0,0.0,0.0,81.68,0.0,0.0,0.0,0.0,0.0,0.0,0.0,7020.0,0.0,30.0,2.0,105.1,0.0,0.0,0.0,0.0,0.0,0.0,1.0,0.0,14.414,14.414,48.272,13.394,0.0,110.0,435.8,8750.0,0.0,0.0,110.0,110.0,433.0,0.0,0.0,0.0,1.0,333.3,72.9,72.9,76.6,76.6,34.0,-63.6,-6.96,-112.8,-23.6,4.0,-247.015,82.9,100.0,28.9,12.7,41.1,18.8,0.0,1.0,4.0,0.0,0.0,0.0,0.0,6489.0,1040.0,5912.0,1831.0,308.7,322.2,340.5,350.3,25.41,22.95,26.38,24.76,325.0,325.0,355.0,355.0,99.97,100.0,99.97,100.0,-4.51,-4.67,-2.98,-2.92,-0.2,0.1,-0.7,-0.5,84.8,69.4,84.6,74.5,93.6,75.7,85.8,76.7,90.1,72.5,84.4,74.5,87.1,70.9,83.5,73.5,4.68,-4.91,0.06,0.09,0.0,90.64,87.89,83.22,80.15,174.7,27.6,1.5358385331798392,105.86990300376193,17.28488213932099,-46.813222626626185,50.41423962043815,1,5
290,14.45,491.1,44.05303918318876,-78.6790746304072,-1.0,-6.2,2.9,-8.0,7321.2,7321.0,104.9,0.0,1.0,1.0,0.0,1.0,1.0,0.0,0.0,0.0,100.0,1.0,1.186,26.0,0.0,-0.387,48.272,66.0,0.0,26.0,26.0,26.0,26.0,-1.56,0.05,-0.02,382.8,-2.1,-2.81,-0.5,-2.43,-419.07,513.85,3.1,0.0,0.0,0.0,0.0,0.28,-7.49,-7.49,-2.22,0.39,-2.44,0.13,29.12,-0.83,-0.36,34.22,100.0,0.0,0.0,83.97,0.0,0.0,0.0,0.0,0.0,0.0,0.0,7217.0,0.0,30.0,2.0,104.9,1.0,0.0,0.0,0.0,0.0,0.0,1.0,0.0,14.466,14.466,48.272,13.394,1.0,110.0,435.8,8750.0,0.0,0.0,110.0,110.0,433.0,0.0,0.0,0.0,1.0,166.7,73.2,73.2,76.4,76.4,34.0,-46.2,-4.81,-112.4,-17.1,4.0,-247.065,87.0,100.0,28.8,12.4,41.2,18.4,0.0,1.0,31.7,0.0,0.0,0.0,0.0,6523.0,943.0,6034.0,1934.0,308.6,322.4,340.2,350.0,25.42,22.95,26.38,24.76,325.0,325.0,355.0,355.0,99.97,100.0,99.97,100.0,-4.92,-5.1,-3.23,-3.16,-0.3,-0.1,0.4,4.0,84.8,69.4,84.6,74.5,93.7,75.7,85.8,76.7,90.1,72.4,84.4,74.5,87.2,70.9,83.5,73.5,4.91,-5.16,0.06,0.09,0.0,90.4,87.52,83.97,83.97,174.7,27.6,1.5609292104384491,101.90878416831286,19.44549239251052,-39.61118835449071,46.813222057602566,1,5
291,14.5,492.5,44.05302686248276,-78.67907714850769,-7.8,-17.3,5.6,2.2,7322.6,7323.0,105.1,0.0,1.0,1.0,0.0,1.0,1.0,0.0,0.0,0.0,100.0,1.0,1.186,26.0,0.0,-0.39,48.272,66.0,0.0,26.0,26.0,26.0,26.0,-1.5,0.29,-0.08,383.2,-2.09,-2.77,-0.48,-2.45,-419.35,512.48,3.0,0.0,0.0,0.0,0.0,0.29,-7.49,-7.49,-2.11,1.23,-2.47,1.22,29.2,-0.95,-0.34,34.35,100.0,0.0,0.0,85.64,0.0,0.0,0.0,0.0,0.0,0.0,0.0,7360.0,0.0,30.0,2.0,105.1,0.0,0.0,0.0,0.0,0.0,0.0,1.0,0.0,14.514,14.514,48.272,13.394,0.0,110.0,435.8,8750.0,0.0,0.0,110.0,110.0,433.0,0.0,0.0,0.0,1.0,333.3,75.0,75.0,75.4,75.4,34.0,-28.9,-1.94,-102.9,-12.8,4.0,-247.115,88.3,100.0,28.4,11.6,41.5,18.5,0.0,1.0,58.6,0.0,0.0,0.0,0.0,6033.0,582.0,6389.0,2204.0,309.8,323.4,339.3,349.3,25.42,22.95,26.38,24.76,325.0,325.0,355.0,355.0,99.97,100.0,99.97,100.0,-5.25,-5.47,-3.46,-3.41,-0.4,-0.3,2.3,5.9,84.9,69.5,84.6,74.5,93.8,75.6,85.9,76.7,90.2,72.4,84.4,74.5,87.2,70.9,83.5,73.5,5.0,-5.26,0.06,0.08,0.0,90.56,87.55,85.64,85.64,174.7,27.6,1.529869275461142,101.90878416831286,21.96620434508125,32.409154082354945,57.61627360806212,1,5
292,14.55,494.0,44.05301373238731,-78.67908011626899,-31.6,-32.6,10.0,20.6,7324.1,7324.0,105.8,0.0,1.0,1.0,0.0,1.0,1.0,0.0,0.0,0.0,100.0,1.0,1.186,26.0,0.0,-0.393,48.272,66.0,0.0,26.0,26.0,26.0,26.0,-1.38,0.45,-0.03,385.2,-2.11,-4.84,-0.55,-2.41,-419.68,511.02,3.0,0.0,0.0,0.0,0.0,0.29,-7.49,-7.49,-1.98,0.58,-2.44,2.61,29.37,-1.1,-0.3,32.94,100.0,0.0,0.0,86.96,0.0,0.0,0.0,0.0,0.0,0.0,0.0,7473.0,0.0,30.0,2.0,105.8,1.0,0.0,0.0,0.0,0.0,0.0,1.0,0.0,14.564,14.564,48.272,13.394,1.0,110.0,435.8,8750.0,0.0,0.0,110.0,110.0,433.0,0.0,0.0,0.0,1.0,333.3,80.4,80.4,77.5,77.5,34.0,-14.1,0.0,-84.0,-11.0,4.0,-247.165,88.2,100.0,26.9,9.9,42.0,19.5,0.0,1.0,85.5,0.0,0.0,0.0,0.0,5589.0,0.0,6461.0,2619.0,311.0,325.0,339.1,348.2,25.42,22.95,26.38,24.76,325.0,325.0,355.0,355.0,99.97,100.0,99.97,100.0,-5.63,0.0,-3.71,-3.66,-0.4,0.0,3.4,7.0,84.9,69.5,84.6,74.5,93.8,75.6,85.9,76.7,90.3,72.4,84.5,74.5,87.3,70.9,83.6,73.5,5.0,-5.27,0.06,0.09,0.0,90.9,87.75,86.96,86.96,174.7,27.6,1.4518264359075432,105.14969957654836,25.207119753316732,2.8451182743083336e-07,50.41423962043819,1,5
293,14.6,495.5,44.05300060229187,-78.67908344375893,-32.4,-34.9,-13.0,34.2,7325.6,7326.0,106.6,0.0,1.0,1.0,0.0,1.0,1.0,0.0,0.0,0.0,100.0,1.0,1.186,26.0,0.0,-0.393,48.272,66.0,0.0,26.0,26.0,26.0,26.0,-1.31,0.58,-0.08,394.7,-2.23,-4.79,-0.69,-2.27,-420.05,509.56,2.9,0.0,0.0,0.0,0.0,0.29,-7.49,-7.49,-1.93,-0.6,-2.29,4.64,29.59,-1.25,-0.28,29.79,100.0,0.0,0.0,88.6,0.0,0.0,0.0,0.0,0.0,0.0,0.0,7614.0,0.0,30.0,2.0,106.6,0.0,0.0,0.0,0.0,0.0,0.0,0.0,0.0,14.616,14.616,48.272,13.394,0.0,110.0,435.8,8750.0,0.0,0.0,110.0,110.0,433.0,0.0,0.0,0.0,1.0,166.7,100.6,100.6,97.9,97.9,34.0,-0.7,0.0,-55.0,-8.5,4.0,-247.215,88.2,100.0,25.2,8.2,41.4,21.3,0.0,1.0,100.0,0.0,0.0,0.0,0.0,5365.0,0.0,5998.0,3084.0,311.5,325.0,340.2,347.1,25.42,22.95,26.38,24.76,325.0,325.0,355.0,355.0,99.97,100.0,99.97,100.0,-6.09,0.0,-3.86,-3.81,-0.4,0.0,4.8,8.1,84.9,69.5,84.6,74.5,93.9,75.6,86.0,76.7,90.3,72.3,84.6,74.5,87.4,70.8,83.7,73.5,5.0,-5.27,0.06,0.08,0.0,91.25,87.75,88.6,88.6,174.7,27.6,1.434886755113448,101.90878419676405,27.007628307125067,-28.80813680403108,39.61118863900236,1,5
294,14.65,497.0,44.05298828158586,-78.67908686118103,-195.8,-25.7,-31.2,28.3,7327.1,7327.0,107.5,0.0,1.0,1.0,0.0,1.0,1.0,0.0,0.0,0.0,100.0,1.0,1.186,26.0,0.0,-0.396,48.272,66.0,0.0,26.0,26.0,26.0,26.0,-0.61,0.57,-0.43,404.1,-0.18,-2.43,-0.86,-3.47,-420.43,508.19,2.9,0.0,0.0,0.0,0.0,0.29,-7.49,-7.49,-1.93,-2.54,-2.12,4.31,29.84,-1.42,-0.25,24.27,100.0,0.0,0.0,89.77,0.0,0.0,0.0,0.0,0.0,0.0,0.0,7715.0,0.0,30.0,2.0,107.5,1.0,0.0,0.0,0.0,0.0,0.0,0.0,0.0,14.664,14.664,48.272,13.394,1.0,110.0,435.8,8750.0,0.0,0.0,110.0,110.0,433.0,0.0,0.0,0.0,1.0,333.3,118.2,118.2,91.2,91.2,34.0,0.0,0.0,-41.8,-3.7,4.0,-247.265,88.3,100.0,15.5,6.9,39.8,22.7,0.0,1.0,100.0,0.0,0.0,0.0,0.0,0.0,0.0,5718.0,1683.0,325.0,325.0,340.9,350.3,25.42,22.95,26.38,24.76,325.0,325.0,355.0,355.0,99.97,100.0,99.97,100.0,0.0,0.0,-3.91,-3.91,0.0,0.0,5.5,8.2,84.9,69.5,84.6,74.5,93.9,75.5,86.1,76.8,90.4,72.3,84.6,74.6,87.4,70.8,83.7,73.6,5.06,-5.29,0.06,0.08,0.0,91.59,87.75,89.77,89.77,174.7,27.6,0.9390953093270139,102.26888589614525,29.168238617216968,10.803050981435831,32.4091540823548,1,5
295,14.7,498.5,44.05297506155826,-78.67909072826394,-275.7,-42.8,-20.5,-240.4,7328.6,7329.0,108.3,0.0,1.0,1.0,0.0,1.0,1.0,0.0,0.0,0.0,100.0,1.0,1.186,26.0,0.0,-0.402,48.272,66.0,0.0,26.0,26.0,26.0,26.0,-0.44,0.44,-0.7,413.0,-1.74,-2.19,-1.13,-5.11,-420.86,506.72,2.9,0.0,0.0,0.0,0.0,0.29,-7.49,-7.49,-2.23,-9.35,-1.81,12.84,30.05,-1.7,-0.09,16.31,100.0,0.0,0.0,93.82,0.0,0.0,0.0,0.0,0.0,0.0,0.0,8063.0,0.0,30.0,2.0,108.3,0.0,0.0,0.0,0.0,0.0,0.0,0.0,0.0,14.714,14.714,48.272,13.394,0.0,110.0,435.8,8750.0,0.0,0.0,110.0,110.0,433.0,0.0,0.0,0.0,1.0,333.3,119.9,119.9,75.1,75.1,34.0,0.0,0.0,-15.6,0.0,4.0,-247.315,91.7,100.0,1.7,4.8,38.8,10.6,0.0,1.0,100.0,0.0,0.0,0.0,0.0,0.0,0.0,6036.0,0.0,325.0,325.0,340.2,355.0,25.42,22.95,26.38,24.76,325.0,325.0,355.0,355.0,99.97,100.0,99.97,100.0,0.0,0.0,-4.18,0.0,0.0,0.0,7.8,0.0,84.9,69.5,84.6,74.5,93.9,75.4,86.2,76.7,90.3,72.2,84.7,74.5,87.3,70.7,83.8,73.5,5.28,-5.45,0.06,0.11,0.0,91.59,87.75,91.57,96.06,174.7,27.6,0.9365895579174476,102.98908929490763,30.248543715360547,7.20203427213562,25.207119525707213,1,5
296,14.75,500.0,44.052962560987936,-78.67909441548252,100.2,42.6,-171.8,-76.0,7330.1,7330.0,108.8,0.0,1.0,1.0,0.0,1.0,1.0,0.0,0.0,0.0,100.0,1.0,1.186,26.0,0.0,-0.405,48.272,66.0,0.0,26.0,26.0,26.0,26.0,-0.88,-0.05,-0.6,398.4,-2.63,-1.42,1.76,-0.97,-421.27,505.33,2.8,0.0,0.0,0.0,0.0,0.29,-7.49,-7.49,-2.75,-10.89,-0.89,21.99,30.16,-1.81,-0.06,19.96,100.0,0.0,0.0,96.7,0.0,0.0,0.0,0.0,0.0,0.0,0.0,8311.0,0.0,30.0,2.0,108.8,1.0,0.0,0.0,0.0,0.0,0.0,0.0,0.0,14.763,14.763,48.272,13.394,1.0,110.0,435.8,8750.0,0.0,0.0,110.0,110.0,433.0,0.0,0.0,0.0,1.0,333.3,85.8,85.8,84.0,84.0,34.0,11.0,11.08,0.5,0.0,4.0,-247.36,97.6,100.0,6.7,6.9,30.2,6.8,1.0,1.0,100.0,0.0,0.0,0.0,0.0,3765.0,4136.0,913.0,0.0,315.7,314.5,352.6,355.0,25.42,22.95,26.38,24.76,325.0,325.0,355.0,355.0,99.97,100.0,99.97,100.0,-8.59,-8.51,-4.54,0.0,-0.7,-1.8,11.0,0.0,84.9,69.5,84.6,74.5,93.9,75.4,86.2,76.7,90.3,72.2,84.8,74.5,87.3,70.7,83.9,73.5,5.55,-5.79,0.09,0.11,0.0,91.64,89.39,94.36,99.04,174.7,27.6,1.0662551289442879,102.98908932335881,31.68895056978769,21.606102816407287,54.01525661425012,1,5
