,Time,Distance,GPS Latitude,GPS Longitude,Damper Velocity (Calc) FL,Damper Velocity (Calc) FR,Damper Velocity (Calc) RL,Damper Velocity (Calc) RR,Corr Dist,Corr Dist (Unstretched),Corr Speed,ABS Active,ABS Enabled,AID Allow Tire Blankets,AID Auto Blip,AID Auto Clutch,AID Auto Shift,AID Fuel Rate,AID Ideal Line,AID Mech Damage,AID Stability,AID Tire Wear Rate,Air Density,Air Temp,Ballast,Best Lap Delta,Best Lap Time,Brake Bias,Brake Pos,Brake Temp FL,Brake Temp FR,Brake Temp RL,Brake Temp RR,CG Accel Lateral,CG Accel Longitudinal,CG Accel Vertical,CG Height,Camber FL,Camber FR,Camber RL,Camber RR,Car Coord X,Car Coord Y,Car Coord Z,Car Damage Front,Car Damage Left,Car Damage Rear,Car Damage Right,Car Pos Norm,Caster FL,Caster FR,Chassis Pitch Angle,Chassis Pitch Rate,Chassis Roll Angle,Chassis Roll Rate,Chassis Velocity X,Chassis Velocity Y,Chassis Velocity Z,Chassis Yaw Rate,Clutch Pos,DRS Active,DRS Available,Drive Train Speed,ERS Heat Charging,ERS Is Charging,ERS Max Energy,ERS Power Level,ERS Recovery Level,Engine Brake Setting,Engine Limiter,Engine RPM,Flags,Fuel Level,Gear,Ground Speed,HR Sample Clock,In Pit,KERS Charge,KERS Deployed Energy,KERS Input,KERS Max Energy,LR Sample Clock,Lap Invalidated,Lap Time,Lap Time2,Last Lap Time,Last Sector Time,MR Sample Clock,Max Fuel,Max Power,Max RPM,Max Sus Travel FL,Max Sus Travel FR,Max Sus Travel RL,Max Sus Travel RR,Max Torque,Max Turbo Boost,Num Tires Off Track,Penalties Enabled,Position,Raw Data Sample Rate,Ride Height FL,Ride Height FR,Ride Height RL,Ride Height RR,Road Temp,Self Align Torque FL,Self Align Torque FR,Self Align Torque RL,Self Align Torque RR,Session Lap Count,Session Time Left,Steering Angle,Surface Grip,Suspension Travel FL,Suspension Travel FR,Suspension Travel RL,Suspension Travel RR,TC Active,TC Enabled,Throttle Pos,Tire Dirt Level FL,Tire Dirt Level FR,Tire Dirt Level RL,Tire Dirt Level RR,Tire Load FL,Tire Load FR,Tire Load RL,Tire Load RR,Tire Loaded Radius FL,Tire Loaded Radius FR,Tire Loaded Radius RL,Tire Loaded Radius RR,Tire Pressure FL,Tire Pressure FR,Tire Pressure RL,Tire Pressure RR,Tire Radius FL,Tire Radius FR,Tire Radius RL,Tire Radius RR,Tire Rubber Grip FL,Tire Rubber Grip FR,Tire Rubber Grip RL,Tire Rubber Grip RR,Tire Slip Angle FL,Tire Slip Angle FR,Tire Slip Angle RL,Tire Slip Angle RR,Tire Slip Ratio FL,Tire Slip Ratio FR,Tire Slip Ratio RL,Tire Slip Ratio RR,Tire Temp Core FL,Tire Temp Core FR,Tire Temp Core RL,Tire Temp Core RR,Tire Temp Inner FL,Tire Temp Inner FR,Tire Temp Inner RL,Tire Temp Inner RR,Tire Temp Middle FL,Tire Temp Middle FR,Tire Temp Middle RL,Tire Temp Middle RR,Tire Temp Outer FL,Tire Temp Outer FR,Tire Temp Outer RL,Tire Temp Outer RR,Toe In FL,Toe In FR,Toe In RL,Toe In RR,Turbo Boost,Wheel Angular Speed FL,Wheel Angular Speed FR,Wheel Angular Speed RL,Wheel Angular Speed RR,Wind Direction,Wind Speed,CG Distance,Lateral Velocity,Longitudinal Velocity,Lateral Acceleration,Longitudinal Acceleration,level,curve_number
1390,69.45,1326.0,44.05498153799322,-78.68396658021474,12.8,8.0,-34.2,-19.1,2897.2,2897.0,134.2,0.0,1.0,1.0,0.0,1.0,1.0,0.0,0.0,0.0,100.0,1.0,1.186,26.0,0.0,8.568,74.678,66.0,0.0,26.0,26.0,26.0,26.0,-1.52,0.37,0.01,384.6,-2.27,-2.37,-0.68,-2.35,-963.03,729.83,5.7,0.0,0.0,0.0,0.0,0.74,-7.49,-7.49,-0.48,-2.29,0.33,2.17,37.25,-1.41,-0.38,21.1,100.0,0.0,0.0,109.21,0.0,0.0,0.0,0.0,0.0,0.0,0.0,7321.0,0.0,30.0,3.0,134.2,1.0,0.0,0.0,0.0,0.0,0.0,0.0,0.0,69.48,69.48,74.679,27.738,1.0,110.0,435.8,8750.0,0.0,0.0,110.0,110.0,433.0,0.0,0.0,0.0,1.0,333.3,75.6,75.6,73.8,73.8,34.0,19.94,3.58,-86.6,-17.4,1.0,-146.74,101.0,100.0,23.9,9.3,42.6,23.0,0.0,1.0,100.0,0.0,0.0,0.0,0.0,6252.0,1891.0,5943.0,2393.0,307.8,319.7,340.5,349.1,22.89,22.23,26.72,26.27,325.0,325.0,355.0,355.0,99.84,99.76,99.97,99.91,-7.27,-7.5,-3.01,-2.9,-0.7,-0.8,3.5,5.2,69.0,64.9,86.7,83.9,75.1,66.8,88.7,85.4,72.0,64.3,86.6,83.1,70.1,63.0,85.2,81.8,5.73,-6.08,0.05,0.08,0.0,113.59,111.53,109.2,109.2,356.7,7.7,1.564416824251133,131.79722615584103,16.924780383037422,61.217290886386024,-39.61118750095499,0,10
1391,69.5,1327.9,44.05499853517157,-78.68396864865444,33.4,71.4,-52.1,-65.3,2899.1,2899.0,134.7,0.0,1.0,1.0,0.0,1.0,1.0,0.0,0.0,0.0,100.0,1.0,1.186,26.0,0.0,8.55,74.678,66.0,0.0,26.0,26.0,26.0,26.0,-1.53,0.42,-0.04,384.8,-2.21,-2.52,-0.45,-2.45,-963.26,731.72,5.7,0.0,0.0,0.0,0.0,0.74,-7.49,-7.49,-0.48,1.95,0.27,-2.12,37.39,-1.47,-0.36,26.66,100.0,0.0,0.0,110.33,0.0,0.0,0.0,0.0,0.0,0.0,0.0,7396.0,0.0,30.0,3.0,134.7,0.0,0.0,0.0,0.0,0.0,0.0,0.0,0.0,69.531,69.531,74.679,27.738,0.0,110.0,435.8,8750.0,0.0,0.0,110.0,110.0,433.0,0.0,0.0,0.0,1.0,333.3,74.4,74.4,72.9,72.9,34.0,14.34,1.58,-95.8,-12.3,1.0,-146.79,98.5,100.0,25.6,12.9,40.0,19.8,0.0,1.0,100.0,0.0,0.0,0.0,0.0,5887.0,1286.0,7065.0,2246.0,308.9,321.3,338.1,349.7,22.89,22.23,26.72,26.27,325.0,325.0,355.0,355.0,99.84,99.76,99.97,99.91,-6.89,-7.16,-3.21,-3.13,-0.6,-0.6,4.0,6.1,69.0,64.9,86.7,83.9,75.3,66.8,88.7,85.4,72.2,64.3,86.7,83.1,70.3,63.0,85.2,81.7,5.59,-5.92,0.06,0.09,0.0,114.49,112.2,110.33,110.33,356.7,7.7,1.5871042813879621,136.83865014633605,15.124271886131458,18.00508582259539,-50.41423905141446,0,10
1392,69.55,1329.7,44.05501571221425,-78.6839703573655,-12.1,-54.6,118.4,51.2,2901.0,2901.0,135.3,0.0,1.0,1.0,0.0,1.0,1.0,0.0,0.0,0.0,100.0,1.0,1.186,26.0,0.0,8.541,74.678,66.0,0.0,26.0,26.0,26.0,26.0,-1.47,0.4,0.02,384.1,-2.18,-2.61,-0.57,-2.57,-963.45,733.63,5.7,0.0,0.0,0.0,0.0,0.75,-7.49,-7.49,-0.43,-0.4,0.16,-0.96,37.57,-1.56,-0.33,23.75,100.0,0.0,0.0,109.72,0.0,0.0,0.0,0.0,0.0,0.0,0.0,7355.0,0.0,30.0,3.0,135.3,1.0,0.0,0.0,0.0,0.0,0.0,0.0,0.0,69.581,69.581,74.679,27.738,1.0,110.0,435.8,8750.0,0.0,0.0,110.0,110.0,433.0,0.0,0.0,0.0,1.0,333.3,78.7,78.7,69.0,69.0,34.0,14.31,0.03,-115.1,-26.0,1.0,-146.84,96.6,100.0,25.0,10.1,45.9,22.3,0.0,1.0,100.0,0.0,0.0,0.0,0.0,5372.0,48.0,7202.0,3130.0,310.3,324.8,337.5,347.4,22.89,22.23,26.72,26.27,325.0,325.0,355.0,355.0,99.84,99.76,99.97,99.91,-7.02,-7.32,-3.28,-3.17,-0.5,-0.8,3.0,4.9,69.1,64.9,86.7,83.9,75.5,66.8,88.8,85.4,72.4,64.3,86.7,83.1,70.5,63.0,85.3,81.8,5.48,-5.8,0.05,0.09,0.0,114.94,112.47,109.72,109.72,356.7,7.7,1.5235813073151034,133.59773473810057,11.883356477895976,-25.20712009473101,-61.21729117089765,0,10
1393,69.6,1331.6,44.05503190000315,-78.68397161641575,1.3,-7.5,-2.4,17.2,2902.8,2903.0,135.9,0.0,1.0,1.0,0.0,1.0,1.0,0.0,0.0,0.0,100.0,1.0,1.186,26.0,0.0,8.535,74.678,66.0,0.0,26.0,26.0,26.0,26.0,-1.56,0.34,0.01,383.6,-2.2,-2.67,-0.5,-2.55,-963.59,735.43,5.7,0.0,0.0,0.0,0.0,0.75,-7.49,-7.49,-0.51,-1.78,0.13,-0.91,37.73,-1.55,-0.38,22.3,100.0,0.0,0.0,110.5,0.0,0.0,0.0,0.0,0.0,0.0,0.0,7407.0,0.0,30.0,3.0,135.9,0.0,0.0,0.0,0.0,0.0,0.0,1.0,0.0,69.63,69.63,74.679,27.738,0.0,110.0,435.8,8750.0,0.0,0.0,110.0,110.0,433.0,0.0,0.0,0.0,1.0,333.3,75.8,75.8,71.2,71.2,34.0,18.08,1.65,-95.6,-15.1,1.0,-146.89,95.9,100.0,25.0,9.8,45.8,23.2,0.0,1.0,100.0,0.0,0.0,0.0,0.0,6401.0,1197.0,6369.0,2077.0,307.6,321.7,339.5,349.8,22.89,22.23,26.72,26.27,325.0,325.0,355.0,355.0,99.84,99.76,99.97,99.91,-7.07,-7.3,-3.19,-3.09,-0.6,-0.8,3.3,5.0,69.1,64.9,86.7,83.9,75.7,66.8,88.9,85.4,72.6,64.3,86.8,83.2,70.6,63.0,85.4,81.8,5.45,-5.75,0.05,0.09,0.0,115.21,113.05,110.5,110.5,356.7,7.7,1.5966527487215247,134.31793813686295,9.002542769041693,54.015256614249836,-50.414239620438174,0,10
1394,69.65,1333.5,44.055049256910145,-78.68397260566951,19.9,18.6,-42.0,-60.4,2904.7,2905.0,136.4,0.0,1.0,1.0,0.0,1.0,1.0,0.0,0.0,0.0,100.0,1.0,1.186,26.0,0.0,8.526,74.678,66.0,0.0,26.0,26.0,26.0,26.0,-1.44,0.41,-0.03,385.0,-2.15,-2.64,-0.56,-2.51,-963.7,737.36,5.7,0.0,0.0,0.0,0.0,0.75,-7.49,-7.49,-0.52,0.83,0.15,2.2,37.87,-1.63,-0.36,25.74,100.0,0.0,0.0,111.6,0.0,0.0,0.0,0.0,0.0,0.0,0.0,7481.0,0.0,30.0,3.0,136.4,1.0,0.0,0.0,0.0,0.0,0.0,1.0,0.0,69.681,69.681,74.679,27.738,1.0,110.0,435.8,8750.0,0.0,0.0,110.0,110.0,433.0,0.0,0.0,0.0,1.0,333.3,76.7,76.7,73.1,73.1,34.0,14.55,0.55,-81.8,-15.8,1.0,-146.94,94.9,100.0,26.0,10.7,43.7,20.2,0.0,1.0,100.0,0.0,0.0,0.0,0.0,5654.0,523.0,6332.0,2646.0,309.5,323.5,339.6,348.6,22.89,22.23,26.72,26.27,325.0,325.0,355.0,355.0,99.84,99.76,99.97,99.91,-6.97,-7.23,-3.43,-3.34,-0.6,-0.6,3.8,5.9,69.1,64.9,86.7,83.9,75.9,66.8,88.9,85.4,72.7,64.3,86.9,83.1,70.8,63.0,85.5,81.7,5.38,-5.68,0.05,0.09,0.0,115.88,113.57,111.6,111.6,356.7,7.7,1.4975313018431367,138.99926039952555,6.841932515852158,14.404068828782783,-46.81322262662628,0,10
1395,69.7,1335.4,44.05506661381714,-78.6839733251268,-50.7,-30.9,22.8,73.4,2906.6,2907.0,137.1,0.0,1.0,1.0,0.0,1.0,1.0,0.0,0.0,0.0,100.0,1.0,1.186,26.0,0.0,8.523,74.678,66.0,0.0,26.0,26.0,26.0,26.0,-1.4,0.4,-0.1,385.3,-2.27,-2.65,-0.63,-2.45,-963.78,739.29,5.7,0.0,0.0,0.0,0.0,0.75,-7.49,-7.49,-0.56,-2.76,0.2,-0.12,38.06,-1.7,-0.35,20.58,100.0,0.0,0.0,111.06,0.0,0.0,0.0,0.0,0.0,0.0,0.0,7445.0,0.0,30.0,3.0,137.1,0.0,0.0,0.0,0.0,0.0,0.0,1.0,0.0,69.731,69.731,74.679,27.738,0.0,110.0,435.8,8750.0,0.0,0.0,110.0,110.0,433.0,0.0,0.0,0.0,1.0,166.7,80.8,80.8,69.8,69.8,34.0,13.34,0.16,-104.0,-24.5,1.0,-146.99,93.9,100.0,23.5,9.2,44.8,23.8,0.0,1.0,100.0,0.0,0.0,0.0,0.0,4660.0,160.0,6802.0,2868.0,312.3,324.5,338.4,347.8,22.9,22.23,26.72,26.27,325.0,325.0,355.0,355.0,99.84,99.76,99.97,99.91,-7.18,-7.44,-3.35,-3.26,-0.5,-0.9,3.0,4.7,69.1,64.9,86.7,83.9,76.0,66.8,89.0,85.5,72.9,64.3,87.0,83.2,71.0,63.0,85.6,81.8,5.33,-5.63,0.05,0.08,0.0,116.15,113.87,111.06,111.06,356.7,7.7,1.4594519519326423,135.75834501974123,4.321220506379064,-25.2071198102189,-54.015257183273846,0,10
1396,69.75,1337.3,44.05508316133469,-78.68397368485543,-9.3,-3.2,-37.1,-38.8,2908.6,2909.0,137.6,0.0,1.0,1.0,0.0,1.0,1.0,0.0,0.0,0.0,100.0,1.0,1.186,26.0,0.0,8.514,74.678,66.0,0.0,26.0,26.0,26.0,26.0,-1.39,0.39,-0.14,386.3,-2.23,-2.59,-0.67,-2.49,-963.82,741.13,5.7,0.0,0.0,0.0,0.0,0.75,-7.49,-7.49,-0.73,-3.03,0.22,1.18,38.2,-1.68,-0.39,20.56,100.0,0.0,0.0,112.41,0.0,0.0,0.0,0.0,0.0,0.0,0.0,7536.0,0.0,30.0,3.0,137.6,1.0,0.0,0.0,0.0,0.0,0.0,1.0,0.0,69.78,69.78,74.679,27.738,1.0,110.0,435.8,8750.0,0.0,0.0,110.0,110.0,433.0,0.0,0.0,0.0,1.0,333.3,78.6,78.6,74.6,74.6,34.0,16.52,1.36,-71.2,-13.1,1.0,-147.04,93.4,100.0,23.0,9.0,43.0,21.9,0.0,1.0,100.0,0.0,0.0,0.0,0.0,5594.0,937.0,5602.0,2098.0,309.8,322.4,341.3,349.9,22.9,22.23,26.72,26.26,325.0,325.0,355.0,355.0,99.85,99.76,99.97,99.91,-7.17,-7.41,-3.3,-3.21,-0.6,-0.8,3.9,5.6,69.1,64.9,86.7,83.9,76.2,66.8,89.1,85.5,73.1,64.2,87.0,83.1,71.1,63.0,85.6,81.7,5.31,-5.59,0.05,0.08,0.0,116.48,114.45,112.41,112.41,356.7,7.7,1.450448206589949,136.47854841850366,1.4404067975247739,50.41423933592682,-32.40915408235484,0,10
1397,69.8,1339.2,44.055100698106,-78.68397368485543,9.5,28.2,-51.3,-33.7,2910.5,2910.0,138.2,0.0,1.0,1.0,0.0,1.0,1.0,0.0,0.0,0.0,100.0,1.0,1.186,26.0,0.0,8.505,74.678,66.0,0.0,26.0,26.0,26.0,26.0,-1.49,0.41,-0.06,385.9,-2.27,-2.59,-0.67,-2.48,-963.82,743.08,5.7,0.0,0.0,0.0,0.0,0.75,-7.49,-7.49,-0.81,-0.46,0.22,-0.91,38.35,-1.73,-0.39,23.82,100.0,0.0,0.0,113.06,0.0,0.0,0.0,0.0,0.0,0.0,0.0,7579.0,0.0,30.0,3.0,138.2,0.0,0.0,0.0,0.0,0.0,0.0,1.0,0.0,69.831,69.831,74.679,27.738,0.0,110.0,435.8,8750.0,0.0,0.0,110.0,110.0,433.0,0.0,0.0,0.0,1.0,333.3,77.2,77.2,74.1,74.1,34.0,14.9,1.6,-78.9,-13.7,1.0,-147.09,91.1,100.0,23.5,10.4,40.4,20.2,0.0,1.0,100.0,0.0,0.0,0.0,0.0,5645.0,1284.0,6342.0,2348.0,309.7,321.4,339.6,349.3,22.9,22.22,26.72,26.26,325.0,325.0,355.0,355.0,99.85,99.76,99.97,99.91,-6.99,-7.19,-3.45,-3.33,-0.6,-0.6,4.0,5.9,69.1,64.9,86.7,83.9,76.4,66.8,89.1,85.4,73.2,64.3,87.1,83.1,71.3,63.0,85.7,81.7,5.2,-5.47,0.06,0.09,0.0,117.24,115.09,113.06,113.06,356.7,7.7,1.546544535407888,140.7997689533339,1.0803050981435804,7.202034272135904,21.606103100919025,0,10
1398,69.85,1341.2,44.055118324809484,-78.68397341505896,65.4,44.6,34.8,1.6,2912.4,2912.0,138.7,0.0,1.0,1.0,0.0,1.0,1.0,0.0,0.0,0.0,100.0,1.0,1.186,26.0,0.0,8.502,74.678,66.0,0.0,26.0,26.0,26.0,26.0,-1.72,0.36,0.11,382.6,-2.22,-2.85,-0.58,-2.58,-963.79,745.04,5.7,0.0,0.0,0.0,0.0,0.75,-7.49,-7.49,-0.79,1.8,0.06,-3.88,38.5,-1.78,-0.4,26.95,100.0,0.0,0.0,113.23,0.0,0.0,0.0,0.0,0.0,0.0,0.0,7591.0,0.0,30.0,3.0,138.7,1.0,0.0,0.0,0.0,0.0,0.0,1.0,0.0,69.881,69.881,74.679,27.738,1.0,110.0,435.8,8750.0,0.0,0.0,110.0,110.0,433.0,0.0,0.0,0.0,1.0,333.3,71.9,71.9,72.3,72.3,34.0,10.54,0.65,-94.2,-13.4,1.0,-147.14,85.0,100.0,26.8,12.6,42.1,20.3,0.0,1.0,100.0,0.0,0.0,0.0,0.0,6944.0,1667.0,6951.0,2215.0,306.1,320.3,338.1,349.5,22.9,22.22,26.72,26.26,325.0,325.0,355.0,355.0,99.85,99.76,99.97,99.91,-6.59,-6.79,-3.56,-3.48,-0.6,-0.6,3.5,5.6,69.2,64.9,86.8,83.9,76.6,66.8,89.2,85.5,73.4,64.3,87.2,83.1,71.5,63.0,85.8,81.7,4.88,-5.13,0.06,0.09,0.0,118.06,115.7,113.23,113.23,356.7,7.7,1.7607100840285999,137.19875184571725,3.6010171076166766,-28.80813708854305,57.61627417708578,0,10
1399,69.9,1343.1,44.05513496225919,-78.68397278553383,69.1,22.0,75.7,4.8,2914.3,2914.0,139.2,0.0,1.0,1.0,0.0,1.0,1.0,0.0,0.0,0.0,100.0,1.0,1.186,26.0,0.0,8.493,74.678,66.0,0.0,26.0,26.0,26.0,26.0,-1.81,0.4,0.18,379.7,-2.05,-2.98,-0.41,-2.66,-963.72,746.89,5.7,0.0,0.0,0.0,0.0,0.75,-7.49,-7.49,-0.61,4.35,-0.17,-4.44,38.63,-1.87,-0.37,29.75,100.0,0.0,0.0,113.43,0.0,0.0,0.0,0.0,0.0,0.0,0.0,7604.0,0.0,30.0,3.0,139.2,0.0,0.0,0.0,0.0,0.0,0.0,1.0,0.0,69.93,69.93,74.679,27.738,0.0,110.0,435.8,8750.0,0.0,0.0,110.0,110.0,433.0,0.0,0.0,0.0,1.0,333.3,69.8,69.8,67.5,67.5,34.0,-4.58,-1.75,-111.5,-17.0,1.0,-147.19,75.4,100.0,30.2,13.7,45.9,20.5,0.0,1.0,100.0,0.0,0.0,0.0,0.0,7017.0,1539.0,7987.0,2723.0,305.9,320.7,335.7,348.5,22.91,22.22,26.72,26.26,325.0,325.0,355.0,355.0,99.85,99.76,99.97,99.91,-6.1,-6.27,-3.78,-3.67,-0.6,-0.5,3.2,5.6,69.2,64.9,86.8,83.9,76.8,66.9,89.3,85.5,73.6,64.3,87.3,83.1,71.7,63.1,85.9,81.7,4.38,-4.59,0.04,0.1,0.0,118.85,116.2,113.43,113.43,356.7,7.7,1.8623909364040623,137.9189552444796,6.841932515852158,54.015256614249836,68.41932458949788,0,10
1400,69.95,1345.0,44.055152768826986,-78.6839717063479,1.2,-65.4,126.6,57.9,2916.3,2916.0,139.8,0.0,1.0,1.0,0.0,1.0,1.0,0.0,0.0,0.0,100.0,1.0,1.186,26.0,0.0,8.49,74.678,66.0,0.0,26.0,26.0,26.0,26.0,-1.71,0.42,0.13,379.7,-1.71,-3.14,-0.42,-2.77,-963.6,748.87,5.7,0.0,0.0,0.0,0.0,0.75,-7.49,-7.49,-0.44,1.86,-0.3,0.95,38.8,-1.95,-0.33,25.39,100.0,0.0,0.0,113.28,0.0,0.0,0.0,0.0,0.0,0.0,0.0,7594.0,0.0,30.0,3.0,139.8,1.0,0.0,0.0,0.0,0.0,0.0,1.0,0.0,69.981,69.981,74.679,27.738,1.0,110.0,435.8,8750.0,0.0,0.0,110.0,110.0,433.0,0.0,0.0,0.0,1.0,333.3,75.5,75.5,63.6,63.6,34.0,-18.71,0.0,-125.8,-24.6,1.0,-147.24,62.6,100.0,30.3,10.5,52.2,23.4,0.0,1.0,100.0,0.0,0.0,0.0,0.0,6147.0,0.0,8513.0,3182.0,308.1,325.0,334.3,347.3,22.91,22.22,26.72,26.26,325.0,325.0,355.0,355.0,99.85,99.76,99.97,99.91,-5.66,0.0,-3.81,-3.73,-0.4,0.0,2.9,4.9,69.2,64.9,86.8,83.9,77.0,66.8,89.5,85.5,73.8,64.3,87.4,83.2,71.8,63.0,86.0,81.8,3.67,-3.82,0.03,0.08,0.0,119.29,116.44,113.28,113.28,356.7,7.7,1.7656160398002732,142.60027750714224,10.442949566566465,3.6010175628356933,61.21729060187399,0,10
1401,70.0,1347.0,44.05517057539478,-78.68397017750118,-44.7,-34.7,-13.5,49.6,2918.2,2918.0,140.4,0.0,1.0,1.0,0.0,1.0,1.0,0.0,0.0,0.0,100.0,1.0,1.186,26.0,0.0,8.475,74.678,66.0,0.0,26.0,26.0,26.0,26.0,-1.49,0.4,-0.05,381.7,-1.58,-3.04,-0.54,-2.67,-963.43,750.85,5.7,0.0,0.0,0.0,0.0,0.76,-7.49,-7.49,-0.46,-2.45,-0.15,5.19,38.97,-1.89,-0.37,18.24,100.0,0.0,0.0,113.72,0.0,0.0,0.0,0.0,0.0,0.0,0.0,7624.0,0.0,30.0,3.0,140.4,0.0,0.0,0.0,0.0,0.0,0.0,1.0,0.0,70.031,70.031,74.679,27.738,0.0,110.0,435.8,8750.0,0.0,0.0,110.0,110.0,433.0,0.0,0.0,0.0,1.0,166.7,77.6,77.6,66.3,66.3,34.0,-33.24,0.0,-106.3,-19.9,1.0,-147.29,50.2,100.0,28.0,8.7,51.6,25.9,0.0,1.0,100.0,0.0,0.0,0.0,0.0,5636.0,0.0,7165.0,2443.0,309.5,325.0,337.5,348.9,22.91,22.22,26.72,26.26,325.0,325.0,355.0,355.0,99.85,99.76,99.97,99.91,-5.16,0.0,-3.52,-3.45,-0.4,0.0,3.1,4.6,69.2,64.9,86.8,83.9,77.1,66.8,89.6,85.5,73.9,64.2,87.5,83.2,72.0,63.0,86.1,81.8,2.96,-3.07,0.04,0.07,0.0,119.49,116.44,113.73,113.73,356.7,7.7,1.5435672968808325,138.27905700076317,12.963661576039557,-39.611188069978596,50.41424018946186,0,10
1402,70.05,1349.0,44.05518730277666,-78.68396846879013,-35.2,35.0,-119.2,-52.2,2920.2,2920.0,140.9,0.0,1.0,1.0,0.0,1.0,1.0,0.0,0.0,0.0,100.0,1.0,1.186,26.0,0.0,8.469,74.678,66.0,0.0,26.0,26.0,26.0,26.0,-1.48,0.37,-0.08,383.4,-1.85,-3.01,-0.51,-2.3,-963.24,752.71,5.7,0.0,0.0,0.0,0.0,0.76,-7.49,-7.49,-0.59,-1.77,0.13,4.34,39.12,-1.8,-0.39,19.29,100.0,0.0,0.0,114.86,0.0,0.0,0.0,0.0,0.0,0.0,0.0,7700.0,0.0,30.0,3.0,140.9,1.0,0.0,0.0,0.0,0.0,0.0,1.0,0.0,70.08,70.08,74.679,27.738,1.0,110.0,435.8,8750.0,0.0,0.0,110.0,110.0,433.0,0.0,0.0,0.0,1.0,333.3,75.3,75.3,70.9,70.9,34.0,-58.11,-10.35,-77.9,-18.2,1.0,-147.34,40.1,100.0,26.3,10.5,45.6,23.3,0.0,1.0,100.0,0.0,0.0,0.0,0.0,5745.0,1380.0,5983.0,2539.0,309.5,321.2,340.5,348.8,22.92,22.22,26.72,26.26,325.0,325.0,355.0,355.0,99.85,99.76,99.97,99.91,-4.46,-4.47,-3.38,-3.3,-0.4,-0.6,3.7,5.3,69.2,64.9,86.8,83.9,77.2,66.8,89.6,85.5,74.0,64.2,87.6,83.2,72.1,63.0,86.2,81.8,2.39,-2.46,0.04,0.09,0.0,120.15,118.25,114.86,114.86,356.7,7.7,1.5276452467768817,138.63915870014438,15.484373585512651,50.41423905141471,57.61627417708583,0,10
1403,70.1,1350.9,44.055205199276614,-78.68396631041827,10.0,47.0,-46.6,2.5,2922.1,2922.0,141.6,0.0,1.0,1.0,0.0,1.0,1.0,0.0,0.0,0.0,100.0,1.0,1.186,26.0,0.0,8.463,74.678,66.0,0.0,26.0,26.0,26.0,26.0,-1.56,0.43,0.03,382.4,-1.97,-3.1,-0.59,-2.31,-963.0,754.7,5.7,0.0,0.0,0.0,0.0,0.76,-7.49,-7.49,-0.6,1.19,0.14,-3.15,39.29,-1.74,-0.39,21.63,100.0,0.0,0.0,115.06,0.0,0.0,0.0,0.0,0.0,0.0,0.0,7713.0,0.0,30.0,3.0,141.6,0.0,0.0,0.0,0.0,0.0,0.0,0.0,0.0,70.131,70.131,74.679,27.738,0.0,110.0,435.8,8750.0,0.0,0.0,110.0,110.0,433.0,0.0,0.0,0.0,1.0,333.3,73.2,73.2,71.1,71.1,34.0,-94.53,-16.57,-90.9,-22.7,1.0,-147.39,28.2,100.0,26.8,12.8,43.3,23.4,0.0,1.0,100.0,0.0,0.0,0.0,0.0,6026.0,1542.0,6367.0,2856.0,308.6,320.7,339.6,348.0,22.92,22.22,26.73,26.26,325.0,325.0,355.0,355.0,99.85,99.76,99.97,99.91,-3.57,-3.53,-3.31,-3.2,-0.3,-0.2,3.4,5.0,69.2,64.9,86.8,83.9,77.3,66.8,89.7,85.5,74.1,64.2,87.7,83.2,72.2,63.0,86.2,81.8,1.73,-1.77,0.05,0.09,0.0,121.17,119.19,115.06,115.06,356.7,7.7,1.6184560543925808,143.32048090590465,18.72528899374814,7.202033987624361,54.015256614250134,0,10
1404,70.15,1352.9,44.05522309577657,-78.68396379231777,23.7,-17.7,69.1,0.3,2924.1,2924.0,142.2,0.0,1.0,1.0,0.0,1.0,1.0,0.0,0.0,0.0,100.0,1.0,1.186,26.0,0.0,8.457,74.678,66.0,0.0,26.0,26.0,26.0,26.0,-1.44,0.45,0.04,381.8,-1.58,-3.3,-0.53,-2.59,-962.72,756.69,5.7,0.0,0.0,0.0,0.0,0.76,-7.49,-7.49,-0.5,1.67,-0.04,-0.4,39.48,-1.72,-0.37,20.16,100.0,0.0,0.0,115.16,0.0,0.0,0.0,0.0,0.0,0.0,0.0,7720.0,0.0,30.0,3.0,142.2,1.0,0.0,0.0,0.0,0.0,0.0,0.0,0.0,70.181,70.181,74.679,27.738,1.0,110.0,435.8,8750.0,0.0,0.0,110.0,110.0,433.0,0.0,0.0,0.0,1.0,333.3,75.0,75.0,68.0,68.0,34.0,-117.7,-1.47,-121.3,-23.9,1.0,-147.44,11.3,100.0,28.0,11.9,46.7,23.4,0.0,1.0,100.0,0.0,0.0,0.0,0.0,6055.0,207.0,7445.0,2753.0,308.4,324.3,336.9,348.2,22.92,22.22,26.73,26.26,325.0,325.0,355.0,355.0,99.85,99.76,99.97,99.91,-2.65,-2.63,-3.24,-3.13,-0.2,-0.3,2.9,4.5,69.3,64.9,86.8,83.9,77.4,66.7,89.8,85.5,74.2,64.2,87.8,83.2,72.2,62.9,86.3,81.8,0.8,-0.82,0.05,0.09,0.0,121.97,119.81,115.16,115.16,356.7,7.7,1.509205088780183,139.35936209890681,20.885899246937665,-36.010170791655014,50.41423905141443,0,10
1405,70.2,1354.9,44.05524000302276,-78.68396109435295,-22.5,-55.3,6.0,38.7,2926.1,2926.0,142.9,0.0,1.0,1.0,0.0,1.0,1.0,0.0,0.0,0.0,100.0,1.0,1.186,26.0,0.0,8.451,74.678,66.0,0.0,26.0,26.0,26.0,26.0,-1.29,0.48,0.01,382.6,-1.52,-3.33,-0.75,-2.46,-962.42,758.57,5.7,0.0,0.0,0.0,0.0,0.76,-7.49,-7.49,-0.49,-0.88,0.12,5.46,39.68,-1.64,-0.34,12.95,100.0,0.0,0.0,115.18,0.0,0.0,0.0,0.0,0.0,0.0,0.0,7721.0,0.0,30.0,3.0,142.9,0.0,0.0,0.0,0.0,0.0,0.0,0.0,0.0,70.23,70.23,74.679,27.738,0.0,110.0,435.8,8750.0,0.0,0.0,110.0,110.0,433.0,0.0,0.0,0.0,1.0,333.3,77.8,77.8,69.0,69.0,34.0,-97.81,-2.56,-112.2,-39.0,1.0,-147.49,-5.3,100.0,26.8,9.2,47.0,25.4,0.0,1.0,100.0,0.0,0.0,0.0,0.0,5230.0,401.0,6702.0,3582.0,310.7,324.0,338.7,346.2,22.93,22.22,26.73,26.26,325.0,325.0,355.0,355.0,99.85,99.76,99.97,99.91,-1.89,-1.83,-2.96,-2.82,-0.1,-0.7,2.9,3.8,69.3,64.9,86.8,83.9,77.4,66.7,89.9,85.5,74.2,64.2,87.8,83.2,72.3,62.9,86.4,81.8,-0.15,0.16,0.04,0.06,0.0,122.25,120.27,115.18,115.18,356.7,7.7,1.3764446955835168,139.71946382673914,23.766712898889583,50.4142396204378,54.015256614250156,0,10
1406,70.25,1356.9,44.05525798945488,-78.68395785679517,-29.8,43.2,-58.5,21.3,2928.1,2928.0,143.7,0.0,1.0,1.0,0.0,1.0,1.0,0.0,0.0,0.0,100.0,1.0,1.186,26.0,0.0,8.445,74.678,66.0,0.0,26.0,26.0,26.0,26.0,-0.92,0.44,-0.1,383.3,-1.66,-3.22,-0.79,-2.24,-962.06,760.57,5.7,0.0,0.0,0.0,0.0,0.76,-7.49,-7.49,-0.56,-1.13,0.38,5.54,39.89,-1.41,-0.36,5.76,100.0,0.0,0.0,115.82,0.0,0.0,0.0,0.0,0.0,0.0,0.0,7764.0,0.0,30.0,3.0,143.7,1.0,0.0,0.0,0.0,0.0,0.0,0.0,0.0,70.281,70.281,74.679,27.738,1.0,110.0,435.8,8750.0,0.0,0.0,110.0,110.0,433.0,0.0,0.0,0.0,1.0,333.3,76.3,76.3,69.1,69.1,34.0,-58.32,-6.71,-94.0,-28.8,1.0,-147.54,-21.7,100.0,25.4,11.3,44.1,26.4,0.0,1.0,100.0,0.0,0.0,0.0,0.0,4580.0,1788.0,5821.0,2856.0,312.4,320.1,340.8,348.0,22.93,22.22,26.73,26.26,325.0,325.0,355.0,355.0,99.85,99.76,99.97,99.91,-0.86,-0.78,-2.4,-2.26,-0.1,-0.1,3.0,3.5,69.3,64.8,86.8,83.8,77.4,66.7,89.9,85.5,74.2,64.1,87.9,83.2,72.3,62.9,86.4,81.8,-1.12,1.13,0.05,0.09,0.0,122.66,122.01,115.82,115.82,356.7,7.7,1.02469507659596,144.4007860609506,26.28742490836268,7.20203427213562,28.80813708854287,0,10
1407,70.3,1358.9,44.05527606581916,-78.68395452930523,-32.7,63.5,-62.5,32.6,2930.1,2930.0,144.5,0.0,1.0,1.0,0.0,1.0,1.0,0.0,0.0,0.0,100.0,1.0,1.186,26.0,0.0,8.439,74.678,66.0,0.0,26.0,26.0,26.0,26.0,-0.52,0.48,0.03,382.3,-1.87,-2.96,-1.05,-1.97,-961.69,762.58,5.7,0.0,0.0,0.0,0.0,0.76,-7.49,-7.49,-0.58,-0.13,0.65,4.87,40.14,-1.09,-0.35,-4.73,100.0,0.0,0.0,115.69,0.0,0.0,0.0,0.0,0.0,0.0,0.0,7756.0,0.0,30.0,3.0,144.5,0.0,0.0,0.0,0.0,0.0,0.0,0.0,0.0,70.331,70.331,74.679,27.738,0.0,110.0,435.8,8750.0,0.0,0.0,110.0,110.0,433.0,0.0,0.0,0.0,1.0,333.3,74.9,74.9,68.3,68.3,34.0,-5.28,17.16,-83.6,-40.8,1.0,-147.59,-36.4,100.0,23.7,14.5,41.0,28.1,0.0,1.0,100.0,0.0,0.0,0.0,0.0,4214.0,2638.0,5515.0,4114.0,313.6,317.7,341.6,344.9,22.93,22.22,26.73,26.26,325.0,325.0,355.0,355.0,99.85,99.76,99.97,99.91,0.13,0.21,-1.63,-1.46,-0.0,-0.2,2.8,2.5,69.3,64.8,86.8,83.8,77.4,66.6,89.9,85.5,74.2,64.1,87.9,83.2,72.2,62.8,86.5,81.8,-2.01,1.99,0.06,0.08,0.0,123.02,123.27,115.69,115.69,356.7,7.7,0.7083078426785913,140.4396672539527,26.64752660774387,-32.409153797842976,10.803050981435796,0,10
1408,70.35,1360.9,44.055293062997514,-78.68395120181529,-16.4,54.6,-61.4,93.4,2932.1,2932.0,145.3,0.0,1.0,1.0,0.0,1.0,1.0,0.0,0.0,0.0,100.0,1.0,1.186,26.0,0.0,8.436,74.678,66.0,0.0,26.0,26.0,26.0,26.0,0.02,0.47,0.0,381.9,-2.11,-3.1,-1.4,-1.72,-961.32,764.47,5.7,0.0,0.0,0.0,0.0,0.76,-7.49,-7.49,-0.55,0.82,0.93,6.39,40.36,-0.64,-0.34,-15.43,100.0,0.0,0.0,116.02,0.0,0.0,0.0,0.0,0.0,0.0,0.0,7777.0,0.0,30.0,3.0,145.3,1.0,0.0,0.0,0.0,0.0,0.0,0.0,0.0,70.38,70.38,74.679,27.738,1.0,110.0,435.8,8750.0,0.0,0.0,110.0,110.0,433.0,0.0,0.0,0.0,1.0,333.3,74.7,74.7,69.2,69.2,34.0,21.39,37.67,-41.3,-12.2,1.0,-147.64,-41.9,100.0,22.9,17.2,37.9,32.7,0.0,1.0,100.0,0.0,0.0,0.0,0.0,3160.0,2908.0,4818.0,4490.0,316.0,316.7,343.3,343.9,22.93,22.21,26.73,26.25,325.0,325.0,355.0,355.0,99.85,99.76,99.97,99.91,0.85,0.89,-0.64,-0.5,-0.1,-0.1,2.8,1.7,69.3,64.8,86.8,83.8,77.4,66.6,89.9,85.5,74.2,64.1,87.9,83.2,72.2,62.8,86.5,81.7,-2.42,2.4,0.07,0.04,0.0,123.2,124.44,116.02,116.02,356.7,7.7,0.470425339453563,141.1598706811663,27.36773000650626,61.2172906018742,14.404068544271453,0,10
1409,70.4,1362.9,44.055311319226114,-78.68394769446103,-144.1,-35.0,-48.2,111.5,2934.2,2934.0,146.1,0.0,1.0,1.0,0.0,1.0,1.0,0.0,0.0,0.0,100.0,1.0,1.186,26.0,0.0,8.421,74.678,66.0,0.0,26.0,26.0,26.0,26.0,0.39,0.45,-0.17,384.6,-2.16,-2.53,-1.92,-1.42,-960.93,766.5,5.7,0.0,0.0,0.0,0.0,0.76,-7.49,-7.49,-0.59,-3.79,1.35,9.02,40.59,-0.09,-0.31,-19.75,100.0,0.0,0.0,116.48,0.0,0.0,0.0,0.0,0.0,0.0,0.0,7808.0,0.0,30.0,3.0,146.1,0.0,0.0,0.0,0.0,0.0,0.0,0.0,0.0,70.431,70.431,74.679,27.738,0.0,110.0,435.8,8750.0,0.0,0.0,110.0,110.0,433.0,0.0,0.0,0.0,1.0,333.3,82.3,82.3,69.1,69.1,34.0,13.59,35.05,0.1,47.3,1.0,-147.69,-37.6,100.0,15.7,15.5,35.5,38.3,0.0,1.0,100.0,0.0,0.0,0.0,0.0,1562.0,2499.0,4087.0,5571.0,320.7,318.1,344.9,341.3,22.93,22.21,26.73,26.25,325.0,325.0,355.0,355.0,99.85,99.76,99.97,99.92,1.31,1.31,0.29,0.42,-0.1,-0.1,2.9,1.5,69.3,64.8,86.8,83.8,77.3,66.6,89.9,85.5,74.1,64.1,87.9,83.1,72.2,62.8,86.4,81.7,-2.24,2.2,0.07,0.05,0.0,123.39,125.18,116.48,116.48,356.7,7.7,0.6192737682156414,146.56139631414013,28.087933462171016,18.005085253571167,-10.803050981435796,0,10
1410,70.45,1365.0,44.05532966538687,-78.68394418710676,-9.8,100.3,-170.5,-11.7,2936.2,2936.0,146.8,0.0,1.0,1.0,0.0,1.0,1.0,0.0,0.0,0.0,100.0,1.0,1.186,26.0,0.0,8.415,74.678,66.0,0.0,26.0,26.0,26.0,26.0,0.75,0.38,-0.14,384.7,-2.66,-2.06,-1.93,-1.0,-960.54,768.54,5.6,0.0,0.0,0.0,0.0,0.77,-7.49,-7.49,-0.79,-2.81,1.8,7.96,40.78,0.36,-0.41,-22.96,100.0,0.0,0.0,118.42,0.0,0.0,0.0,0.0,0.0,0.0,0.0,7939.0,0.0,30.0,3.0,146.8,1.0,0.0,0.0,0.0,0.0,0.0,0.0,0.0,70.481,70.481,74.679,27.738,1.0,110.0,435.8,8750.0,0.0,0.0,110.0,110.0,433.0,0.0,0.0,0.0,1.0,333.3,74.5,74.5,76.4,76.4,34.0,25.54,91.42,10.0,58.4,1.0,-147.74,-30.4,100.0,15.2,20.5,27.0,37.7,0.0,1.0,100.0,0.0,0.0,0.0,0.0,2567.0,5228.0,2259.0,4684.0,318.0,310.5,349.5,343.5,22.94,22.21,26.73,26.25,325.0,325.0,355.0,355.0,99.85,99.76,99.98,99.92,1.42,1.49,1.08,1.15,-0.1,-0.1,4.1,2.4,69.3,64.8,86.8,83.8,77.3,66.6,89.9,85.5,74.1,64.1,87.8,83.1,72.1,62.8,86.4,81.7,-1.83,1.81,0.08,0.04,0.0,123.9,125.97,118.42,118.42,356.7,7.7,0.8523496934944014,142.9603792065234,26.28742490836268,-25.20711952570707,-36.010171076166735,0,10
1411,70.5,1367.0,44.055347022293866,-78.6839411294133,1.9,106.4,-79.8,7.6,2938.2,2938.0,147.5,0.0,1.0,1.0,0.0,1.0,1.0,0.0,0.0,0.0,100.0,1.0,1.186,26.0,0.0,8.412,74.678,66.0,0.0,26.0,26.0,26.0,26.0,1.04,0.5,0.01,382.4,-3.0,-1.97,-2.21,-0.62,-960.2,770.47,5.6,0.0,0.0,0.0,0.0,0.77,-7.49,-7.49,-0.73,1.96,2.09,2.81,40.98,0.77,-0.38,-24.48,100.0,0.0,0.0,118.64,0.0,0.0,0.0,0.0,0.0,0.0,0.0,7953.0,0.0,30.0,3.0,147.5,0.0,0.0,0.0,0.0,0.0,0.0,0.0,0.0,70.53,70.53,74.679,27.738,0.0,110.0,435.8,8750.0,0.0,0.0,110.0,110.0,433.0,0.0,0.0,0.0,1.0,333.3,72.5,72.5,72.2,72.2,34.0,12.26,105.44,27.2,119.6,1.0,-147.79,-19.8,100.0,15.3,25.8,23.0,38.1,0.0,1.0,100.0,0.0,0.0,0.0,0.0,1449.0,5846.0,3394.0,6777.0,320.9,308.6,346.9,338.4,22.94,22.22,26.73,26.26,325.0,325.0,355.0,355.0,99.85,99.76,99.98,99.92,1.44,1.5,1.73,1.85,-0.1,-0.1,4.0,2.3,69.4,64.8,86.8,83.8,77.3,66.6,89.8,85.5,74.1,64.1,87.8,83.2,72.1,62.8,86.4,81.7,-1.26,1.25,0.09,0.04,0.0,124.49,126.78,118.64,118.64,356.7,7.7,1.1539930675701653,144.04068436156942,24.486916354554342,64.81830816471017,-25.207120094730975,0,10
1412,70.55,1369.1,44.05536563825111,-78.68393807171984,-29.5,19.5,84.8,115.3,2940.3,2940.0,148.3,0.0,1.0,1.0,0.0,1.0,1.0,0.0,0.0,0.0,100.0,1.0,1.186,26.0,0.0,8.406,74.678,66.0,0.0,26.0,26.0,26.0,26.0,1.02,0.46,0.0,380.7,-3.27,-1.63,-2.26,-0.67,-959.86,772.54,5.6,0.0,0.0,0.0,0.0,0.77,-7.49,-7.49,-0.62,0.73,2.13,-1.15,41.18,1.02,-0.36,-18.39,100.0,0.0,0.0,118.86,0.0,0.0,0.0,0.0,0.0,0.0,0.0,7968.0,0.0,30.0,3.0,148.3,1.0,0.0,0.0,0.0,0.0,0.0,0.0,0.0,70.581,70.581,74.679,27.738,1.0,110.0,435.8,8750.0,0.0,0.0,110.0,110.0,433.0,0.0,0.0,0.0,1.0,333.3,74.5,74.5,66.9,66.9,34.0,6.51,81.98,36.2,131.0,1.0,-147.84,-5.7,100.0,13.8,26.8,27.2,43.9,0.0,1.0,100.0,0.0,0.0,0.0,0.0,1041.0,5109.0,3555.0,6868.0,322.1,310.6,346.3,338.1,22.94,22.22,26.73,26.26,325.0,325.0,355.0,355.0,99.85,99.76,99.98,99.92,1.22,1.27,1.96,2.08,-0.2,-0.1,3.4,2.0,69.4,64.9,86.8,83.8,77.2,66.7,89.8,85.5,74.0,64.1,87.8,83.2,72.1,62.9,86.4,81.8,-0.44,0.45,0.09,0.04,0.0,125.32,127.14,118.86,118.86,356.7,7.7,1.1189280584559491,149.44221002299443,23.766712898889583,18.00508525357145,-28.80813708854287,0,10
1413,70.6,1371.1,44.05538434414051,-78.6839351938907,-42.2,-31.7,27.3,10.7,2942.4,2942.0,149.0,0.0,1.0,1.0,0.0,1.0,1.0,0.0,0.0,0.0,100.0,1.0,1.186,26.0,0.0,8.4,74.678,66.0,0.0,26.0,26.0,26.0,26.0,0.82,0.39,-0.09,382.5,-3.1,-1.66,-2.25,-0.74,-959.54,774.62,5.6,0.0,0.0,0.0,0.0,0.77,-7.49,-7.49,-0.63,-2.23,1.93,-6.45,41.39,1.08,-0.36,-9.79,100.0,0.0,0.0,118.84,0.0,0.0,0.0,0.0,0.0,0.0,0.0,7966.0,0.0,30.0,3.0,149.0,0.0,0.0,0.0,0.0,0.0,0.0,1.0,0.0,70.631,70.631,74.679,27.738,0.0,110.0,435.8,8750.0,0.0,0.0,110.0,110.0,433.0,0.0,0.0,0.0,1.0,333.3,78.1,78.1,65.2,65.2,34.0,1.68,53.97,43.7,102.9,1.0,-147.89,10.0,100.0,11.7,25.2,28.6,44.4,0.0,1.0,84.8,0.0,0.0,0.0,0.0,588.0,4437.0,3920.0,5720.0,323.4,312.5,345.4,340.8,22.94,22.22,26.73,26.26,325.0,325.0,355.0,355.0,99.85,99.76,99.98,99.92,0.77,0.82,1.83,1.95,-0.2,-0.0,2.7,1.9,69.4,64.9,86.8,83.9,77.2,66.7,89.8,85.6,74.0,64.2,87.8,83.2,72.0,62.9,86.4,81.8,0.46,-0.45,0.09,0.04,0.0,126.12,127.33,118.83,118.83,356.7,7.7,0.9124691775616314,145.84119288692656,21.606102645700055,-25.207119810219183,-32.40915351333115,0,10
1414,70.65,1373.2,44.055402060776146,-78.6839326757902,-2.5,-31.3,24.2,-92.1,2944.5,2944.0,149.6,0.0,1.0,1.0,0.0,1.0,1.0,0.0,0.0,0.0,100.0,1.0,1.186,26.0,0.0,8.388,74.678,66.0,0.0,26.0,26.0,26.0,26.0,0.52,0.3,-0.12,384.0,-3.1,-1.82,-1.89,-1.02,-959.26,776.59,5.6,0.0,0.0,0.0,0.0,0.77,-7.49,-7.49,-0.78,-3.75,1.58,-7.5,41.54,0.95,-0.4,-0.95,100.0,0.0,0.0,118.86,0.0,0.0,0.0,0.0,0.0,0.0,0.0,7968.0,0.0,30.0,3.0,149.6,1.0,0.0,0.0,0.0,0.0,0.0,1.0,0.0,70.68,70.68,74.679,27.738,1.0,110.0,435.8,8750.0,0.0,0.0,110.0,110.0,433.0,0.0,0.0,0.0,1.0,333.3,77.7,77.7,68.6,68.6,34.0,-5.44,20.88,32.7,75.7,1.0,-147.94,23.2,100.0,11.6,23.6,29.8,39.8,0.0,1.0,62.1,0.0,0.0,0.0,0.0,1823.0,3990.0,3379.0,4761.0,320.0,313.6,346.7,343.2,22.94,22.22,26.73,26.26,325.0,325.0,355.0,355.0,99.85,99.76,99.98,99.92,0.1,0.17,1.37,1.52,-0.1,-0.0,2.0,1.8,69.4,64.9,86.8,83.9,77.1,66.7,89.8,85.6,73.9,64.1,87.8,83.2,72.0,62.9,86.3,81.8,1.24,-1.24,0.09,0.05,0.0,127.17,127.44,118.86,118.86,356.7,7.7,0.6122091146005587,146.9214980419725,20.52579754755647,57.61627417708553,-7.202034556647554,0,10
1415,70.7,1375.3,44.055421036462036,-78.68393006775754,33.6,-52.9,-12.9,-101.8,2946.5,2947.0,150.0,0.0,1.0,1.0,0.0,1.0,1.0,0.0,0.0,0.0,100.0,1.0,1.186,26.0,0.0,8.385,74.678,66.0,0.0,26.0,26.0,26.0,26.0,0.1,0.19,-0.2,385.8,-2.88,-1.9,-1.66,-1.31,-958.97,778.7,5.6,0.0,0.0,0.0,0.0,0.77,-7.49,-7.49,-0.98,-3.75,1.14,-9.5,41.67,0.66,-0.41,8.48,100.0,0.0,0.0,118.13,0.0,0.0,0.0,0.0,0.0,0.0,0.0,7919.0,0.0,30.0,3.0,150.0,0.0,0.0,0.0,0.0,0.0,0.0,1.0,0.0,70.731,70.731,74.679,27.738,0.0,110.0,435.8,8750.0,0.0,0.0,110.0,110.0,433.0,0.0,0.0,0.0,1.0,166.7,78.1,78.1,72.8,72.8,34.0,-26.97,-13.3,20.8,48.9,1.0,-147.99,34.0,100.0,13.3,21.0,29.2,34.7,0.0,1.0,27.8,0.0,0.0,0.0,0.0,2605.0,3316.0,3844.0,4044.0,318.0,315.8,345.8,345.0,22.94,22.22,26.73,26.26,325.0,325.0,355.0,355.0,99.85,99.76,99.98,99.92,-0.63,-0.56,0.71,0.88,-0.1,-0.0,0.9,1.4,69.4,64.9,86.8,83.9,77.1,66.6,89.8,85.5,73.9,64.1,87.7,83.2,71.9,62.8,86.3,81.8,1.91,-1.92,0.09,0.06,0.0,128.0,127.38,118.13,118.13,356.7,7.7,0.2934280150224242,151.60282030463512,20.8858991900353,0.0,-5.690236903888035e-07,0,10
1416,70.75,1377.4,44.05543992221576,-78.6839274597249,121.3,-19.6,37.9,-116.3,2948.6,2949.0,150.1,0.0,1.0,1.0,0.0,1.0,1.0,0.0,0.0,0.0,100.0,1.0,1.186,26.0,0.0,8.379,74.678,66.0,0.0,26.0,26.0,26.0,26.0,-0.39,-0.18,-0.17,384.6,-2.63,-2.24,-1.36,-1.51,-958.68,780.8,5.6,0.0,0.0,0.0,0.0,0.77,-7.49,-7.49,-1.16,-2.68,0.68,-7.69,41.67,0.27,-0.46,16.85,100.0,0.0,0.0,116.52,0.0,0.0,0.0,0.0,0.0,0.0,0.0,7811.0,0.0,30.0,3.0,150.1,1.0,0.0,0.0,0.0,0.0,0.0,1.0,0.0,70.781,70.781,74.679,27.738,1.0,110.0,435.8,8750.0,0.0,0.0,110.0,110.0,433.0,0.0,0.0,0.0,1.0,333.3,73.0,73.0,76.5,76.5,34.0,-67.13,-24.54,-18.3,10.8,1.0,-148.04,34.5,100.0,19.3,20.0,31.1,28.9,0.0,1.0,0.0,0.0,0.0,0.0,0.0,4423.0,3146.0,4118.0,2922.0,313.0,316.2,345.0,347.8,22.94,22.22,26.73,26.26,325.0,325.0,355.0,355.0,99.85,99.76,99.98,99.92,-1.07,-1.0,-0.11,0.05,-0.1,-0.0,-0.6,-0.1,69.4,64.9,86.8,83.8,77.0,66.6,89.7,85.5,73.9,64.1,87.7,83.2,71.9,62.8,86.2,81.7,2.03,-2.06,0.09,0.07,0.0,128.49,127.04,116.94,116.1,356.7,7.7,0.4619523784980439,146.9214980419725,20.5257974906541,-46.81322291113787,7.202035125671209,0,10
1417,70.8,1379.5,44.05545772878356,-78.6839249416244,112.0,10.0,58.6,-55.6,2950.7,2951.0,149.7,0.0,1.0,1.0,0.0,1.0,1.0,0.0,0.0,0.0,100.0,1.0,1.186,26.0,0.0,8.373,74.678,66.0,0.0,26.0,26.0,26.0,26.0,-0.69,-0.23,0.02,381.3,-2.54,-2.64,-0.98,-1.9,-958.4,782.78,5.6,0.0,0.0,0.0,0.0,0.77,-7.49,-7.49,-1.25,-0.45,0.31,-6.83,41.57,-0.13,-0.49,20.84,100.0,0.0,0.0,116.33,0.0,0.0,0.0,0.0,0.0,0.0,0.0,7799.0,0.0,30.0,3.0,149.7,0.0,0.0,0.0,0.0,0.0,0.0,1.0,0.0,70.83,70.83,74.679,27.738,0.0,110.0,435.8,8750.0,0.0,0.0,110.0,110.0,433.0,0.0,0.0,0.0,1.0,333.3,67.9,67.9,74.3,74.3,34.0,-87.84,-24.61,-68.1,-11.3,1.0,-148.09,25.7,100.0,24.9,20.5,34.0,26.1,0.0,1.0,0.0,0.0,0.0,0.0,0.0,5528.0,3414.0,5348.0,2727.0,309.9,315.4,342.0,348.3,22.94,22.22,26.73,26.25,325.0,325.0,355.0,355.0,99.85,99.76,99.98,99.92,-1.06,-0.98,-0.81,-0.65,-0.1,-0.0,-0.6,-0.3,69.4,64.9,86.8,83.8,77.0,66.6,89.7,85.4,73.9,64.1,87.6,83.1,71.9,62.8,86.2,81.7,1.58,-1.6,0.07,0.08,0.0,128.46,126.59,116.98,115.69,356.7,7.7,0.7275987905432498,146.92149801352133,21.60610270260242,36.01017079165473,28.808137088542978,0,10
1418,70.85,1381.5,44.05547661453728,-78.68392206379525,78.2,15.4,103.1,-12.1,2952.8,2953.0,149.3,0.0,1.0,1.0,0.0,1.0,1.0,0.0,0.0,0.0,100.0,1.0,1.186,26.0,0.0,8.367,74.678,66.0,0.0,26.0,26.0,26.0,26.0,-0.87,-0.23,0.12,378.3,-2.27,-2.96,-0.85,-2.05,-958.08,784.88,5.5,0.0,0.0,0.0,0.0,0.78,-7.49,-7.49,-1.22,1.52,0.01,-4.05,41.45,-0.49,-0.51,19.73,100.0,0.0,0.0,116.05,0.0,0.0,0.0,0.0,0.0,0.0,0.0,7779.0,0.0,30.0,3.0,149.3,1.0,0.0,0.0,0.0,0.0,0.0,1.0,0.0,70.881,70.881,74.679,27.738,1.0,110.0,435.8,8750.0,0.0,0.0,110.0,110.0,433.0,0.0,0.0,0.0,1.0,333.3,65.2,65.2,70.0,70.0,34.0,-90.71,-17.31,-105.0,-26.6,1.0,-148.14,14.3,100.0,28.8,21.3,39.2,25.5,0.0,1.0,0.0,0.0,0.0,0.0,0.0,6071.0,3291.0,6025.0,2959.0,308.5,315.8,340.4,347.7,22.95,22.22,26.73,26.25,325.0,325.0,355.0,355.0,99.85,99.76,99.98,99.92,-0.93,-0.83,-1.33,-1.16,-0.0,-0.0,-0.6,-0.3,69.4,64.9,86.8,83.8,77.0,66.6,89.6,85.4,73.9,64.1,87.6,83.1,71.9,62.8,86.2,81.6,0.91,-0.9,0.07,0.09,0.0,128.15,126.35,116.69,115.39,356.7,7.7,0.9078546139112804,150.52251512113799,23.406611199508397,-18.005085253571735,25.20711895668356,0,10
1419,70.9,1383.6,44.05549532042668,-78.68391909603396,18.5,-23.4,45.6,26.9,2954.8,2955.0,148.9,0.0,1.0,1.0,0.0,1.0,1.0,0.0,0.0,0.0,100.0,1.0,1.186,26.0,0.0,8.364,74.678,66.0,0.0,26.0,26.0,26.0,26.0,-0.92,-0.22,0.06,378.3,-2.12,-3.1,-0.95,-2.11,-957.75,786.96,5.5,0.0,0.0,0.0,0.0,0.78,-7.49,-7.49,-1.13,1.01,-0.13,-1.13,41.34,-0.68,-0.49,14.78,100.0,0.0,0.0,115.73,0.0,0.0,0.0,0.0,0.0,0.0,0.0,7758.0,0.0,30.0,3.0,148.9,0.0,0.0,0.0,0.0,0.0,0.0,1.0,0.0,70.931,70.931,74.679,27.738,0.0,110.0,435.8,8750.0,0.0,0.0,110.0,110.0,433.0,0.0,0.0,0.0,1.0,333.3,67.8,67.8,69.5,69.5,34.0,-78.81,-10.57,-114.1,-37.6,1.0,-148.19,7.2,100.0,29.8,20.1,41.4,26.9,0.0,1.0,0.0,0.0,0.0,0.0,0.0,5482.0,2140.0,6124.0,3467.0,310.0,319.0,340.1,346.5,22.95,22.22,26.73,26.25,325.0,325.0,355.0,355.0,99.85,99.76,99.98,99.92,-0.92,-0.87,-1.5,-1.35,-0.0,-0.0,-0.6,-0.3,69.4,64.9,86.8,83.8,77.0,66.6,89.6,85.3,73.9,64.1,87.6,83.0,71.9,62.8,86.2,81.6,0.47,-0.47,0.05,0.08,0.0,127.53,126.18,116.15,115.31,356.7,7.7,0.947839648885823,145.12098948816416,24.126814598270776,-57.61627332355005,21.606103100918936,0,10
1420,70.95,1385.7,44.055512857197996,-78.6839160383405,-13.8,-19.5,19.1,20.4,2956.9,2957.0,148.5,0.0,1.0,1.0,0.0,1.0,1.0,0.0,0.0,0.0,100.0,1.0,1.186,26.0,0.0,8.358,74.678,66.0,0.0,26.0,26.0,26.0,26.0,-0.81,-0.23,0.04,378.8,-2.1,-3.03,-0.9,-2.12,-957.41,788.91,5.5,0.0,0.0,0.0,0.0,0.78,-7.49,-7.49,-1.14,-0.87,-0.15,0.5,41.24,-0.69,-0.52,9.84,100.0,0.0,0.0,115.36,0.0,0.0,0.0,0.0,0.0,0.0,0.0,7733.0,0.0,30.0,3.0,148.5,1.0,0.0,0.0,0.0,0.0,0.0,1.0,0.0,70.98,70.98,74.679,27.738,1.0,110.0,435.8,8750.0,0.0,0.0,110.0,110.0,433.0,0.0,0.0,0.0,1.0,333.3,68.0,68.0,69.6,69.6,34.0,-78.3,-14.19,-94.1,-26.2,1.0,-148.24,4.5,100.0,29.1,19.1,42.4,27.9,0.0,1.0,0.0,0.0,0.0,0.0,0.0,5390.0,2648.0,5431.0,2803.0,310.3,317.6,341.7,348.0,22.95,22.22,26.73,26.25,325.0,325.0,355.0,355.0,99.85,99.76,99.98,99.92,-0.95,-0.88,-1.38,-1.23,-0.1,0.0,-0.6,-0.3,69.5,64.9,86.8,83.8,77.0,66.6,89.6,85.3,73.9,64.0,87.6,83.0,71.9,62.8,86.2,81.6,0.3,-0.29,0.06,0.08,0.0,126.93,126.05,115.57,115.16,356.7,7.7,0.842970936628304,144.76088778878298,25.56722150960029,36.01017107616656,32.40915408235484,0,10
1421,71.0,1387.7,44.05553147315524,-78.68391271085055,-17.4,-2.2,-46.7,-17.2,2959.0,2959.0,148.1,0.0,1.0,1.0,0.0,1.0,1.0,0.0,0.0,0.0,100.0,1.0,1.186,26.0,0.0,8.355,74.678,66.0,0.0,26.0,26.0,26.0,26.0,-0.72,-0.2,-0.09,380.1,-2.17,-3.04,-1.01,-1.9,-957.04,790.98,5.5,0.0,0.0,0.0,0.0,0.78,-7.49,-7.49,-1.16,0.04,-0.09,1.42,41.13,-0.61,-0.5,6.73,100.0,0.0,0.0,115.09,0.0,0.0,0.0,0.0,0.0,0.0,0.0,7715.0,0.0,30.0,3.0,148.1,0.0,0.0,0.0,0.0,0.0,0.0,1.0,0.0,71.031,71.031,74.679,27.738,0.0,110.0,435.8,8750.0,0.0,0.0,110.0,110.0,433.0,0.0,0.0,0.0,1.0,333.3,69.0,69.0,71.6,71.6,34.0,-66.41,-11.91,-80.8,-25.6,1.0,-148.29,2.3,100.0,28.2,19.0,40.1,27.0,0.0,1.0,0.0,0.0,0.0,0.0,0.0,4962.0,2694.0,5082.0,3138.0,311.4,317.4,342.6,347.4,22.96,22.22,26.73,26.25,325.0,325.0,355.0,355.0,99.85,99.76,99.98,99.92,-0.84,-0.77,-1.2,-1.03,-0.0,0.0,-0.6,-0.3,69.5,64.9,86.8,83.8,77.0,66.5,89.6,85.3,73.9,64.0,87.6,82.9,71.9,62.8,86.1,81.5,0.16,-0.15,0.06,0.07,0.0,126.48,125.89,115.2,114.97,356.7,7.7,0.7526619427073485,148.7220065957808,27.36773000650626,-10.803051550460054,21.60610196287159,0,10
1422,71.05,1389.8,44.05554999918032,-78.6839092034963,-28.4,-6.3,-20.4,21.3,2961.0,2961.0,147.7,0.0,1.0,1.0,0.0,1.0,1.0,0.0,0.0,0.0,100.0,1.0,1.186,26.0,0.0,8.352,74.678,66.0,0.0,26.0,26.0,26.0,26.0,-0.54,-0.19,-0.02,380.5,-2.14,-2.86,-1.1,-1.9,-956.65,793.04,5.5,0.0,0.0,0.0,0.0,0.78,-7.49,-7.49,-1.18,-0.93,-0.03,1.48,41.03,-0.48,-0.49,3.35,100.0,0.0,0.0,114.81,0.0,0.0,0.0,0.0,0.0,0.0,0.0,7696.0,0.0,30.0,3.0,147.7,1.0,0.0,0.0,0.0,0.0,0.0,1.0,0.0,71.081,71.081,74.679,27.738,1.0,110.0,435.8,8750.0,0.0,0.0,110.0,110.0,433.0,0.0,0.0,0.0,1.0,333.3,69.9,69.9,72.0,72.0,34.0,-50.07,-4.76,-66.8,-18.8,1.0,-148.34,-2.4,100.0,26.8,18.7,39.0,28.1,0.0,1.0,0.0,0.0,0.0,0.0,0.0,4769.0,2938.0,4867.0,3368.0,312.0,316.9,343.1,346.7,22.96,22.22,26.73,26.25,325.0,325.0,355.0,355.0,99.85,99.76,99.98,99.92,-0.56,-0.47,-0.92,-0.75,-0.0,-0.0,-0.5,-0.3,69.5,64.8,86.8,83.8,77.0,66.5,89.6,85.2,73.8,64.0,87.5,82.9,71.9,62.7,86.1,81.5,-0.09,0.09,0.07,0.07,0.0,126.02,125.69,114.81,114.81,356.7,7.7,0.5728001396647875,143.68058263373698,27.72783170588745,-57.616273608061874,10.803051550459521,0,10
1423,71.1,1391.8,44.055567356087316,-78.68390578607419,1.9,51.3,-34.1,6.6,2963.1,2963.0,147.4,0.0,1.0,1.0,0.0,1.0,1.0,0.0,0.0,0.0,100.0,1.0,1.186,26.0,0.0,8.349,74.678,66.0,0.0,26.0,26.0,26.0,26.0,-0.32,-0.2,0.02,379.6,-2.28,-2.82,-1.15,-1.85,-956.27,794.97,5.5,0.0,0.0,0.0,0.0,0.78,-7.49,-7.49,-1.19,0.93,0.08,3.38,40.93,-0.35,-0.5,0.42,100.0,0.0,0.0,114.57,0.0,0.0,0.0,0.0,0.0,0.0,0.0,7680.0,0.0,30.0,3.0,147.4,0.0,0.0,0.0,0.0,0.0,0.0,0.0,0.0,71.13,71.13,74.679,27.738,0.0,110.0,435.8,8750.0,0.0,0.0,110.0,110.0,433.0,0.0,0.0,0.0,1.0,166.7,66.9,66.9,72.2,72.2,34.0,-37.0,7.61,-49.2,-8.1,1.0,-148.39,-5.7,100.0,26.9,21.3,37.3,28.4,0.0,1.0,0.0,0.0,0.0,0.0,0.0,5073.0,3703.0,4493.0,3263.0,311.1,314.6,344.1,347.0,22.96,22.22,26.73,26.25,325.0,325.0,355.0,355.0,99.85,99.76,99.98,99.92,-0.25,-0.18,-0.65,-0.48,0.0,-0.0,-0.5,-0.4,69.5,64.8,86.8,83.8,77.0,66.5,89.5,85.2,73.8,64.0,87.5,82.8,71.9,62.7,86.1,81.4,-0.31,0.31,0.06,0.07,0.0,125.68,125.66,114.57,114.57,356.7,7.7,0.37788887255382375,142.96037923497462,28.448035161552212,32.40915408235537,18.005086107107147,0,10
1424,71.15,1393.9,44.05558570224808,-78.68390209885561,-27.5,16.3,-20.8,69.0,2965.1,2965.0,147.0,0.0,1.0,1.0,0.0,1.0,1.0,0.0,0.0,0.0,100.0,1.0,1.186,26.0,0.0,8.346,74.678,66.0,0.0,26.0,26.0,26.0,26.0,-0.16,-0.18,0.05,379.0,-2.53,-2.54,-1.36,-1.57,-955.86,797.01,5.4,0.0,0.0,0.0,0.0,0.78,-7.49,-7.49,-1.13,0.67,0.24,1.59,40.84,-0.2,-0.46,-2.15,100.0,0.0,0.0,114.36,0.0,0.0,0.0,0.0,0.0,0.0,0.0,7666.0,0.0,30.0,3.0,147.0,1.0,0.0,0.0,0.0,0.0,0.0,0.0,0.0,71.181,71.181,74.679,27.738,1.0,110.0,435.8,8750.0,0.0,0.0,110.0,110.0,433.0,0.0,0.0,0.0,1.0,333.3,68.8,68.8,69.3,69.3,34.0,-19.25,15.29,-38.7,5.0,1.0,-148.44,-5.8,100.0,25.5,22.1,36.3,31.9,0.0,1.0,0.0,0.0,0.0,0.0,0.0,3712.0,3948.0,4787.0,4530.0,314.8,314.0,343.4,343.8,22.96,22.22,26.73,26.25,325.0,325.0,355.0,355.0,99.85,99.76,99.98,99.92,-0.09,-0.02,-0.35,-0.17,-0.0,-0.0,-0.3,-0.4,69.5,64.8,86.8,83.8,77.0,66.5,89.5,85.1,73.8,63.9,87.4,82.8,71.8,62.7,86.0,81.4,-0.32,0.33,0.06,0.07,0.0,125.2,125.44,114.36,114.36,356.7,7.7,0.24596747752497686,146.9214980419725,29.528340316598165,-3.601017278323866,3.6010175628355867,0,10
1425,71.2,1395.9,44.05560404840884,-78.68389841163702,-24.7,31.2,-1.2,28.7,2967.1,2967.0,146.7,0.0,1.0,1.0,0.0,1.0,1.0,0.0,0.0,0.0,100.0,1.0,1.186,26.0,0.0,8.346,74.678,66.0,0.0,26.0,26.0,26.0,26.0,0.01,-0.19,0.06,378.4,-2.63,-2.61,-1.53,-1.46,-955.45,799.05,5.4,0.0,0.0,0.0,0.0,0.78,-7.49,-7.49,-1.14,-0.1,0.26,0.2,40.74,-0.07,-0.48,-3.44,100.0,0.0,0.0,114.05,0.0,0.0,0.0,0.0,0.0,0.0,0.0,7646.0,0.0,30.0,3.0,146.7,0.0,0.0,0.0,0.0,0.0,0.0,0.0,0.0,71.231,71.231,74.679,27.738,0.0,110.0,435.8,8750.0,0.0,0.0,110.0,110.0,433.0,0.0,0.0,0.0,1.0,333.3,66.7,66.7,69.4,69.4,34.0,-17.48,26.54,-20.2,16.0,1.0,-148.49,-5.2,100.0,24.3,23.7,36.2,33.3,0.0,1.0,0.0,0.0,0.0,0.0,0.0,4530.0,4555.0,4201.0,3957.0,312.8,312.3,344.8,345.2,22.97,22.22,26.73,26.25,325.0,325.0,355.0,355.0,99.85,99.76,99.98,99.92,0.04,0.12,-0.1,0.06,0.0,-0.0,-0.3,-0.5,69.5,64.9,86.8,83.8,76.9,66.5,89.4,85.1,73.7,63.9,87.4,82.7,71.8,62.7,86.0,81.3,-0.31,0.3,0.07,0.07,0.0,124.83,125.15,114.05,114.05,356.7,7.7,0.19949937343260005,142.60027750714224,28.80813691783577,-46.8132223421145,-10.803051550459521,0,10
1426,71.25,1397.9,44.055621315383675,-78.68389490428275,30.5,39.3,-37.4,15.2,2969.2,2969.0,146.3,0.0,1.0,1.0,0.0,1.0,1.0,0.0,0.0,0.0,100.0,1.0,1.186,26.0,0.0,8.346,74.678,66.0,0.1,26.0,26.0,26.0,26.0,0.1,-0.19,0.1,377.7,-2.77,-2.75,-1.52,-1.43,-955.06,800.97,5.4,0.0,0.0,0.0,0.0,0.78,-7.49,-7.49,-1.07,2.42,0.31,1.16,40.64,0.02,-0.48,-3.34,100.0,0.0,0.0,113.88,0.0,0.0,0.0,0.0,0.0,0.0,0.0,7634.0,0.0,30.0,3.0,146.3,1.0,0.0,0.0,0.0,0.0,0.0,0.0,0.0,71.28,71.28,74.679,27.738,1.0,110.0,435.8,8750.0,0.0,0.0,110.0,110.0,433.0,0.0,0.0,0.0,1.0,333.3,64.8,64.8,71.2,71.2,34.0,-15.59,30.67,-11.3,27.3,1.0,-148.54,-3.8,100.0,25.8,25.6,34.4,34.1,0.0,1.0,0.0,0.0,0.0,0.0,0.0,4375.0,4637.0,3928.0,4512.0,313.0,312.0,345.4,343.8,22.97,22.22,26.73,26.25,325.0,325.0,355.0,355.0,99.85,99.76,99.98,99.92,0.07,0.15,0.04,0.2,-0.0,-0.0,-0.2,-0.5,69.5,64.9,86.8,83.8,76.9,66.4,89.3,85.0,73.7,63.9,87.3,82.7,71.8,62.6,85.9,81.3,-0.22,0.23,0.06,0.06,0.0,124.63,124.95,113.89,113.89,356.7,7.7,0.23685438564654024,142.24017580776106,28.448035161552212,32.40915379784326,3.601016424788277,0,10
1427,71.3,1400.0,44.055639571612275,-78.68389130699633,-11.0,40.7,32.4,47.2,2971.2,2971.0,146.0,0.0,1.0,1.0,0.0,1.0,1.0,0.0,0.0,0.0,100.0,1.0,1.186,26.0,0.0,8.343,74.678,66.0,1.7,26.0,26.0,26.0,26.0,0.13,-0.22,0.22,375.4,-2.98,-2.55,-1.67,-1.63,-954.66,803.0,5.4,0.0,0.0,0.0,0.0,0.79,-7.49,-7.49,-0.94,2.38,0.32,-0.63,40.54,0.06,-0.48,-2.72,100.0,0.0,0.0,113.6,0.0,0.0,0.0,0.0,0.0,0.0,0.0,7615.0,0.0,30.0,3.0,146.0,0.0,0.0,0.0,0.0,0.0,0.0,0.0,0.0,71.331,71.331,74.679,27.738,0.0,110.0,435.8,8750.0,0.0,0.0,110.0,110.0,433.0,0.0,0.0,0.0,1.0,333.3,63.7,63.7,64.9,64.9,34.0,-16.32,34.49,-12.0,37.5,1.0,-148.59,-1.4,100.0,25.3,27.7,36.0,36.4,0.0,1.0,0.0,0.0,0.0,0.0,0.0,4177.0,5217.0,4833.0,4935.0,313.6,310.4,343.1,342.8,22.97,22.22,26.73,26.25,325.0,325.0,355.0,355.0,99.85,99.76,99.98,99.92,0.07,0.16,0.1,0.27,-0.1,-0.1,-0.2,-0.5,69.6,64.9,86.8,83.8,76.8,66.4,89.3,85.0,73.7,63.9,87.3,82.7,71.7,62.6,85.8,81.2,-0.09,0.1,0.07,0.06,0.0,124.26,124.56,113.6,113.6,356.7,7.7,0.3371943060017473,145.84119288692656,29.1682385603146,-10.80305155045977,-3.6010175628356578,0,10
1428,71.35,1402.0,44.05565773790871,-78.68388761977775,-8.6,0.2,6.2,15.4,2973.2,2973.0,145.5,0.0,1.0,1.0,0.0,1.0,1.0,0.0,0.0,0.0,100.0,1.0,1.186,26.0,0.0,8.34,74.678,66.0,5.8,26.0,26.0,26.0,26.0,0.07,-0.29,0.11,376.1,-2.87,-2.51,-1.83,-1.65,-954.25,805.02,5.4,0.0,0.0,0.0,0.0,0.79,-7.49,-7.49,-0.82,2.26,0.23,-3.28,40.41,0.08,-0.46,-0.97,100.0,0.0,0.0,113.17,0.0,0.0,0.0,0.0,0.0,0.0,0.0,7586.0,0.0,30.0,3.0,145.5,1.0,0.0,0.0,0.0,0.0,0.0,0.0,0.0,71.381,71.381,74.679,27.738,1.0,110.0,435.8,8750.0,0.0,0.0,110.0,110.0,433.0,0.0,0.0,0.0,1.0,333.3,65.1,65.1,66.3,66.3,34.0,-22.88,18.89,-12.2,39.2,1.0,-148.64,3.1,100.0,24.8,27.7,36.3,37.2,0.0,1.0,0.0,0.0,0.0,0.0,0.0,4156.0,4384.0,4552.0,5114.0,313.8,312.6,344.0,342.4,22.97,22.22,26.73,26.25,325.0,325.0,355.0,355.0,99.85,99.76,99.98,99.92,-0.07,0.01,0.1,0.27,-0.3,-0.3,-0.4,-0.5,69.6,64.9,86.8,83.8,76.8,66.4,89.2,84.9,73.6,63.9,87.2,82.6,71.7,62.6,85.8,81.2,0.15,-0.13,0.07,0.06,0.0,123.7,123.85,113.17,113.17,356.7,7.7,0.3179622619116929,141.15987065271509,28.087933405268647,-50.41423933592654,-14.404068544271489,0,10
1429,71.4,1404.0,44.055674825019224,-78.68388429228781,8.8,-37.2,13.9,12.2,2975.2,2975.0,145.0,0.0,1.0,1.0,0.0,1.0,1.0,0.0,0.0,0.0,100.0,1.0,1.186,26.0,0.0,8.343,74.678,66.0,5.6,26.0,26.0,26.0,26.0,-0.08,-0.3,0.07,376.9,-2.65,-2.65,-1.66,-1.62,-953.88,806.92,5.4,0.0,0.0,0.0,0.0,0.79,-7.49,-7.49,-0.76,0.35,0.09,-1.87,40.27,0.07,-0.48,1.7,100.0,0.0,0.0,112.71,0.0,0.0,0.0,0.0,0.0,0.0,0.0,7556.0,0.0,30.0,3.0,145.0,0.0,0.0,0.0,0.0,0.0,0.0,0.0,0.0,71.43,71.43,74.679,27.738,0.0,110.0,435.8,8750.0,0.0,0.0,110.0,110.0,433.0,0.0,0.0,0.0,1.0,333.3,66.1,66.1,69.0,69.0,34.0,-38.24,3.22,-16.2,26.7,1.0,-148.69,9.3,100.0,25.3,25.8,37.0,37.8,0.0,1.0,0.0,0.0,0.0,0.0,0.0,4644.0,3623.0,4461.0,4414.0,312.4,314.8,344.1,344.1,22.97,22.22,26.73,26.25,325.0,325.0,355.0,355.0,99.85,99.76,99.98,99.92,-0.3,-0.24,0.01,0.17,-0.2,-0.3,-0.5,-0.4,69.6,64.9,86.8,83.8,76.8,66.4,89.2,84.9,73.6,63.9,87.2,82.6,71.7,62.6,85.7,81.2,0.48,-0.48,0.07,0.05,0.0,123.35,123.21,112.71,112.71,356.7,7.7,0.31827660925679097,140.7997689533339,27.72783170588745,36.01017107616684,10.803052119483212,0,10
1430,71.45,1406.0,44.0556929013835,-78.68388069500139,-0.3,-22.8,-1.5,-56.3,2977.2,2977.0,144.5,0.0,1.0,1.0,0.0,1.0,1.0,0.0,0.0,0.0,100.0,1.0,1.186,26.0,0.0,8.343,74.678,66.0,2.6,26.0,26.0,26.0,26.0,-0.24,-0.24,0.0,378.3,-2.79,-2.69,-1.49,-1.67,-953.48,808.93,5.4,0.0,0.0,0.0,0.0,0.79,-7.49,-7.49,-0.76,0.19,0.01,-1.94,40.14,0.05,-0.49,5.1,100.0,0.0,0.0,112.37,0.0,0.0,0.0,0.0,0.0,0.0,0.0,7533.0,0.0,30.0,3.0,144.5,1.0,0.0,0.0,0.0,0.0,0.0,0.0,0.0,71.481,71.481,74.679,27.738,1.0,110.0,435.8,8750.0,0.0,0.0,110.0,110.0,433.0,0.0,0.0,0.0,1.0,166.7,66.8,66.8,69.0,69.0,34.0,-50.7,-10.8,-25.9,13.8,1.0,-148.74,15.3,100.0,25.2,24.7,36.9,35.0,0.0,1.0,0.0,0.0,0.0,0.0,0.0,4365.0,3770.0,4605.0,3874.0,313.0,314.4,343.9,345.4,22.98,22.22,26.73,26.25,325.0,325.0,355.0,355.0,99.85,99.76,99.98,99.92,-0.61,-0.55,-0.16,-0.01,-0.1,-0.1,-0.6,-0.3,69.6,64.9,86.8,83.8,76.8,66.4,89.1,84.8,73.6,63.8,87.1,82.5,71.6,62.6,85.7,81.1,0.84,-0.85,0.06,0.05,0.0,123.21,122.84,112.37,112.37,356.7,7.7,0.33941125496954283,144.76088776033177,29.168238617216968,-10.803051265947659,10.803052119483212,0,10
1431,71.5,1408.0,44.05571097774778,-78.6838770077828,-24.8,-28.2,7.0,-51.9,2979.2,2979.0,144.1,0.0,1.0,1.0,0.0,1.0,1.0,0.0,0.0,0.0,100.0,1.0,1.186,26.0,0.0,8.343,74.678,66.0,0.4,26.0,26.0,26.0,26.0,-0.39,-0.2,-0.04,380.3,-2.64,-2.59,-1.48,-1.83,-953.07,810.94,5.4,0.0,0.0,0.0,0.0,0.79,-7.49,-7.49,-0.78,-0.92,-0.15,-3.86,40.03,-0.03,-0.48,8.28,100.0,0.0,0.0,112.06,0.0,0.0,0.0,0.0,0.0,0.0,0.0,7512.0,0.0,30.0,3.0,144.1,0.0,0.0,0.0,0.0,0.0,0.0,0.0,0.0,71.531,71.531,74.679,27.738,0.0,110.0,435.8,8750.0,0.0,0.0,110.0,110.0,433.0,0.0,0.0,0.0,1.0,333.3,69.4,69.4,69.5,69.5,34.0,-54.84,-17.45,-36.5,4.6,1.0,-148.79,19.6,100.0,24.0,23.3,37.3,32.4,0.0,1.0,0.0,0.0,0.0,0.0,0.0,4151.0,3206.0,4586.0,3730.0,313.8,316.0,343.9,345.8,22.98,22.22,26.73,26.25,325.0,325.0,355.0,355.0,99.85,99.76,99.98,99.92,-0.83,-0.79,-0.34,-0.2,-0.1,-0.0,-0.5,-0.2,69.6,64.9,86.8,83.8,76.7,66.4,89.1,84.8,73.6,63.8,87.0,82.5,71.6,62.6,85.6,81.0,1.1,-1.12,0.07,0.06,0.0,123.09,122.39,112.14,111.97,356.7,7.7,0.44011362169330775,139.71946382673914,28.80813691783577,-57.61627360806216,3.6010164247882415,0,10
1432,71.55,1410.0,44.05572779506181,-78.68387350042853,38.8,-34.4,-10.5,-40.8,2981.2,2981.0,143.8,0.0,1.0,1.0,0.0,1.0,1.0,0.0,0.0,0.0,100.0,1.0,1.186,26.0,0.0,8.343,74.678,66.0,0.0,26.0,26.0,26.0,26.0,-0.55,-0.18,-0.07,380.8,-2.36,-2.85,-1.27,-1.79,-952.68,812.81,5.4,0.0,0.0,0.0,0.0,0.79,-7.49,-7.49,-0.82,-0.66,-0.32,-2.7,39.93,-0.13,-0.5,11.33,100.0,0.0,0.0,111.77,0.0,0.0,0.0,0.0,0.0,0.0,0.0,7493.0,0.0,30.0,3.0,143.8,1.0,0.0,0.0,0.0,0.0,0.0,0.0,0.0,71.58,71.58,74.679,27.738,1.0,110.0,435.8,8750.0,0.0,0.0,110.0,110.0,433.0,0.0,0.0,0.0,1.0,333.3,68.0,68.0,74.8,74.8,34.0,-83.29,-18.19,-43.7,-6.2,1.0,-148.84,21.9,100.0,25.9,21.5,36.7,30.4,0.0,1.0,0.0,0.0,0.0,0.0,0.0,5428.0,2807.0,4266.0,3106.0,310.4,317.2,344.6,347.3,22.98,22.22,26.73,26.25,325.0,325.0,355.0,355.0,99.85,99.76,99.98,99.92,-1.03,-0.97,-0.59,-0.43,-0.0,-0.0,-0.6,-0.2,69.6,64.9,86.8,83.8,76.7,66.3,89.0,84.7,73.6,63.8,87.0,82.4,71.6,62.6,85.6,81.0,1.25,-1.26,0.07,0.07,0.0,122.95,122.0,112.03,111.51,356.7,7.7,0.5829236656715869,138.99926039952555,29.528340259695792,32.40915379784269,28.808135950495526,0,10
1433,71.6,1412.0,44.05574569156177,-78.68386963334564,64.7,-13.6,6.0,-38.1,2983.2,2983.0,143.4,0.0,1.0,1.0,0.0,1.0,1.0,0.0,0.0,0.0,100.0,1.0,1.186,26.0,0.0,8.343,74.678,66.0,0.0,26.0,26.0,26.0,26.0,-0.78,-0.22,0.11,379.5,-2.21,-2.93,-1.17,-1.9,-952.25,814.8,5.4,0.0,0.0,0.0,0.0,0.79,-7.49,-7.49,-0.78,1.57,-0.43,-0.44,39.82,-0.24,-0.49,14.29,100.0,0.0,0.0,111.56,0.0,0.0,0.0,0.0,0.0,0.0,0.0,7479.0,0.0,30.0,3.0,143.4,0.0,0.0,0.0,0.0,0.0,0.0,1.0,0.0,71.631,71.631,74.679,27.738,0.0,110.0,435.8,8750.0,0.0,0.0,110.0,110.0,433.0,0.0,0.0,0.0,1.0,333.3,66.2,66.2,74.0,74.0,34.0,-102.23,-21.76,-79.7,-14.9,1.0,-148.89,25.2,100.0,29.2,20.9,37.0,28.5,0.0,1.0,0.0,0.0,0.0,0.0,0.0,5897.0,2613.0,5715.0,3022.0,308.9,317.6,341.2,347.5,22.98,22.22,26.73,26.24,325.0,325.0,355.0,355.0,99.85,99.76,99.98,99.92,-1.28,-1.22,-0.87,-0.71,-0.0,0.0,-0.5,-0.3,69.6,64.9,86.8,83.8,76.7,66.3,89.0,84.7,73.6,63.8,87.0,82.4,71.6,62.5,85.6,80.9,1.44,-1.45,0.07,0.08,0.0,122.83,121.61,112.0,111.13,356.7,7.7,0.8178630692236935,142.9603792065234,31.688950512885324,-10.80305126594709,25.207120094730975,0,10
1434,71.65,1414.0,44.055763498129565,-78.68386558639841,-5.9,-8.6,63.1,3.2,2985.2,2985.0,143.0,0.0,1.0,1.0,0.0,1.0,1.0,0.0,0.0,0.0,100.0,1.0,1.186,26.0,0.0,8.346,74.678,66.0,0.0,26.0,26.0,26.0,26.0,-0.96,-0.22,0.14,378.6,-2.31,-2.86,-1.02,-2.03,-951.8,816.78,5.4,0.0,0.0,0.0,0.0,0.79,-7.49,-7.49,-0.7,0.9,-0.44,-1.28,39.71,-0.34,-0.48,15.96,100.0,0.0,0.0,111.24,0.0,0.0,0.0,0.0,0.0,0.0,0.0,7457.0,0.0,30.0,3.0,143.0,1.0,0.0,0.0,0.0,0.0,0.0,1.0,0.0,71.681,71.681,74.679,27.738,1.0,110.0,435.8,8750.0,0.0,0.0,110.0,110.0,433.0,0.0,0.0,0.0,1.0,333.3,66.9,66.9,70.1,70.1,34.0,-105.77,-27.91,-93.4,-25.7,1.0,-148.94,28.6,100.0,28.9,20.4,40.2,28.6,0.0,1.0,0.0,0.0,0.0,0.0,0.0,5716.0,2681.0,5924.0,3507.0,309.5,317.4,340.6,346.3,22.98,22.22,26.73,26.24,325.0,325.0,355.0,355.0,99.85,99.76,99.98,99.92,-1.56,-1.52,-1.08,-0.93,-0.1,0.0,-0.5,-0.2,69.7,64.9,86.8,83.8,76.8,66.3,89.0,84.6,73.6,63.8,86.9,82.3,71.6,62.5,85.5,80.9,1.63,-1.65,0.06,0.06,0.0,122.49,121.19,111.71,110.78,356.7,7.7,0.994786409235671,137.91895527293084,32.04905226916889,-18.005085253571167,28.808137657566597,0,10
1435,71.7,1416.0,44.055780135579276,-78.68386162938334,21.0,4.9,22.1,-14.5,2987.2,2987.0,142.6,0.0,1.0,1.0,0.0,1.0,1.0,0.0,0.0,0.0,100.0,1.0,1.186,26.0,0.0,8.349,74.678,66.0,0.0,26.0,26.0,26.0,26.0,-1.06,-0.21,0.12,378.0,-2.41,-3.01,-0.98,-2.02,-951.36,818.63,5.4,0.0,0.0,0.0,0.0,0.8,-7.49,-7.49,-0.65,1.65,-0.49,-1.79,39.6,-0.43,-0.49,18.29,100.0,0.0,0.0,110.91,0.0,0.0,0.0,0.0,0.0,0.0,0.0,7435.0,0.0,30.0,3.0,142.6,0.0,0.0,0.0,0.0,0.0,0.0,1.0,0.0,71.73,71.73,74.679,27.738,0.0,110.0,435.8,8750.0,0.0,0.0,110.0,110.0,433.0,0.0,0.0,0.0,1.0,333.3,64.4,64.4,70.8,70.8,34.0,-122.71,-38.8,-86.9,-29.1,1.0,-148.99,29.2,100.0,29.9,20.7,41.3,27.9,0.0,1.0,0.0,0.0,0.0,0.0,0.0,6302.0,3386.0,5266.0,3262.0,307.9,315.5,342.2,347.0,22.99,22.22,26.73,26.24,325.0,325.0,355.0,355.0,99.85,99.76,99.98,99.92,-1.69,-1.63,-1.27,-1.12,-0.1,-0.0,-0.6,-0.2,69.7,64.8,86.8,83.8,76.8,66.3,88.9,84.6,73.6,63.8,86.9,82.3,71.7,62.5,85.5,80.9,1.69,-1.72,0.05,0.07,0.0,122.28,120.73,111.43,110.38,356.7,7.7,1.0872442227944925,141.1598706811663,34.56976427864198,25.207119810218614,43.21220563281429,0,10
1436,71.75,1417.9,44.05579875153652,-78.68385695291099,86.8,13.3,33.0,-26.8,2989.2,2989.0,142.1,0.0,1.0,1.0,0.0,1.0,1.0,0.0,0.0,0.0,100.0,1.0,1.186,26.0,0.0,8.349,74.678,66.0,0.0,26.0,26.0,26.0,26.0,-1.26,-0.24,0.26,375.5,-2.14,-3.29,-0.87,-2.25,-950.84,820.7,5.4,0.0,0.0,0.0,0.0,0.8,-7.49,-7.49,-0.47,4.74,-0.62,-0.92,39.47,-0.55,-0.47,20.7,100.0,0.0,0.0,110.65,0.0,0.0,0.0,0.0,0.0,0.0,0.0,7418.0,0.0,30.0,3.0,142.1,1.0,0.0,0.0,0.0,0.0,0.0,1.0,0.0,71.784,71.784,74.679,27.738,1.0,110.0,435.8,8750.0,0.0,0.0,110.0,110.0,433.0,0.0,0.0,0.0,1.0,166.7,60.6,60.6,70.1,70.1,34.0,-154.45,-35.27,-120.3,-36.1,1.0,-149.04,29.0,100.0,34.3,21.3,42.9,26.5,0.0,1.0,0.0,0.0,0.0,0.0,0.0,7549.0,3124.0,6339.0,3354.0,304.5,316.2,339.6,346.9,22.99,22.22,26.73,26.24,325.0,325.0,355.0,355.0,99.85,99.76,99.98,99.92,-1.78,-1.7,-1.54,-1.39,-0.1,0.0,-0.6,-0.3,69.7,64.8,86.8,83.8,76.8,66.3,88.9,84.5,73.6,63.8,86.9,82.2,71.7,62.5,85.5,80.8,1.67,-1.69,0.05,0.07,0.0,122.1,120.32,111.33,109.97,356.7,7.7,1.308739851918631,140.4396672539527,36.37027283245032,-100.82847924087616,18.005084969059766,0,10
1437,71.8,1419.9,44.05581520912191,-78.68385254623512,20.7,-18.5,87.3,40.6,2991.1,2991.0,141.7,0.0,1.0,1.0,0.0,1.0,1.0,0.0,0.0,0.0,100.0,1.0,1.186,26.0,0.0,8.349,74.678,66.0,0.0,26.0,26.0,26.0,26.0,-1.23,-0.22,0.15,375.7,-2.01,-3.27,-0.88,-2.45,-950.35,822.53,5.4,0.0,0.0,0.0,0.0,0.8,-7.49,-7.49,-0.22,4.12,-0.66,0.86,39.35,-0.63,-0.44,20.04,100.0,0.0,0.0,110.32,0.0,0.0,0.0,0.0,0.0,0.0,0.0,7396.0,0.0,30.0,3.0,141.7,0.0,0.0,0.0,0.0,0.0,0.0,1.0,0.0,71.831,71.831,74.679,27.738,0.0,110.0,435.8,8750.0,0.0,0.0,110.0,110.0,433.0,0.0,0.0,0.0,1.0,333.3,64.5,64.5,66.3,66.3,34.0,-122.51,-15.04,-139.1,-38.8,1.0,-149.09,27.6,100.0,35.3,20.4,47.3,28.6,0.0,1.0,0.0,0.0,0.0,0.0,0.0,6207.0,1508.0,6932.0,3387.0,307.9,320.6,338.2,346.8,22.99,22.21,26.73,26.24,325.0,325.0,355.0,355.0,99.85,99.76,99.98,99.92,-1.83,-1.81,-1.67,-1.54,-0.1,-0.0,-0.5,-0.2,69.7,64.8,86.8,83.8,76.9,66.3,88.9,84.5,73.7,63.8,86.9,82.2,71.7,62.5,85.5,80.8,1.61,-1.63,0.04,0.07,0.0,121.69,119.96,110.98,109.66,356.7,7.7,1.258491160080197,131.07702275707868,36.37027277554796,-61.21729117089757,32.40915351333122,0,10
1438,71.85,1421.9,44.055831486842976,-78.68384786976277,-102.5,-68.1,42.9,34.0,2993.1,2993.0,141.4,0.0,1.0,1.0,0.0,1.0,1.0,0.0,0.0,0.0,100.0,1.0,1.186,26.0,0.0,8.352,74.678,66.0,0.0,26.0,26.0,26.0,26.0,-1.15,-0.11,0.03,377.9,-2.03,-2.93,-0.83,-2.38,-949.83,824.34,5.4,0.0,0.0,0.0,0.0,0.8,-7.49,-7.49,-0.16,-1.58,-0.56,2.67,39.25,-0.66,-0.45,16.63,100.0,0.0,0.0,110.39,0.0,0.0,0.0,0.0,0.0,0.0,0.0,7400.0,0.0,30.0,3.0,141.4,1.0,0.0,0.0,0.0,0.0,0.0,1.0,0.0,71.88,71.88,74.679,27.738,1.0,110.0,435.8,8750.0,0.0,0.0,110.0,110.0,433.0,0.0,0.0,0.0,1.0,333.3,70.5,70.5,63.2,63.2,34.0,-100.29,-15.54,-132.1,-39.0,1.0,-149.14,25.2,100.0,30.2,17.0,49.5,30.3,0.0,1.0,7.5,0.0,0.0,0.0,0.0,5281.0,1498.0,6640.0,3386.0,310.6,320.8,338.7,346.6,23.0,22.21,26.73,26.24,325.0,325.0,355.0,355.0,99.85,99.76,99.98,99.92,-1.91,-1.91,-1.64,-1.5,-0.1,0.0,-0.0,0.1,69.7,64.8,86.8,83.7,76.9,66.3,88.9,84.5,73.7,63.8,86.9,82.2,71.8,62.5,85.5,80.8,1.49,-1.52,0.04,0.06,0.0,121.0,119.59,110.9,109.88,356.7,7.7,1.1556383517346591,134.31793813686295,39.61118818378344,68.41932515852164,61.21729117089757,0,10
1439,71.9,1423.8,44.055848753817806,-78.68384265369745,-42.5,-9.5,-122.2,-70.3,2995.1,2995.0,141.3,0.0,1.0,1.0,0.0,1.0,1.0,0.0,0.0,0.0,100.0,1.0,1.186,26.0,0.0,8.352,74.678,66.0,0.0,26.0,26.0,26.0,26.0,-1.02,0.04,-0.15,382.4,-2.04,-2.83,-0.86,-1.99,-949.25,826.26,5.4,0.0,0.0,0.0,0.0,0.8,-7.49,-7.49,-0.27,-1.9,-0.44,1.26,39.23,-0.7,-0.49,15.96,100.0,0.0,0.0,111.41,0.0,0.0,0.0,0.0,0.0,0.0,0.0,7468.0,0.0,30.0,3.0,141.3,0.0,0.0,0.0,0.0,0.0,0.0,1.0,0.0,71.931,71.931,74.679,27.738,0.0,110.0,435.8,8750.0,0.0,0.0,110.0,110.0,433.0,0.0,0.0,0.0,1.0,333.3,71.2,71.2,71.0,71.0,34.0,-90.36,-24.01,-90.0,-24.8,1.0,-149.19,22.6,100.0,28.1,16.5,43.3,26.8,0.0,1.0,23.8,0.0,0.0,0.0,0.0,4888.0,2131.0,4981.0,2462.0,311.7,318.9,342.9,349.0,23.0,22.21,26.73,26.24,325.0,325.0,355.0,355.0,99.85,99.76,99.98,99.92,-1.83,-1.81,-1.63,-1.53,-0.1,-0.1,0.3,1.6,69.7,64.8,86.8,83.7,76.9,66.3,88.9,84.4,73.7,63.8,86.9,82.2,71.8,62.5,85.5,80.7,1.32,-1.36,0.06,0.08,0.0,120.88,119.5,111.41,111.41,356.7,7.7,1.031746092796091,137.91895527293084,42.49200189263772,-10.803050981435831,32.40915408235473,0,10
1440,71.95,1425.8,44.055865930860485,-78.68383725776782,-25.2,-16.9,-69.0,-42.0,2997.0,2997.0,141.4,0.0,1.0,1.0,0.0,1.0,1.0,0.0,0.0,0.0,100.0,1.0,1.186,26.0,0.0,8.346,74.678,66.0,0.0,26.0,26.0,26.0,26.0,-1.04,0.13,-0.04,383.5,-1.98,-2.93,-0.78,-1.96,-948.65,828.17,5.4,0.0,0.0,0.0,0.0,0.8,-7.49,-7.49,-0.32,-0.64,-0.44,-0.34,39.28,-0.74,-0.46,15.18,100.0,0.0,0.0,111.93,0.0,0.0,0.0,0.0,0.0,0.0,0.0,7503.0,0.0,30.0,3.0,141.4,1.0,0.0,0.0,0.0,0.0,0.0,1.0,0.0,71.981,71.981,74.679,27.738,1.0,110.0,435.8,8750.0,0.0,0.0,110.0,110.0,433.0,0.0,0.0,0.0,1.0,333.3,71.8,71.8,74.1,74.1,34.0,-104.7,-19.82,-99.3,-27.5,1.0,-149.24,20.3,100.0,26.8,15.7,39.9,24.7,0.0,1.0,36.1,0.0,0.0,0.0,0.0,5554.0,1918.0,5406.0,2761.0,310.0,319.7,341.9,348.2,23.0,22.21,26.73,26.24,325.0,325.0,355.0,355.0,99.85,99.76,99.98,99.92,-1.77,-1.73,-1.67,-1.52,-0.1,-0.1,0.8,1.9,69.8,64.8,86.8,83.7,76.9,66.3,88.9,84.4,73.7,63.7,86.9,82.1,71.8,62.5,85.5,80.7,1.19,-1.21,0.07,0.08,0.0,121.07,119.72,111.93,111.93,356.7,7.7,1.0488565202161828,133.23763303871937,42.85210359201891,-50.414239620438366,21.606102531895317,0,10
1441,72.0,1427.8,44.05588202871723,-78.68383195177034,1.8,-7.4,-5.8,-10.6,2999.0,2999.0,141.7,0.0,1.0,1.0,0.0,1.0,1.0,0.0,0.0,0.0,100.0,1.0,1.186,26.0,0.0,8.346,74.678,66.0,0.0,26.0,26.0,26.0,26.0,-1.01,0.21,-0.03,383.9,-1.82,-3.0,-0.65,-1.91,-948.06,829.96,5.4,0.0,0.0,0.0,0.0,0.8,-7.49,-7.49,-0.3,1.31,-0.46,0.63,39.34,-0.75,-0.43,14.93,100.0,0.0,0.0,112.59,0.0,0.0,0.0,0.0,0.0,0.0,0.0,7547.0,0.0,30.0,3.0,141.7,0.0,0.0,0.0,0.0,0.0,0.0,1.0,0.0,72.03,72.03,74.679,27.738,0.0,110.0,435.8,8750.0,0.0,0.0,110.0,110.0,433.0,0.0,0.0,0.0,1.0,333.3,72.2,72.2,74.6,74.6,34.0,-105.15,-15.03,-99.6,-24.7,1.0,-149.29,18.1,100.0,26.9,15.3,39.6,24.1,0.0,1.0,45.6,0.0,0.0,0.0,0.0,5663.0,1596.0,5556.0,2593.0,309.6,320.5,341.5,348.6,23.0,22.21,26.74,26.24,325.0,325.0,355.0,355.0,99.85,99.76,99.98,99.92,-1.67,-1.62,-1.67,-1.54,-0.1,-0.1,1.1,2.3,69.8,64.8,86.8,83.7,77.0,66.2,88.9,84.4,73.8,63.7,86.9,82.1,71.8,62.4,85.5,80.7,1.08,-1.08,0.06,0.08,0.0,121.33,119.99,112.59,112.59,356.7,7.7,1.0320368210485515,132.877531310887,44.65261214582725,36.01017107616684,50.41423962043815,0,10
1442,72.05,1429.7,44.05589911582774,-78.68382610617991,-1.9,-8.6,26.4,32.7,3001.0,3001.0,142.1,0.0,1.0,1.0,0.0,1.0,1.0,0.0,0.0,0.0,100.0,1.0,1.186,26.0,0.0,8.343,74.678,66.0,0.0,26.0,26.0,26.0,26.0,-1.07,0.27,0.09,382.0,-1.93,-2.94,-0.84,-2.05,-947.41,831.86,5.5,0.0,0.0,0.0,0.0,0.8,-7.49,-7.49,-0.21,1.53,-0.37,1.59,39.47,-0.71,-0.39,13.0,100.0,0.0,0.0,112.91,0.0,0.0,0.0,0.0,0.0,0.0,0.0,7569.0,0.0,30.0,3.0,142.1,1.0,0.0,0.0,0.0,0.0,0.0,1.0,0.0,72.081,72.081,74.679,27.738,1.0,110.0,435.8,8750.0,0.0,0.0,110.0,110.0,433.0,0.0,0.0,0.0,1.0,333.3,72.1,72.1,71.4,71.4,34.0,-102.83,-18.59,-112.6,-36.7,1.0,-149.34,16.0,100.0,26.8,14.9,40.9,25.8,0.0,1.0,62.5,0.0,0.0,0.0,0.0,5631.0,1960.0,6160.0,3731.0,309.7,319.6,340.0,345.7,23.01,22.21,26.74,26.23,325.0,325.0,355.0,355.0,99.85,99.76,99.98,99.92,-1.58,-1.53,-1.59,-1.43,-0.1,-0.1,1.2,2.2,69.8,64.8,86.8,83.7,77.0,66.2,88.9,84.3,73.8,63.7,86.9,82.1,71.8,62.4,85.5,80.6,0.94,-0.95,0.07,0.08,0.0,121.61,120.46,112.91,112.91,356.7,7.7,1.1072036849649662,136.83865014633605,47.89352755406273,0.0,36.0101710761667,0,10
