,Time,Distance,GPS Latitude,GPS Longitude,Damper Velocity (Calc) FL,Damper Velocity (Calc) FR,Damper Velocity (Calc) RL,Damper Velocity (Calc) RR,Corr Dist,Corr Dist (Unstretched),Corr Speed,ABS Active,ABS Enabled,AID Allow Tire Blankets,AID Auto Blip,AID Auto Clutch,AID Auto Shift,AID Fuel Rate,AID Ideal Line,AID Mech Damage,AID Stability,AID Tire Wear Rate,Air Density,Air Temp,Ballast,Best Lap Delta,Best Lap Time,Brake Bias,Brake Pos,Brake Temp FL,Brake Temp FR,Brake Temp RL,Brake Temp RR,CG Accel Lateral,CG Accel Longitudinal,CG Accel Vertical,CG Height,Camber FL,Camber FR,Camber RL,Camber RR,Car Coord X,Car Coord Y,Car Coord Z,Car Damage Front,Car Damage Left,Car Damage Rear,Car Damage Right,Car Pos Norm,Caster FL,Caster FR,Chassis Pitch Angle,Chassis Pitch Rate,Chassis Roll Angle,Chassis Roll Rate,Chassis Velocity X,Chassis Velocity Y,Chassis Velocity Z,Chassis Yaw Rate,Clutch Pos,DRS Active,DRS Available,Drive Train Speed,ERS Heat Charging,ERS Is Charging,ERS Max Energy,ERS Power Level,ERS Recovery Level,Engine Brake Setting,Engine Limiter,Engine RPM,Flags,Fuel Level,Gear,Ground Speed,HR Sample Clock,In Pit,KERS Charge,KERS Deployed Energy,KERS Input,KERS Max Energy,LR Sample Clock,Lap Invalidated,Lap Time,Lap Time2,Last Lap Time,Last Sector Time,MR Sample Clock,Max Fuel,Max Power,Max RPM,Max Sus Travel FL,Max Sus Travel FR,Max Sus Travel RL,Max Sus Travel RR,Max Torque,Max Turbo Boost,Num Tires Off Track,Penalties Enabled,Position,Raw Data Sample Rate,Ride Height FL,Ride Height FR,Ride Height RL,Ride Height RR,Road Temp,Self Align Torque FL,Self Align Torque FR,Self Align Torque RL,Self Align Torque RR,Session Lap Count,Session Time Left,Steering Angle,Surface Grip,Suspension Travel FL,Suspension Travel FR,Suspension Travel RL,Suspension Travel RR,TC Active,TC Enabled,Throttle Pos,Tire Dirt Level FL,Tire Dirt Level FR,Tire Dirt Level RL,Tire Dirt Level RR,Tire Load FL,Tire Load FR,Tire Load RL,Tire Load RR,Tire Loaded Radius FL,Tire Loaded Radius FR,Tire Loaded Radius RL,Tire Loaded Radius RR,Tire Pressure FL,Tire Pressure FR,Tire Pressure RL,Tire Pressure RR,Tire Radius FL,Tire Radius FR,Tire Radius RL,Tire Radius RR,Tire Rubber Grip FL,Tire Rubber Grip FR,Tire Rubber Grip RL,Tire Rubber Grip RR,Tire Slip Angle FL,Tire Slip Angle FR,Tire Slip Angle RL,Tire Slip Angle RR,Tire Slip Ratio FL,Tire Slip Ratio FR,Tire Slip Ratio RL,Tire Slip Ratio RR,Tire Temp Core FL,Tire Temp Core FR,Tire Temp Core RL,Tire Temp Core RR,Tire Temp Inner FL,Tire Temp Inner FR,Tire Temp Inner RL,Tire Temp Inner RR,Tire Temp Middle FL,Tire Temp Middle FR,Tire Temp Middle RL,Tire Temp Middle RR,Tire Temp Outer FL,Tire Temp Outer FR,Tire Temp Outer RL,Tire Temp Outer RR,Toe In FL,Toe In FR,Toe In RL,Toe In RR,Turbo Boost,Wheel Angular Speed FL,Wheel Angular Speed FR,Wheel Angular Speed RL,Wheel Angular Speed RR,Wind Direction,Wind Speed,CG Distance,Lateral Velocity,Longitudinal Velocity,Lateral Acceleration,Longitudinal Acceleration,level,curve_number
468,23.35,471.6,44.05331059844942,-78.67914378823869,-4.0,1.2,6.2,3.0,2042.8,2043.0,4.6,0.0,1.0,1.0,0.0,1.0,1.0,0.0,0.0,0.0,100.0,1.0,1.186,26.0,0.0,-15.15,74.678,66.0,0.0,26.0,26.0,26.0,26.0,0.02,0.47,-0.01,388.9,-0.98,-3.29,-1.54,-1.31,-426.76,544.03,4.2,0.0,0.0,0.0,0.0,0.27,-7.49,-7.49,0.25,0.69,2.25,-0.69,1.29,-0.11,-0.01,-4.99,100.0,0.0,0.0,3.27,0.0,0.0,0.0,0.0,0.0,0.0,0.0,443.0,0.0,30.0,1.0,4.6,1.0,0.0,0.0,0.0,0.0,0.0,0.0,0.0,23.381,23.381,74.679,19.926,1.0,110.0,435.8,8750.0,0.0,0.0,110.0,110.0,433.0,0.0,0.0,0.0,1.0,333.3,74.7,74.7,76.0,76.0,34.0,-23.03,35.63,-14.6,12.9,1.0,-100.64,-182.8,100.0,16.1,14.3,25.9,28.9,0.0,1.0,100.0,0.0,0.0,0.0,0.0,2830.0,2876.0,3611.0,3996.0,317.8,317.4,346.0,344.8,24.84,23.91,25.84,25.19,325.0,325.0,355.0,355.0,99.76,99.71,99.78,99.74,-0.59,0.8,-0.1,0.1,-0.1,0.0,1.4,2.4,81.2,75.4,81.2,77.2,86.2,81.3,93.2,89.7,83.1,78.2,91.0,87.4,80.8,76.4,89.9,86.4,-11.24,10.34,0.09,0.08,0.0,3.87,4.13,3.54,2.99,356.7,7.7,0.47053161424074363,3.240915379784297,3.240915408235482,10.803051834971361,10.803050981435804,0,5
469,23.4,471.6,44.053311048110224,-78.67914333857789,-1.9,-0.9,7.3,1.4,2042.8,2043.0,5.2,0.0,1.0,1.0,0.0,1.0,1.0,0.0,0.0,0.0,100.0,1.0,1.186,26.0,0.0,-15.15,74.678,66.0,0.0,26.0,26.0,26.0,26.0,0.04,0.55,0.01,388.9,-1.04,-3.28,-1.53,-1.33,-426.71,544.08,4.2,0.0,0.0,0.0,0.0,0.27,-7.49,-7.49,0.27,0.28,2.25,0.21,1.44,-0.13,-0.01,-5.28,100.0,0.0,0.0,3.96,0.0,0.0,0.0,0.0,0.0,0.0,0.0,536.0,0.0,30.0,1.0,5.2,0.0,0.0,0.0,0.0,0.0,0.0,0.0,0.0,23.43,23.43,74.679,19.926,0.0,110.0,435.8,8750.0,0.0,0.0,110.0,110.0,433.0,0.0,0.0,0.0,1.0,333.3,74.7,74.7,76.0,76.0,34.0,-18.02,29.49,-10.5,15.2,1.0,-100.69,-176.0,100.0,16.0,14.2,26.3,29.0,0.0,1.0,100.0,0.0,0.0,0.0,0.0,2836.0,2862.0,3577.0,4003.0,317.7,317.5,346.1,344.8,24.84,23.91,25.84,25.19,325.0,325.0,355.0,355.0,99.76,99.71,99.78,99.74,-0.41,0.54,-0.06,0.19,-0.1,-0.2,2.7,3.0,81.2,75.4,81.2,77.2,86.1,81.2,93.2,89.6,83.0,78.1,91.0,87.4,80.8,76.4,89.9,86.4,-10.79,9.97,0.1,0.07,0.0,4.24,4.7,4.52,3.39,356.7,7.7,0.5515432893255071,3.601017136067861,3.9611188069978693,7.202034556647572,10.803050981435822,0,5
470,23.45,471.7,44.053311497771034,-78.67914279898493,-0.8,3.6,4.2,4.4,2042.9,2043.0,5.8,0.0,1.0,1.0,0.0,1.0,1.0,0.0,0.0,0.0,100.0,1.0,1.186,26.0,0.0,-15.15,74.678,66.0,0.0,26.0,26.0,26.0,26.0,0.03,0.42,0.0,388.7,-1.12,-3.25,-1.53,-1.33,-426.65,544.13,4.2,0.0,0.0,0.0,0.0,0.27,-7.49,-7.49,0.28,-0.07,2.24,-0.31,1.61,-0.13,-0.01,-5.75,100.0,0.0,0.0,4.73,0.0,0.0,0.0,0.0,0.0,0.0,0.0,641.0,0.0,30.0,1.0,5.8,1.0,0.0,0.0,0.0,0.0,0.0,0.0,0.0,23.481,23.481,74.679,19.926,1.0,110.0,435.8,8750.0,0.0,0.0,110.0,110.0,433.0,0.0,0.0,0.0,1.0,166.7,74.7,74.7,76.0,76.0,34.0,-14.53,26.71,-9.0,18.6,1.0,-100.74,-168.0,100.0,15.9,14.4,26.5,29.2,0.0,1.0,100.0,0.0,0.0,0.0,0.0,2896.0,2894.0,3576.0,3943.0,317.6,317.4,346.1,344.9,24.83,23.91,25.84,25.2,325.0,325.0,355.0,355.0,99.76,99.71,99.78,99.74,-0.27,0.42,-0.04,0.21,-0.2,-0.1,3.1,2.0,81.2,75.4,81.3,77.2,86.1,81.2,93.1,89.6,83.0,78.1,90.9,87.3,80.7,76.3,89.8,86.3,-10.29,9.54,0.09,0.07,0.0,4.74,5.32,3.78,5.67,356.7,7.7,0.42107006542854597,3.9611188354490543,4.321220506379064,7.202033703112032,7.202034556647572,0,5
471,23.5,471.8,44.053312037363995,-78.67914225939197,2.4,5.5,5.3,1.2,2043.0,2043.0,6.4,0.0,1.0,1.0,0.0,1.0,1.0,0.0,0.0,0.0,100.0,1.0,1.186,26.0,0.0,-15.15,74.678,66.0,0.0,26.0,26.0,26.0,26.0,0.02,0.3,-0.0,388.5,-1.23,-3.21,-1.37,-1.33,-426.59,544.19,4.2,0.0,0.0,0.0,0.0,0.27,-7.49,-7.49,0.3,-0.13,2.23,-0.01,1.78,-0.14,-0.01,-5.93,100.0,0.0,0.0,5.31,0.0,0.0,0.0,0.0,0.0,0.0,0.0,720.0,0.0,30.0,1.0,6.4,0.0,0.0,0.0,0.0,0.0,0.0,0.0,0.0,23.531,23.531,74.679,19.926,0.0,110.0,435.8,8750.0,0.0,0.0,110.0,110.0,433.0,0.0,0.0,0.0,1.0,333.3,74.7,74.7,76.0,76.0,34.0,-15.1,23.41,-12.9,16.3,1.0,-100.79,-157.1,100.0,16.1,14.7,26.8,29.3,0.0,1.0,100.0,0.0,0.0,0.0,0.0,2840.0,2914.0,3603.0,3969.0,317.7,317.3,346.0,344.9,24.83,23.91,25.84,25.2,325.0,325.0,355.0,355.0,99.76,99.71,99.78,99.74,-0.29,0.3,-0.08,0.14,-0.1,-0.1,1.4,1.8,81.2,75.4,81.3,77.3,86.0,81.1,93.1,89.5,82.9,78.0,90.9,87.3,80.7,76.3,89.8,86.3,-9.61,8.96,0.09,0.07,0.0,5.26,5.86,5.64,4.98,356.7,7.7,0.30066592756745814,4.321220506379064,4.6813222626626265,7.202033987623868,10.803051550459495,0,5
472,23.55,471.9,44.053312576956955,-78.67914162986683,0.4,4.1,2.4,-1.4,2043.1,2043.0,7.1,0.0,1.0,1.0,0.0,1.0,1.0,0.0,0.0,0.0,100.0,1.0,1.186,26.0,0.0,-15.15,74.678,66.0,0.0,26.0,26.0,26.0,26.0,0.03,0.33,0.01,388.4,-1.32,-3.18,-1.37,-1.33,-426.52,544.25,4.2,0.0,0.0,0.0,0.0,0.27,-7.49,-7.49,0.31,0.14,2.23,-0.14,1.97,-0.14,-0.02,-6.15,100.0,0.0,0.0,5.55,0.0,0.0,0.0,0.0,0.0,0.0,0.0,752.0,0.0,30.0,1.0,7.1,1.0,0.0,0.0,0.0,0.0,0.0,0.0,0.0,23.58,23.58,74.679,19.926,1.0,110.0,435.8,8750.0,0.0,0.0,110.0,110.0,433.0,0.0,0.0,0.0,1.0,333.3,74.7,74.7,76.0,76.0,34.0,-12.3,23.16,-12.0,17.9,1.0,-100.84,-147.3,100.0,16.1,14.9,26.9,29.2,0.0,1.0,100.0,0.0,0.0,0.0,0.0,2828.0,2907.0,3655.0,3956.0,317.8,317.3,345.9,344.9,24.83,23.91,25.85,25.2,325.0,325.0,355.0,355.0,99.76,99.71,99.78,99.74,-0.19,0.29,-0.06,0.17,-0.1,-0.1,1.4,1.6,81.2,75.4,81.3,77.3,86.0,81.1,93.0,89.5,82.9,78.0,90.8,87.2,80.7,76.2,89.7,86.3,-9.0,8.42,0.08,0.07,0.0,5.89,6.46,5.9,5.2,356.7,7.7,0.33151168908501555,4.681322234211441,5.401525661425014,10.803051550459495,14.404067975247736,0,5
473,23.6,472.0,44.05331320648208,-78.67914091040956,-0.9,3.5,3.7,-0.7,2043.2,2043.0,7.7,0.0,1.0,1.0,0.0,1.0,1.0,0.0,0.0,0.0,100.0,1.0,1.186,26.0,0.0,-15.15,74.678,66.0,0.0,26.0,26.0,26.0,26.0,0.02,0.42,0.02,388.3,-1.43,-3.13,-1.38,-1.36,-426.44,544.32,4.2,0.0,0.0,0.0,0.0,0.27,-7.49,-7.49,0.33,0.14,2.23,-0.12,2.15,-0.15,-0.02,-6.04,100.0,0.0,0.0,6.11,0.0,0.0,0.0,0.0,0.0,0.0,0.0,828.0,0.0,30.0,1.0,7.7,0.0,0.0,0.0,0.0,0.0,0.0,1.0,0.0,23.631,23.631,74.679,19.926,0.0,110.0,435.8,8750.0,0.0,0.0,110.0,110.0,433.0,0.0,0.0,0.0,1.0,166.7,80.1,80.1,77.9,77.9,34.0,-15.18,20.18,-8.6,18.9,1.0,-100.89,-133.9,100.0,16.0,15.0,27.1,29.2,0.0,1.0,100.0,0.0,0.0,0.0,0.0,2802.0,2938.0,3639.0,3986.0,317.8,317.3,345.9,344.8,24.83,23.91,25.85,25.21,325.0,325.0,355.0,355.0,99.76,99.71,99.78,99.74,-0.27,0.2,-0.02,0.19,-0.1,-0.1,2.5,1.8,81.2,75.4,81.3,77.3,85.9,81.0,93.0,89.5,82.8,78.0,90.8,87.2,80.6,76.2,89.7,86.2,-8.17,7.69,0.09,0.07,0.0,6.43,6.99,5.28,6.95,356.7,7.7,0.42095130359698374,5.401525661425014,6.1217290601874,10.803051550459504,7.202034556647563,0,5
474,23.65,472.1,44.053313925939364,-78.67914010102011,-0.6,0.3,5.2,1.8,2043.3,2043.0,8.4,0.0,1.0,1.0,0.0,1.0,1.0,0.0,0.0,0.0,100.0,1.0,1.186,26.0,0.0,-15.15,74.678,66.0,0.0,26.0,26.0,26.0,26.0,0.02,0.39,0.0,388.2,-1.54,-3.09,-1.53,-1.41,-426.35,544.4,4.2,0.0,0.0,0.0,0.0,0.27,-7.49,-7.49,0.34,-0.1,2.2,-0.45,2.34,-0.14,-0.02,-5.86,100.0,0.0,0.0,6.82,0.0,0.0,0.0,0.0,0.0,0.0,0.0,924.0,0.0,30.0,1.0,8.4,1.0,0.0,0.0,0.0,0.0,0.0,1.0,0.0,23.684,23.684,74.679,19.926,1.0,110.0,435.8,8750.0,0.0,0.0,110.0,110.0,433.0,0.0,0.0,0.0,1.0,166.7,80.0,80.0,77.7,77.7,34.0,-11.83,20.61,-10.8,17.9,1.0,-100.94,-120.4,100.0,16.0,15.1,27.3,29.3,0.0,1.0,100.0,0.0,0.0,0.0,0.0,2865.0,2873.0,3714.0,3898.0,317.7,317.4,345.7,345.1,24.83,23.91,25.85,25.21,325.0,325.0,355.0,355.0,99.76,99.71,99.78,99.74,-0.15,0.23,-0.03,0.16,-0.1,-0.0,2.2,1.7,81.2,75.4,81.3,77.3,85.8,81.0,92.9,89.4,82.8,77.9,90.7,87.1,80.6,76.2,89.6,86.2,-7.31,6.93,0.09,0.07,0.0,7.0,7.57,5.96,7.68,356.7,7.7,0.39051248379533277,5.7616273892573915,6.12172911708977,7.202034272135718,3.60101756283564,0,5
475,23.7,472.2,44.053314645396654,-78.67913938156282,-0.1,0.6,2.8,-3.7,2043.5,2043.0,9.0,0.0,1.0,1.0,0.0,1.0,1.0,0.0,0.0,0.0,100.0,1.0,1.186,26.0,0.0,-15.15,74.678,66.0,0.0,26.0,26.0,26.0,26.0,0.01,0.36,0.01,388.2,-1.65,-3.02,-1.52,-1.4,-426.27,544.48,4.2,0.0,0.0,0.0,0.0,0.27,-7.49,-7.49,0.35,0.02,2.19,0.08,2.52,-0.14,-0.03,-5.88,100.0,0.0,0.0,7.17,0.0,0.0,0.0,0.0,0.0,0.0,0.0,972.0,0.0,30.0,1.0,9.0,0.0,0.0,0.0,0.0,0.0,0.0,1.0,0.0,23.73,23.73,74.679,19.926,0.0,110.0,435.8,8750.0,0.0,0.0,110.0,110.0,433.0,0.0,0.0,0.0,1.0,333.3,80.0,80.0,77.7,77.7,34.0,-13.34,18.03,-11.4,18.0,1.0,-100.99,-106.4,100.0,16.0,15.1,27.5,29.1,0.0,1.0,100.0,0.0,0.0,0.0,0.0,2832.0,2889.0,3685.0,3918.0,317.8,317.4,345.8,345.0,24.83,23.91,25.85,25.21,325.0,325.0,355.0,355.0,99.76,99.71,99.78,99.74,-0.18,0.15,-0.02,0.18,-0.1,-0.1,1.5,1.9,81.2,75.4,81.3,77.3,85.8,80.9,92.9,89.4,82.7,77.9,90.7,87.1,80.5,76.1,89.6,86.1,-6.5,6.18,0.09,0.07,0.0,7.53,8.1,7.55,6.79,356.7,7.7,0.3602776706930364,6.121729088638586,6.481830816470964,10.803050981435813,10.803050981435822,0,5
476,23.75,472.4,44.053315454786095,-78.67913848224121,-1.5,2.7,1.1,-1.7,2043.6,2044.0,9.8,0.0,1.0,1.0,0.0,1.0,1.0,0.0,0.0,0.0,100.0,1.0,1.186,26.0,0.0,-15.15,74.678,66.0,0.0,26.0,26.0,26.0,26.0,0.02,0.42,0.01,388.2,-1.77,-2.95,-1.53,-1.4,-426.17,544.57,4.2,0.0,0.0,0.0,0.0,0.27,-7.49,-7.49,0.36,0.02,2.19,-0.29,2.72,-0.12,-0.03,-5.27,100.0,0.0,0.0,7.81,0.0,0.0,0.0,0.0,0.0,0.0,0.0,1059.0,0.0,30.0,1.0,9.8,1.0,0.0,0.0,0.0,0.0,0.0,1.0,0.0,23.784,23.784,74.679,19.926,1.0,110.0,435.8,8750.0,0.0,0.0,110.0,110.0,433.0,0.0,0.0,0.0,1.0,166.7,80.0,80.0,77.6,77.6,34.0,-13.69,16.83,-11.2,17.7,1.0,-101.04,-92.6,100.0,15.9,15.2,27.5,29.0,0.0,1.0,100.0,0.0,0.0,0.0,0.0,2801.0,2891.0,3685.0,3898.0,317.8,317.4,345.8,345.1,24.83,23.91,25.86,25.21,325.0,325.0,355.0,355.0,99.76,99.71,99.78,99.74,-0.19,0.13,-0.03,0.19,-0.1,-0.1,1.9,2.1,81.2,75.4,81.3,77.3,85.7,80.9,92.8,89.3,82.7,77.8,90.6,87.0,80.5,76.1,89.5,86.1,-5.63,5.4,0.09,0.07,0.0,8.13,8.65,8.16,7.46,356.7,7.7,0.42059481689626177,6.841932487400973,7.202034215233352,7.202034272135727,10.803050981435804,0,5
477,23.8,472.5,44.0533163541077,-78.67913758291961,-1.4,0.8,3.2,-2.3,2043.7,2044.0,10.4,0.0,1.0,1.0,0.0,1.0,1.0,0.0,0.0,0.0,100.0,1.0,1.186,26.0,0.0,-15.15,74.678,66.0,0.0,26.0,26.0,26.0,26.0,-0.0,0.38,0.01,388.2,-1.9,-2.87,-1.52,-1.41,-426.07,544.67,4.2,0.0,0.0,0.0,0.0,0.27,-7.49,-7.49,0.37,0.02,2.17,-0.24,2.9,-0.11,-0.03,-4.8,100.0,0.0,0.0,8.34,0.0,0.0,0.0,0.0,0.0,0.0,0.0,1130.0,0.0,30.0,1.0,10.4,0.0,0.0,0.0,0.0,0.0,0.0,1.0,0.0,23.831,23.831,74.679,19.926,0.0,110.0,435.8,8750.0,0.0,0.0,110.0,110.0,433.0,0.0,0.0,0.0,1.0,333.3,80.0,80.0,77.5,77.5,34.0,-14.44,14.6,-10.7,17.9,1.0,-101.09,-73.9,100.0,15.8,15.3,27.7,28.9,0.0,1.0,100.0,0.0,0.0,0.0,0.0,2817.0,2872.0,3754.0,3880.0,317.8,317.4,345.6,345.1,24.83,23.91,25.86,25.22,325.0,325.0,355.0,355.0,99.76,99.71,99.78,99.74,-0.19,0.07,-0.01,0.18,-0.1,-0.0,1.7,2.0,81.2,75.4,81.4,77.4,85.7,80.9,92.7,89.3,82.6,77.8,90.6,87.0,80.4,76.0,89.5,86.0,-4.57,4.41,0.09,0.07,0.0,8.67,9.23,8.75,7.92,356.7,7.7,0.38013155617496425,6.841932515852158,7.562135914614545,3.601017278323795,10.803051550459504,0,5
478,23.85,472.7,44.05331716349715,-78.67913659366585,-1.2,1.8,4.7,-3.9,2043.9,2044.0,11.1,0.0,1.0,1.0,0.0,1.0,1.0,0.0,0.0,0.0,100.0,1.0,1.186,26.0,0.0,-15.15,74.678,66.0,0.0,26.0,26.0,26.0,26.0,-0.05,0.41,0.01,388.1,-2.05,-2.77,-1.5,-1.43,-425.96,544.76,4.2,0.0,0.0,0.0,0.0,0.27,-7.49,-7.49,0.38,0.06,2.15,-0.58,3.09,-0.08,-0.03,-3.68,100.0,0.0,0.0,8.88,0.0,0.0,0.0,0.0,0.0,0.0,0.0,1204.0,0.0,30.0,1.0,11.1,1.0,0.0,0.0,0.0,0.0,0.0,1.0,0.0,23.88,23.88,74.679,19.926,1.0,110.0,435.8,8750.0,0.0,0.0,110.0,110.0,433.0,0.0,0.0,0.0,1.0,333.3,80.0,80.0,77.3,77.3,34.0,-17.42,10.88,-10.8,17.6,1.0,-101.14,-54.2,100.0,15.8,15.3,27.9,28.7,0.0,1.0,100.0,0.0,0.0,0.0,0.0,2860.0,2819.0,3816.0,3842.0,317.7,317.6,345.5,345.2,24.83,23.91,25.86,25.22,325.0,325.0,355.0,355.0,99.76,99.71,99.78,99.74,-0.26,-0.02,-0.01,0.2,-0.0,-0.1,1.9,2.2,81.2,75.4,81.4,77.4,85.6,80.8,92.7,89.2,82.6,77.7,90.5,86.9,80.4,76.0,89.4,86.0,-3.35,3.27,0.08,0.07,0.0,9.28,9.75,9.4,8.36,356.7,7.7,0.4131585652022719,7.202034215233352,8.282339370279303,14.4040682597596,14.40406854427148,0,5
479,23.9,472.8,44.05331815275091,-78.67913551447991,-0.7,-1.6,5.8,-4.1,2044.1,2044.0,11.8,0.0,1.0,1.0,0.0,1.0,1.0,0.0,0.0,0.0,100.0,1.0,1.186,26.0,0.0,-15.15,74.678,66.0,0.0,26.0,26.0,26.0,26.0,-0.01,0.4,0.01,388.2,-2.12,-2.69,-1.46,-1.45,-425.84,544.87,4.2,0.0,0.0,0.0,0.0,0.27,-7.49,-7.49,0.39,0.02,2.14,0.06,3.29,-0.06,-0.03,-2.61,100.0,0.0,0.0,9.48,0.0,0.0,0.0,0.0,0.0,0.0,0.0,1284.0,0.0,30.0,1.0,11.8,0.0,0.0,0.0,0.0,0.0,0.0,1.0,0.0,23.931,23.931,74.679,19.926,0.0,110.0,435.8,8750.0,0.0,0.0,110.0,110.0,433.0,0.0,0.0,0.0,1.0,333.3,80.1,80.1,77.2,77.2,34.0,-12.67,12.65,-10.6,16.6,1.0,-101.19,-41.1,100.0,15.7,15.3,28.2,28.5,0.0,1.0,100.0,0.0,0.0,0.0,0.0,2825.0,2804.0,3833.0,3815.0,317.8,317.6,345.4,345.3,24.83,23.91,25.86,25.22,325.0,325.0,355.0,355.0,99.76,99.71,99.78,99.74,-0.11,0.04,-0.02,0.15,-0.0,-0.1,2.1,1.9,81.2,75.4,81.4,77.4,85.6,80.8,92.6,89.2,82.5,77.7,90.5,86.9,80.3,75.9,89.4,85.9,-2.5,2.44,0.08,0.07,0.0,10.02,10.28,8.68,10.27,356.7,7.7,0.40024992192379,8.282339341828118,9.002542769041693,10.803051550459504,10.803050981435796,0,5
480,23.95,473.0,44.05331923193684,-78.67913434536183,-1.6,2.8,-1.0,0.8,2044.2,2044.0,12.6,0.0,1.0,1.0,0.0,1.0,1.0,0.0,0.0,0.0,100.0,1.0,1.186,26.0,0.0,-15.15,74.678,66.0,0.0,26.0,26.0,26.0,26.0,0.01,0.43,-0.02,388.2,-2.2,-2.63,-1.48,-1.43,-425.71,544.99,4.2,0.0,0.0,0.0,0.0,0.27,-7.49,-7.49,0.4,0.04,2.15,0.35,3.5,-0.05,-0.03,-2.53,100.0,0.0,0.0,10.07,0.0,0.0,0.0,0.0,0.0,0.0,0.0,1365.0,0.0,30.0,1.0,12.6,1.0,0.0,0.0,0.0,0.0,0.0,1.0,0.0,23.981,23.981,74.679,19.926,1.0,110.0,435.8,8750.0,0.0,0.0,110.0,110.0,433.0,0.0,0.0,0.0,1.0,333.3,80.1,80.1,77.0,77.0,34.0,-9.86,14.86,-10.6,15.9,1.0,-101.24,-32.9,100.0,15.7,15.4,28.1,28.5,0.0,1.0,100.0,0.0,0.0,0.0,0.0,2678.0,2907.0,3740.0,3892.0,318.1,317.3,345.7,345.1,24.83,23.91,25.86,25.22,325.0,325.0,355.0,355.0,99.76,99.71,99.78,99.74,-0.04,0.1,-0.02,0.15,-0.0,-0.0,2.0,2.2,81.2,75.4,81.4,77.4,85.5,80.7,92.6,89.1,82.5,77.6,90.4,86.8,80.3,75.9,89.3,85.9,-1.97,1.96,0.08,0.07,0.0,10.65,10.86,10.63,9.52,356.7,7.7,0.4305810028322197,8.282339370279303,9.362644468422882,3.601017278323777,10.80305155045945,0,5
481,24.0,473.2,44.05332022119061,-78.67913317624374,-4.1,4.7,-0.0,2.6,2044.4,2044.0,13.3,0.0,1.0,1.0,0.0,1.0,1.0,0.0,0.0,0.0,100.0,1.0,1.186,26.0,0.0,-15.15,74.678,66.0,0.0,26.0,26.0,26.0,26.0,0.01,0.42,-0.0,388.1,-2.25,-2.59,-1.45,-1.43,-425.58,545.1,4.2,0.0,0.0,0.0,0.0,0.27,-7.49,-7.49,0.4,0.02,2.15,-0.19,3.7,-0.05,-0.03,-2.24,100.0,0.0,0.0,10.65,0.0,0.0,0.0,0.0,0.0,0.0,0.0,1443.0,0.0,30.0,1.0,13.3,0.0,0.0,0.0,0.0,0.0,0.0,1.0,0.0,24.03,24.03,74.679,19.926,0.0,110.0,435.8,8750.0,0.0,0.0,110.0,110.0,433.0,0.0,0.0,0.0,1.0,333.3,80.0,80.0,76.7,76.7,34.0,-10.61,12.7,-9.6,17.2,1.0,-101.29,-26.3,100.0,15.5,15.6,28.1,28.6,0.0,1.0,100.0,0.0,0.0,0.0,0.0,2713.0,2929.0,3822.0,3903.0,318.1,317.3,345.5,345.0,24.83,23.91,25.87,25.23,325.0,325.0,355.0,355.0,99.76,99.71,99.78,99.74,-0.05,0.04,0.01,0.18,-0.1,-0.0,1.9,2.3,81.2,75.4,81.4,77.4,85.5,80.7,92.5,89.1,82.4,77.6,90.4,86.8,80.2,75.9,89.3,85.8,-1.59,1.56,0.08,0.07,0.0,11.29,11.54,11.23,10.07,356.7,7.7,0.420119030752,8.642441069660496,10.082847924087638,14.404068259759573,18.005085538083367,0,5
482,24.05,473.4,44.053321390308696,-78.67913182726133,-2.2,1.0,4.9,0.2,2044.6,2045.0,14.0,0.0,1.0,1.0,0.0,1.0,1.0,0.0,0.0,0.0,100.0,1.0,1.186,26.0,0.0,-15.15,74.678,66.0,0.0,26.0,26.0,26.0,26.0,-0.01,0.41,0.01,388.1,-2.28,-2.5,-1.45,-1.43,-425.43,545.23,4.2,0.0,0.0,0.0,0.0,0.27,-7.49,-7.49,0.41,-0.01,2.14,-0.03,3.91,-0.04,-0.04,-1.72,100.0,0.0,0.0,11.22,0.0,0.0,0.0,0.0,0.0,0.0,0.0,1521.0,0.0,30.0,1.0,14.0,1.0,0.0,0.0,0.0,0.0,0.0,1.0,0.0,24.081,24.081,74.679,19.926,1.0,110.0,435.8,8750.0,0.0,0.0,110.0,110.0,433.0,0.0,0.0,0.0,1.0,333.3,80.0,80.0,76.4,76.4,34.0,-9.99,11.92,-10.6,16.1,1.0,-101.34,-20.9,100.0,15.4,15.7,28.4,28.7,0.0,1.0,94.5,0.0,0.0,0.0,0.0,2735.0,2898.0,3872.0,3869.0,318.0,317.4,345.3,345.1,24.83,23.91,25.87,25.23,325.0,325.0,355.0,355.0,99.76,99.71,99.78,99.74,-0.02,0.03,-0.03,0.14,-0.1,-0.1,2.3,1.9,81.2,75.4,81.4,77.4,85.4,80.6,92.5,89.0,82.4,77.6,90.3,86.7,80.2,75.8,89.3,85.8,-1.25,1.23,0.08,0.08,0.0,11.92,12.16,10.49,11.95,356.7,7.7,0.4102438299353202,9.72274619625526,11.163153022231219,10.80305126594764,7.202033987623899,0,5
483,24.1,473.6,44.05332264935895,-78.67913038834676,-0.7,0.2,3.4,-1.0,2044.8,2045.0,14.8,0.0,1.0,1.0,0.0,1.0,1.0,0.0,0.0,0.0,100.0,1.0,1.186,26.0,0.0,-15.15,74.678,66.0,0.0,26.0,26.0,26.0,26.0,-0.01,0.36,-0.01,388.1,-2.31,-2.46,-1.46,-1.43,-425.27,545.37,4.2,0.0,0.0,0.0,0.0,0.27,-7.49,-7.49,0.4,-0.28,2.14,0.12,4.12,-0.03,-0.04,-1.5,100.0,0.0,0.0,11.81,0.0,0.0,0.0,0.0,0.0,0.0,0.0,1601.0,0.0,30.0,1.0,14.8,0.0,0.0,0.0,0.0,0.0,0.0,0.0,0.0,24.134,24.134,74.679,19.926,0.0,110.0,435.8,8750.0,0.0,0.0,110.0,110.0,433.0,0.0,0.0,0.0,1.0,166.7,80.0,80.0,76.4,76.4,34.0,-9.72,12.32,-10.7,16.8,1.0,-101.39,-16.5,100.0,15.3,15.7,28.6,28.6,0.0,1.0,75.8,0.0,0.0,0.0,0.0,2730.0,2921.0,3807.0,3806.0,318.0,317.3,345.5,345.3,24.83,23.91,25.87,25.23,325.0,325.0,355.0,355.0,99.76,99.71,99.78,99.74,-0.01,0.04,-0.02,0.15,-0.1,-0.1,1.9,1.7,81.2,75.4,81.4,77.4,85.4,80.6,92.4,89.0,82.3,77.5,90.3,86.7,80.1,75.8,89.2,85.7,-0.99,0.98,0.08,0.06,0.0,12.57,12.74,11.21,12.41,356.7,7.7,0.3602776706930364,9.72274619625526,10.803051322850028,3.601016993811932,3.60101756283564,0,5
484,24.15,473.8,44.05332381847703,-78.67912912929651,0.5,3.7,-1.7,-3.4,2045.0,2045.0,15.4,0.0,1.0,1.0,0.0,1.0,1.0,0.0,0.0,0.0,100.0,1.0,1.186,26.0,0.0,-15.15,74.678,66.0,0.0,26.0,26.0,26.0,26.0,-0.0,0.35,-0.0,388.1,-2.34,-2.44,-1.56,-1.45,-425.13,545.5,4.2,0.0,0.0,0.0,0.0,0.27,-7.49,-7.49,0.39,-0.29,2.15,0.06,4.28,-0.02,-0.04,-1.25,100.0,0.0,0.0,12.17,0.0,0.0,0.0,0.0,0.0,0.0,0.0,1649.0,0.0,30.0,1.0,15.4,1.0,0.0,0.0,0.0,0.0,0.0,0.0,0.0,24.18,24.18,74.679,19.926,1.0,110.0,435.8,8750.0,0.0,0.0,110.0,110.0,433.0,0.0,0.0,0.0,1.0,333.3,79.7,79.7,76.5,76.5,34.0,-10.12,12.76,-11.0,16.8,1.0,-101.44,-12.9,100.0,15.3,15.9,28.5,28.4,0.0,1.0,52.7,0.0,0.0,0.0,0.0,2776.0,2982.0,3745.0,3783.0,317.9,317.1,345.6,345.4,24.83,23.91,25.87,25.23,325.0,325.0,355.0,355.0,99.76,99.71,99.78,99.74,-0.01,0.05,-0.0,0.16,-0.1,-0.0,1.5,1.8,81.2,75.4,81.5,77.5,85.3,80.5,92.4,88.9,82.3,77.5,90.2,86.7,80.1,75.7,89.2,85.7,-0.78,0.78,0.09,0.07,0.0,13.09,13.21,12.62,11.72,356.7,7.7,0.35,10.082847895636453,11.523254778514783,7.202034272135727,14.404068544271436,0,5
485,24.2,474.0,44.05332516745944,-78.67912751051762,5.0,7.2,-2.0,-0.3,2045.3,2045.0,15.9,0.0,1.0,1.0,0.0,1.0,1.0,0.0,0.0,0.0,100.0,1.0,1.186,26.0,0.0,-15.15,74.678,66.0,0.0,26.0,26.0,26.0,26.0,-0.04,0.2,0.0,388.0,-2.36,-2.38,-1.55,-1.45,-424.95,545.65,4.2,0.0,0.0,0.0,0.0,0.27,-7.49,-7.49,0.37,-0.55,2.14,-0.42,4.42,-0.01,-0.04,-0.6,100.0,0.0,0.0,12.44,0.0,0.0,0.0,0.0,0.0,0.0,0.0,1686.0,0.0,30.0,1.0,15.9,0.0,0.0,0.0,0.0,0.0,0.0,0.0,0.0,24.234,24.234,74.679,19.926,0.0,110.0,435.8,8750.0,0.0,0.0,110.0,110.0,433.0,0.0,0.0,0.0,1.0,166.7,79.2,79.2,76.9,76.9,34.0,-15.32,8.69,-11.8,18.2,1.0,-101.49,1.1,100.0,15.6,16.2,28.4,28.4,0.0,1.0,22.2,0.0,0.0,0.0,0.0,2909.0,3035.0,3685.0,3720.0,317.6,317.0,345.8,345.5,24.82,23.91,25.88,25.24,325.0,325.0,355.0,355.0,99.76,99.71,99.78,99.74,-0.14,-0.06,-0.0,0.15,-0.0,0.0,0.9,1.0,81.2,75.4,81.5,77.5,85.3,80.5,92.3,88.9,82.2,77.4,90.2,86.6,80.0,75.7,89.1,85.7,-0.09,0.09,0.09,0.07,0.0,13.52,13.68,12.71,12.17,356.7,7.7,0.20396078054371142,10.442949623468833,12.243458177277171,0.0,3.6010164247882415,0,5
486,24.25,474.3,44.05332642650969,-78.67912607160305,17.6,8.6,0.8,-10.0,2045.5,2045.0,16.1,0.0,1.0,1.0,0.0,1.0,1.0,0.0,0.0,0.0,100.0,1.0,1.186,26.0,0.0,-15.15,74.678,66.0,0.0,26.0,26.0,26.0,26.0,-0.09,0.01,0.0,387.7,-2.46,-2.31,-1.51,-1.48,-424.79,545.79,4.2,0.0,0.0,0.0,0.0,0.27,-7.49,-7.49,0.34,-0.96,2.1,-1.17,4.48,0.03,-0.05,1.39,100.0,0.0,0.0,12.41,0.0,0.0,0.0,0.0,0.0,0.0,0.0,1682.0,0.0,30.0,1.0,16.1,1.0,0.0,0.0,0.0,0.0,0.0,0.0,0.0,24.281,24.281,74.679,19.926,1.0,110.0,435.8,8750.0,0.0,0.0,110.0,110.0,433.0,0.0,0.0,0.0,1.0,333.3,78.1,78.1,77.9,77.9,34.0,-22.94,2.61,-11.3,18.9,1.0,-101.54,19.5,100.0,16.5,16.7,28.4,27.9,0.0,1.0,0.0,0.0,0.0,0.0,0.0,3240.0,3014.0,3642.0,3454.0,316.7,317.1,345.9,346.2,24.82,23.91,25.88,25.24,325.0,325.0,355.0,355.0,99.76,99.71,99.78,99.74,-0.28,-0.2,0.01,0.17,-0.0,-0.0,0.1,0.2,81.1,75.4,81.5,77.5,85.2,80.4,92.3,88.8,82.2,77.4,90.1,86.6,80.0,75.6,89.0,85.6,0.95,-0.97,0.08,0.07,0.0,13.77,13.77,12.41,12.41,356.7,7.7,0.09055385138137416,10.082847895636453,11.883356420993607,-3.601017278323795,0.0,0,5
487,24.3,474.5,44.053327685559935,-78.67912454275633,27.7,11.7,-3.5,-21.7,2045.7,2046.0,16.1,0.0,1.0,1.0,0.0,1.0,1.0,0.0,0.0,0.0,100.0,1.0,1.186,26.0,0.0,-15.15,74.678,66.0,0.0,26.0,26.0,26.0,26.0,-0.14,0.04,0.01,387.5,-2.58,-2.22,-1.47,-1.52,-424.62,545.93,4.3,0.0,0.0,0.0,0.0,0.27,-7.49,-7.49,0.28,-0.93,2.06,-0.59,4.47,0.07,-0.05,3.31,100.0,0.0,0.0,12.66,0.0,0.0,0.0,0.0,0.0,0.0,0.0,1716.0,0.0,30.0,1.0,16.1,0.0,0.0,0.0,0.0,0.0,0.0,0.0,0.0,24.33,24.33,74.679,19.926,0.0,110.0,435.8,8750.0,0.0,0.0,110.0,110.0,433.0,0.0,0.0,0.0,1.0,166.7,76.5,76.5,79.3,79.3,34.0,-26.64,1.77,-14.0,14.5,1.0,-101.59,39.7,100.0,17.9,17.3,28.2,26.8,0.0,1.0,0.0,0.0,0.0,0.0,0.0,3538.0,3090.0,3520.0,3255.0,316.0,316.9,346.2,346.7,24.82,23.91,25.88,25.24,325.0,325.0,355.0,355.0,99.76,99.71,99.78,99.74,-0.29,-0.21,-0.06,0.11,-0.0,-0.0,0.2,0.5,81.1,75.4,81.5,77.5,85.2,80.4,92.2,88.8,82.1,77.3,90.1,86.5,80.0,75.6,89.0,85.6,2.12,-2.16,0.08,0.07,0.0,13.83,13.57,12.75,12.58,356.7,7.7,0.14594519519326427,10.082847895636453,12.243458177277171,3.601017278323795,7.20203455664759,0,5
488,24.35,474.7,44.053328944610186,-78.67912301390959,16.7,8.6,-7.2,-15.0,2045.9,2046.0,16.1,0.0,1.0,1.0,0.0,1.0,1.0,0.0,0.0,0.0,100.0,1.0,1.186,26.0,0.0,-15.15,74.678,66.0,0.0,26.0,26.0,26.0,26.0,-0.14,-0.02,0.01,387.5,-2.7,-2.1,-1.44,-1.52,-424.45,546.07,4.3,0.0,0.0,0.0,0.0,0.27,-7.49,-7.49,0.25,-0.1,2.04,0.11,4.48,0.13,-0.06,5.23,100.0,0.0,0.0,12.65,0.0,0.0,0.0,0.0,0.0,0.0,0.0,1714.0,0.0,30.0,1.0,16.1,1.0,0.0,0.0,0.0,0.0,0.0,0.0,0.0,24.381,24.381,74.679,19.926,1.0,110.0,435.8,8750.0,0.0,0.0,110.0,110.0,433.0,0.0,0.0,0.0,1.0,333.3,76.0,76.0,80.1,80.1,34.0,-26.88,1.02,-14.3,15.1,1.0,-101.64,59.3,100.0,18.7,17.7,27.9,26.1,0.0,1.0,0.0,0.0,0.0,0.0,0.0,3574.0,3044.0,3527.0,3283.0,315.9,317.0,346.2,346.6,24.82,23.91,25.88,25.24,325.0,325.0,355.0,355.0,99.76,99.71,99.78,99.74,-0.27,-0.22,-0.07,0.11,-0.0,0.0,-0.1,0.2,81.1,75.4,81.5,77.5,85.1,80.3,92.2,88.7,82.1,77.3,90.0,86.5,79.9,75.6,88.9,85.5,3.26,-3.36,0.09,0.08,0.0,13.97,13.56,12.83,12.47,356.7,7.7,0.14177446878757827,10.442949623468833,12.603559876658366,0.0,3.6010169938119496,0,5
489,24.4,474.9,44.053330293592595,-78.67912139513071,-0.2,1.2,-3.9,-0.3,2046.2,2046.0,16.2,0.0,1.0,1.0,0.0,1.0,1.0,0.0,0.0,0.0,100.0,1.0,1.186,26.0,0.0,-15.15,74.678,66.0,0.0,26.0,26.0,26.0,26.0,-0.14,0.03,0.0,387.6,-2.83,-1.98,-1.43,-1.52,-424.27,546.22,4.3,0.0,0.0,0.0,0.0,0.27,-7.49,-7.49,0.25,0.32,2.06,0.48,4.49,0.17,-0.06,7.12,100.0,0.0,0.0,12.62,0.0,0.0,0.0,0.0,0.0,0.0,0.0,1711.0,0.0,30.0,1.0,16.2,0.0,0.0,0.0,0.0,0.0,0.0,0.0,0.0,24.431,24.431,74.679,19.926,0.0,110.0,435.8,8750.0,0.0,0.0,110.0,110.0,433.0,0.0,0.0,0.0,1.0,333.3,76.4,76.4,80.4,80.4,34.0,-25.05,0.63,-14.4,14.9,1.0,-101.69,79.6,100.0,18.7,17.8,27.7,26.1,0.0,1.0,0.0,0.0,0.0,0.0,0.0,3407.0,2939.0,3539.0,3399.0,316.3,317.2,346.2,346.3,24.82,23.91,25.88,25.25,325.0,325.0,355.0,355.0,99.76,99.71,99.78,99.74,-0.25,-0.21,-0.07,0.09,-0.0,0.0,0.1,0.3,81.1,75.4,81.5,77.5,85.1,80.3,92.1,88.7,82.0,77.3,90.0,86.4,79.9,75.5,88.9,85.5,4.39,-4.55,0.08,0.09,0.0,14.08,13.61,12.92,12.32,356.7,7.7,0.14317821063276354,10.082847895636453,12.603559876658366,-10.803051550459504,3.60101756283564,0,5
490,24.45,475.2,44.05333146271068,-78.67911986628397,-3.2,-3.0,-0.3,4.2,2046.4,2046.0,16.2,0.0,1.0,1.0,0.0,1.0,1.0,0.0,0.0,0.0,100.0,1.0,1.186,26.0,0.0,-15.15,74.678,66.0,0.0,26.0,26.0,26.0,26.0,-0.15,0.01,-0.02,387.8,-2.93,-1.81,-1.44,-1.51,-424.1,546.35,4.3,0.0,0.0,0.0,0.0,0.27,-7.49,-7.49,0.24,-0.01,2.08,0.16,4.49,0.21,-0.05,8.92,100.0,0.0,0.0,12.69,0.0,0.0,0.0,0.0,0.0,0.0,0.0,1719.0,0.0,30.0,1.0,16.2,1.0,0.0,0.0,0.0,0.0,0.0,0.0,0.0,24.48,24.48,74.679,19.926,1.0,110.0,435.8,8750.0,0.0,0.0,110.0,110.0,433.0,0.0,0.0,0.0,1.0,333.3,76.7,76.7,80.6,80.6,34.0,-26.04,-1.25,-15.1,14.5,1.0,-101.74,97.5,100.0,18.5,17.6,27.7,26.3,0.0,1.0,0.0,0.0,0.0,0.0,0.0,3355.0,2872.0,3534.0,3428.0,316.4,317.4,346.2,346.3,24.82,23.91,25.89,25.25,325.0,325.0,355.0,355.0,99.76,99.71,99.78,99.74,-0.28,-0.25,-0.09,0.08,-0.0,-0.1,0.0,0.4,81.1,75.4,81.5,77.5,85.0,80.3,92.1,88.6,82.0,77.2,89.9,86.3,79.8,75.5,88.8,85.4,5.42,-5.67,0.08,0.08,0.0,14.18,13.57,13.16,12.21,356.7,7.7,0.15165750888103102,9.362644468422882,12.96366163294193,-3.601016993811932,7.202033987623864,0,5
491,24.5,475.4,44.053332631828766,-78.67911815757292,-2.5,-1.6,0.3,1.7,2046.6,2047.0,16.2,0.0,1.0,1.0,0.0,1.0,1.0,0.0,0.0,0.0,100.0,1.0,1.186,26.0,0.0,-15.15,74.678,66.0,0.0,26.0,26.0,26.0,26.0,-0.17,-0.01,0.0,387.7,-3.02,-1.64,-1.43,-1.52,-423.91,546.48,4.3,0.0,0.0,0.0,0.0,0.27,-7.49,-7.49,0.22,-0.12,2.08,0.05,4.49,0.25,-0.05,10.84,100.0,0.0,0.0,12.67,0.0,0.0,0.0,0.0,0.0,0.0,0.0,1717.0,0.0,30.0,1.0,16.2,0.0,0.0,0.0,0.0,0.0,0.0,0.0,0.0,24.531,24.531,74.679,19.926,0.0,110.0,435.8,8750.0,0.0,0.0,110.0,110.0,433.0,0.0,0.0,0.0,1.0,333.3,76.6,76.6,80.9,80.9,34.0,-27.75,-1.39,-16.4,12.8,1.0,-101.79,117.2,100.0,18.4,17.5,27.7,26.4,0.0,1.0,0.0,0.0,0.0,0.0,0.0,3561.0,2885.0,3559.0,3370.0,315.9,317.4,346.1,346.4,24.82,23.91,25.89,25.25,325.0,325.0,355.0,355.0,99.76,99.71,99.78,99.74,-0.26,-0.23,-0.11,0.04,0.0,-0.0,-0.1,0.3,81.1,75.4,81.5,77.6,85.0,80.2,92.0,88.6,81.9,77.2,89.9,86.3,79.8,75.4,88.8,85.4,6.5,-6.86,0.08,0.07,0.0,14.33,13.44,13.07,12.27,356.7,7.7,0.17029386365926402,9.72274619625526,13.323763275420752,2.8451188072153855e-07,-5.690237259159403e-07,0,5
492,24.55,475.6,44.05333389087902,-78.67911653879403,1.1,-0.9,0.5,-0.7,2046.8,2047.0,16.2,0.0,1.0,1.0,0.0,1.0,1.0,0.0,0.0,0.0,100.0,1.0,1.186,26.0,0.0,-15.15,74.678,66.0,0.0,26.0,26.0,26.0,26.0,-0.18,0.02,-0.0,387.8,-3.05,-1.48,-1.41,-1.52,-423.73,546.62,4.3,0.0,0.0,0.0,0.0,0.27,-7.49,-7.49,0.19,-0.04,2.09,0.01,4.5,0.3,-0.05,12.61,100.0,0.0,0.0,12.68,0.0,0.0,0.0,0.0,0.0,0.0,0.0,1719.0,0.0,30.0,1.0,16.2,1.0,0.0,0.0,0.0,0.0,0.0,0.0,0.0,24.581,24.581,74.679,19.926,1.0,110.0,435.8,8750.0,0.0,0.0,110.0,110.0,433.0,0.0,0.0,0.0,1.0,333.3,76.7,76.7,81.0,81.0,34.0,-27.31,-2.33,-17.9,13.1,1.0,-101.84,135.8,100.0,18.5,17.5,27.7,26.3,0.0,1.0,0.0,0.0,0.0,0.0,0.0,3474.0,2864.0,3551.0,3360.0,316.1,317.4,346.1,346.4,24.82,23.91,25.89,25.25,325.0,325.0,355.0,355.0,99.76,99.71,99.78,99.74,-0.27,-0.23,-0.15,0.05,-0.0,0.0,0.1,0.3,81.1,75.4,81.6,77.6,84.9,80.2,91.9,88.5,81.9,77.1,89.8,86.2,79.7,75.4,88.7,85.3,7.53,-8.02,0.08,0.08,0.0,14.48,13.43,13.16,12.21,356.7,7.7,0.18110770276274832,9.36264449687407,12.963661576039557,-7.202034272135673,7.202034556647554,0,5
493,24.6,475.8,44.053334970064945,-78.67911492001514,-1.8,-0.6,-0.2,-1.9,2047.1,2047.0,16.3,0.0,1.0,1.0,0.0,1.0,1.0,0.0,0.0,0.0,100.0,1.0,1.186,26.0,0.0,-15.15,74.678,66.0,0.0,26.0,26.0,26.0,26.0,-0.19,-0.01,0.01,387.8,-3.01,-1.33,-1.39,-1.54,-423.55,546.74,4.3,0.0,0.0,0.0,0.0,0.27,-7.49,-7.49,0.16,-0.15,2.08,-0.23,4.5,0.33,-0.05,14.28,100.0,0.0,0.0,12.72,0.0,0.0,0.0,0.0,0.0,0.0,0.0,1724.0,0.0,30.0,1.0,16.3,0.0,0.0,0.0,0.0,0.0,0.0,1.0,0.0,24.63,24.63,74.679,19.926,0.0,110.0,435.8,8750.0,0.0,0.0,110.0,110.0,433.0,0.0,0.0,0.0,1.0,333.3,76.7,76.7,81.4,81.4,34.0,-29.65,-2.97,-18.0,12.2,1.0,-101.89,153.2,100.0,18.4,17.5,27.7,26.2,0.0,1.0,0.0,0.0,0.0,0.0,0.0,3641.0,2835.0,3561.0,3323.0,315.7,317.5,346.1,346.5,24.82,23.91,25.89,25.25,325.0,325.0,355.0,355.0,99.76,99.71,99.78,99.74,-0.29,-0.24,-0.15,0.04,-0.0,0.0,0.0,0.3,81.1,75.4,81.6,77.6,84.9,80.1,91.9,88.4,81.9,77.1,89.7,86.2,79.7,75.4,88.7,85.3,8.49,-9.11,0.09,0.07,0.0,14.59,13.48,13.29,12.15,356.7,7.7,0.19052558883257653,9.002542769041693,14.043966731085508,-3.601017278323777,10.803051550459504,0,5
494,24.65,476.1,44.05333613918303,-78.67911303143977,9.9,-0.5,0.2,-1.0,2047.3,2047.0,16.3,0.0,1.0,1.0,0.0,1.0,1.0,0.0,0.0,0.0,100.0,1.0,1.186,26.0,0.0,-15.15,74.678,66.0,0.0,26.0,26.0,26.0,26.0,-0.22,-0.02,0.0,387.7,-3.1,-1.14,-1.38,-1.55,-423.34,546.87,4.3,0.0,0.0,0.0,0.0,0.27,-7.49,-7.49,0.13,0.13,2.09,0.25,4.5,0.38,-0.05,16.27,100.0,0.0,0.0,12.71,0.0,0.0,0.0,0.0,0.0,0.0,0.0,1723.0,0.0,30.0,1.0,16.3,1.0,0.0,0.0,0.0,0.0,0.0,1.0,0.0,24.684,24.684,74.679,19.926,1.0,110.0,435.8,8750.0,0.0,0.0,110.0,110.0,433.0,0.0,0.0,0.0,1.0,166.7,76.5,76.5,82.1,82.1,34.0,-32.86,-2.92,-19.7,10.9,1.0,-101.94,171.8,100.0,18.9,17.4,27.7,26.2,0.0,1.0,0.0,0.0,0.0,0.0,0.0,3758.0,2777.0,3565.0,3356.0,315.4,317.7,346.1,346.5,24.82,23.91,25.89,25.26,325.0,325.0,355.0,355.0,99.76,99.71,99.78,99.74,-0.33,-0.22,-0.19,-0.0,-0.0,-0.0,0.0,0.3,81.1,75.4,81.6,77.6,84.8,80.1,91.8,88.4,81.8,77.0,89.7,86.1,79.6,75.3,88.6,85.2,9.53,-10.31,0.08,0.07,0.0,14.76,13.45,13.37,12.05,356.7,7.7,0.22090722034374521,9.002542769041693,14.043966731085508,-7.202033987623899,-7.202033987623864,0,5
495,24.7,476.3,44.05333721836896,-78.67911141266087,1.2,-2.2,-2.4,2.5,2047.5,2048.0,16.3,0.0,1.0,1.0,0.0,1.0,1.0,0.0,0.0,0.0,100.0,1.0,1.186,26.0,0.0,-15.15,74.678,66.0,0.0,26.0,26.0,26.0,26.0,-0.24,0.0,-0.01,387.8,-3.17,-0.96,-1.39,-1.47,-423.16,546.99,4.3,0.0,0.0,0.0,0.0,0.27,-7.49,-7.49,0.11,0.22,2.11,0.43,4.51,0.42,-0.06,17.85,100.0,0.0,0.0,12.72,0.0,0.0,0.0,0.0,0.0,0.0,0.0,1724.0,0.0,30.0,1.0,16.3,0.0,0.0,0.0,0.0,0.0,0.0,1.0,0.0,24.731,24.731,74.679,19.926,0.0,110.0,435.8,8750.0,0.0,0.0,110.0,110.0,433.0,0.0,0.0,0.0,1.0,333.3,76.7,76.7,82.6,82.6,34.0,-32.81,-3.56,-19.8,9.7,1.0,-101.99,188.4,100.0,18.9,17.3,27.6,26.3,0.0,1.0,0.0,0.0,0.0,0.0,0.0,3740.0,2677.0,3528.0,3388.0,315.4,317.9,346.2,346.4,24.82,23.91,25.9,25.26,325.0,325.0,355.0,355.0,99.76,99.71,99.78,99.74,-0.32,-0.22,-0.2,-0.02,-0.1,-0.1,0.0,0.3,81.1,75.4,81.6,77.6,84.8,80.0,91.8,88.3,81.8,77.0,89.6,86.1,79.6,75.3,88.6,85.1,10.42,-11.37,0.08,0.09,0.0,14.9,13.38,13.48,11.96,356.7,7.7,0.24020824298928628,8.282339370279303,13.323763332323121,-10.803051265947676,0.0,0,5
496,24.75,476.5,44.05333820762273,-78.67910970394982,-0.5,-4.0,-3.7,1.7,2047.7,2048.0,16.3,0.0,1.0,1.0,0.0,1.0,1.0,0.0,0.0,0.0,100.0,1.0,1.186,26.0,0.0,-15.15,74.678,66.0,0.0,26.0,26.0,26.0,26.0,-0.24,-0.01,0.01,388.0,-3.24,-0.78,-1.4,-1.46,-422.97,547.1,4.3,0.0,0.0,0.0,0.0,0.27,-7.49,-7.49,0.09,0.13,2.13,0.37,4.51,0.46,-0.05,19.56,100.0,0.0,0.0,12.74,0.0,0.0,0.0,0.0,0.0,0.0,0.0,1726.0,0.0,30.0,1.0,16.3,1.0,0.0,0.0,0.0,0.0,0.0,1.0,0.0,24.78,24.78,74.679,19.926,1.0,110.0,435.8,8750.0,0.0,0.0,110.0,110.0,433.0,0.0,0.0,0.0,1.0,166.7,77.0,77.0,83.2,83.2,34.0,-34.46,-4.22,-19.9,9.1,1.0,-102.04,204.6,100.0,18.9,17.1,27.4,26.4,0.0,1.0,0.0,0.0,0.0,0.0,0.0,3737.0,2631.0,3501.0,3379.0,315.4,318.1,346.3,346.4,24.81,23.9,25.9,25.26,325.0,325.0,355.0,355.0,99.76,99.71,99.78,99.74,-0.36,-0.22,-0.2,-0.03,-0.0,0.0,0.0,0.3,81.1,75.4,81.6,77.6,84.7,80.0,91.7,88.3,81.7,76.9,89.6,86.0,79.5,75.2,88.5,85.1,11.3,-12.43,0.08,0.08,0.0,14.97,13.39,13.51,11.97,356.7,7.7,0.24041630560342617,7.922237642446925,14.043966731085508,-3.60101756283564,10.803050981435831,0,5
497,24.8,476.7,44.05333919687649,-78.67910790530661,-3.6,-14.7,7.0,-6.3,2048.0,2048.0,16.3,0.0,1.0,1.0,0.0,1.0,1.0,0.0,0.0,0.0,100.0,1.0,1.186,26.0,0.0,-15.15,74.678,66.0,0.0,26.0,26.0,26.0,26.0,-0.19,-0.16,0.35,388.9,-3.24,-0.91,-1.33,-1.52,-422.77,547.21,4.3,0.0,0.0,0.0,0.0,0.27,-7.49,-7.49,0.11,4.41,2.05,-6.98,4.48,0.49,-0.12,21.7,100.0,0.0,0.0,12.77,0.0,0.0,0.0,0.0,0.0,0.0,0.0,1731.0,0.0,30.0,1.0,16.3,0.0,0.0,0.0,0.0,0.0,0.0,1.0,0.0,24.831,24.831,74.679,19.926,0.0,110.0,435.8,8750.0,0.0,0.0,110.0,110.0,433.0,0.0,0.0,0.0,1.0,333.3,79.2,79.2,83.1,83.1,34.0,-28.82,0.65,-19.2,11.1,1.0,-102.09,221.4,100.0,18.7,16.4,27.8,26.1,0.0,1.0,0.0,0.0,0.0,0.0,0.0,3589.0,1857.0,3916.0,3213.0,315.8,319.9,345.3,346.8,24.81,23.9,25.9,25.26,325.0,325.0,355.0,355.0,99.76,99.71,99.78,99.74,-0.25,-0.08,-0.14,0.02,-0.0,-0.0,-0.0,0.2,81.1,75.4,81.6,77.6,84.7,79.9,91.7,88.2,81.7,76.9,89.5,86.0,79.5,75.2,88.5,85.0,12.25,-13.57,0.09,0.08,0.0,15.28,13.53,13.56,11.97,356.7,7.7,0.4291852746774987,7.922237613995739,14.404068430466705,-3.6010172783238037,0.0,0,5
498,24.85,477.0,44.05334018613026,-78.6791061066634,-126.6,26.7,248.8,-102.4,2048.2,2048.0,15.9,0.0,1.0,1.0,0.0,1.0,1.0,0.0,0.0,0.0,100.0,1.0,1.186,26.0,0.0,-15.15,74.678,66.0,0.0,26.0,26.0,26.0,26.0,0.14,-0.09,0.13,388.2,-2.32,-0.92,-0.45,-2.43,-422.57,547.32,4.3,0.0,0.0,0.0,0.0,0.27,-7.49,-7.49,0.77,17.9,1.04,-23.45,4.38,0.38,-0.31,22.76,100.0,0.0,0.0,13.09,0.0,0.0,0.0,0.0,0.0,0.0,0.0,1775.0,0.0,30.0,1.0,15.9,1.0,0.0,0.0,0.0,0.0,0.0,1.0,0.0,24.881,24.881,74.679,19.926,1.0,110.0,435.8,8750.0,0.0,0.0,110.0,110.0,433.0,0.0,0.0,0.0,1.0,333.3,90.5,90.5,59.6,59.6,34.0,0.16,19.99,-4.9,9.4,1.0,-102.14,239.8,100.0,12.4,17.7,40.2,21.0,0.0,1.0,0.0,0.0,0.0,0.0,0.0,728.0,2222.0,6629.0,1392.0,322.9,318.9,338.6,351.4,24.81,23.9,25.9,25.26,325.0,325.0,355.0,355.0,99.76,99.71,99.78,99.74,0.29,0.76,0.03,0.31,-0.0,-0.3,-0.0,0.4,81.1,75.4,81.6,77.7,84.6,79.9,91.6,88.2,81.6,76.9,89.5,85.9,79.5,75.1,88.4,85.0,13.29,-14.78,0.06,0.09,0.0,15.58,13.77,13.85,12.34,356.7,7.7,0.21118712081942875,7.562135914614545,14.043966731085508,-10.803050981435804,-3.6010169938119674,0,5
499,24.9,477.2,44.05334108545186,-78.67910439795234,-172.0,-69.5,234.8,-137.8,2048.4,2048.0,15.8,0.0,1.0,1.0,0.0,1.0,1.0,0.0,0.0,0.0,100.0,1.0,1.186,26.0,0.0,-15.15,74.678,66.0,0.0,26.0,26.0,26.0,26.0,-0.27,-0.01,-0.22,392.4,-1.5,-1.68,0.21,-3.17,-422.38,547.42,4.3,0.0,0.0,0.0,0.0,0.27,-7.49,-7.49,1.48,9.84,0.25,-8.37,4.38,0.34,-0.19,21.15,100.0,0.0,0.0,12.99,0.0,0.0,0.0,0.0,0.0,0.0,0.0,1760.0,0.0,30.0,1.0,15.8,0.0,0.0,0.0,0.0,0.0,0.0,1.0,0.0,24.93,24.93,74.679,19.926,0.0,110.0,435.8,8750.0,0.0,0.0,110.0,110.0,433.0,0.0,0.0,0.0,1.0,333.3,102.2,102.2,35.5,35.5,34.0,0.0,-20.59,-63.7,-0.6,1.0,-102.19,255.6,100.0,3.8,14.2,51.9,14.1,0.0,1.0,0.0,0.0,0.0,0.0,0.0,0.0,2593.0,8083.0,490.0,325.0,318.4,334.9,353.7,24.81,23.9,25.9,25.27,325.0,325.0,355.0,355.0,99.76,99.71,99.78,99.74,0.0,-1.01,-0.51,-0.72,0.0,0.3,0.0,2.6,81.1,75.4,81.6,77.7,84.6,79.8,91.6,88.1,81.6,76.8,89.4,85.9,79.4,75.1,88.4,84.9,14.26,-15.88,0.04,0.1,0.0,15.53,13.54,13.56,12.41,356.7,7.7,0.34842502780368695,6.841932515852158,14.043966731085508,-14.40406825975959,3.6010169938119674,0,5
500,24.95,477.4,44.05334189484131,-78.67910259930913,157.9,204.7,15.6,-100.8,2048.6,2049.0,15.6,0.0,1.0,1.0,0.0,1.0,1.0,0.0,0.0,0.0,100.0,1.0,1.186,26.0,0.0,-15.15,74.678,66.0,0.0,26.0,26.0,26.0,26.0,-0.82,-0.44,0.44,380.5,-1.68,-2.16,0.37,-3.28,-422.18,547.51,4.3,0.0,0.0,0.0,0.0,0.27,-7.49,-7.49,1.79,7.41,0.14,1.28,4.29,0.56,-0.2,24.65,100.0,0.0,0.0,13.08,0.0,0.0,0.0,0.0,0.0,0.0,0.0,1773.0,0.0,30.0,1.0,15.6,1.0,0.0,0.0,0.0,0.0,0.0,1.0,0.0,24.981,24.981,74.679,19.926,1.0,110.0,435.8,8750.0,0.0,0.0,110.0,110.0,433.0,0.0,0.0,0.0,1.0,333.3,81.0,81.0,38.1,38.1,34.0,-69.5,-82.88,-74.3,0.0,1.0,-102.24,271.2,100.0,11.7,24.5,52.7,9.0,0.0,1.0,0.0,0.0,0.0,0.0,0.0,4163.0,5761.0,7293.0,0.0,314.5,309.9,336.7,355.0,24.81,23.9,25.9,25.27,325.0,325.0,355.0,355.0,99.76,99.71,99.78,99.74,-1.77,-1.71,-0.72,0.0,0.2,-0.0,-0.2,0.0,81.1,75.4,81.7,77.7,84.5,79.8,91.5,88.1,81.5,76.8,89.4,85.8,79.4,75.1,88.3,84.9,15.02,-16.87,0.03,0.1,0.0,15.76,13.34,13.36,12.8,356.7,7.7,1.0293687385966217,6.121729088638586,14.404068430466705,-14.404068544271444,-5.690237081523719e-07,0,5
501,25.0,477.6,44.05334261429859,-78.67910080066592,187.5,14.4,-105.4,-42.5,2048.8,2049.0,15.3,0.0,1.0,1.0,0.0,1.0,1.0,0.0,0.0,0.0,100.0,1.0,1.186,26.0,0.0,-15.15,74.678,66.0,0.0,26.0,26.0,26.0,26.0,-0.31,-0.12,-0.09,385.4,-2.04,-1.28,0.14,-3.16,-421.98,547.59,4.3,0.0,0.0,0.0,0.0,0.27,-7.49,-7.49,2.43,14.85,0.55,13.15,4.17,0.74,-0.29,28.35,100.0,0.0,0.0,13.56,0.0,0.0,0.0,0.0,0.0,0.0,0.0,1838.0,0.0,30.0,1.0,15.3,0.0,0.0,0.0,0.0,0.0,0.0,1.0,0.0,25.031,25.031,74.679,19.926,0.0,110.0,435.8,8750.0,0.0,0.0,110.0,110.0,433.0,0.0,0.0,0.0,1.0,333.3,79.3,79.3,55.4,55.4,34.0,-43.85,1.99,-38.4,0.2,1.0,-102.29,288.1,100.0,21.1,25.2,47.4,6.9,0.0,1.0,0.0,0.0,0.0,0.0,0.0,4270.0,1006.0,5607.0,301.0,314.0,323.0,340.9,354.3,24.81,23.9,25.91,25.27,325.0,325.0,355.0,355.0,99.76,99.71,99.78,99.74,-0.59,0.1,-0.48,-0.11,-0.1,0.8,0.1,6.2,81.1,75.4,81.7,77.7,84.5,79.8,91.4,88.0,81.5,76.7,89.3,85.8,79.3,75.0,88.3,84.8,15.82,-18.04,0.05,0.11,0.0,15.81,12.66,13.77,13.36,356.7,7.7,0.34438350715445126,5.401525661425014,14.043966674183137,-14.40406825975959,3.601016993811914,0,5
502,25.05,477.8,44.05334324382372,-78.67909909195488,-60.6,-264.2,-279.7,149.3,2049.0,2049.0,15.7,0.0,1.0,1.0,0.0,1.0,1.0,0.0,0.0,0.0,100.0,1.0,1.186,26.0,0.0,-15.15,74.678,66.0,0.0,26.0,26.0,26.0,26.0,-0.41,0.14,-0.3,391.3,-2.94,0.77,-0.86,-2.03,-421.79,547.66,4.4,0.0,0.0,0.0,0.0,0.27,-7.49,-7.49,3.07,14.36,1.76,29.85,4.29,0.8,-0.15,27.05,100.0,0.0,0.0,11.33,0.0,0.0,0.0,0.0,0.0,0.0,0.0,1536.0,0.0,30.0,1.0,15.7,1.0,0.0,0.0,0.0,0.0,0.0,1.0,0.0,25.08,25.08,74.679,19.926,1.0,110.0,435.8,8750.0,0.0,0.0,110.0,110.0,433.0,0.0,0.0,0.0,1.0,333.3,89.8,89.8,78.3,78.3,34.0,-40.54,-0.08,-33.0,-15.9,1.0,-102.34,303.7,100.0,18.0,12.0,33.5,14.4,0.0,1.0,0.0,0.0,0.0,0.0,0.0,2943.0,19.0,3579.0,3285.0,317.4,324.9,345.9,346.7,24.81,23.9,25.91,25.27,325.0,325.0,355.0,355.0,99.76,99.71,99.78,99.74,-1.1,-1.27,-0.64,-0.71,-0.1,1.1,1.0,0.1,81.1,75.4,81.7,77.7,84.5,79.7,91.4,88.0,81.4,76.7,89.3,85.7,79.3,75.0,88.2,84.8,16.66,-19.29,0.08,0.1,0.0,15.36,12.97,12.18,10.49,356.7,7.7,0.5269724850502159,4.6813222626626265,14.764170129847896,-10.803051265947659,10.803052119483212,0,5
503,25.1,478.0,44.053343783416686,-78.67909711344734,-298.5,-104.9,-297.6,312.3,2049.3,2049.0,15.5,0.0,1.0,1.0,0.0,1.0,1.0,0.0,0.0,0.0,100.0,1.0,1.186,26.0,0.0,-15.15,74.678,66.0,0.0,26.0,26.0,26.0,26.0,-0.12,0.12,-0.51,403.9,-5.05,2.77,-2.11,-0.79,-421.57,547.72,4.4,0.0,0.0,0.0,0.0,0.27,-7.49,-7.49,3.49,3.76,3.19,14.88,4.22,0.79,0.14,25.05,100.0,0.0,0.0,12.61,0.0,0.0,0.0,0.0,0.0,0.0,0.0,1709.0,0.0,30.0,1.0,15.5,0.0,0.0,0.0,0.0,0.0,0.0,0.0,0.0,25.134,25.134,74.679,19.926,0.0,110.0,435.8,8750.0,0.0,0.0,110.0,110.0,433.0,0.0,0.0,0.0,1.0,166.7,108.5,108.5,82.8,82.8,34.0,0.0,-8.01,-0.6,7.9,1.0,-102.39,320.0,100.0,3.1,6.7,18.6,30.0,0.0,1.0,0.0,0.0,0.0,0.0,0.0,0.0,749.0,1115.0,5319.0,325.0,323.1,352.2,341.6,24.81,23.9,25.91,25.27,325.0,325.0,355.0,355.0,99.76,99.71,99.78,99.74,0.0,-1.56,0.25,-0.03,0.0,0.3,2.5,0.5,81.0,75.4,81.7,77.7,84.4,79.7,91.3,87.9,81.4,76.7,89.2,85.7,79.2,75.0,88.2,84.7,17.83,-20.63,0.11,0.07,0.0,15.5,12.3,14.21,11.0,356.7,7.7,0.5374941860150675,4.321220534830248,15.124271886131458,-10.803051550459498,-46.81322205760258,0,5
504,25.15,478.2,44.05334432300965,-78.67909531480413,-21.0,21.4,-84.0,75.9,2049.5,2049.0,14.8,0.0,1.0,1.0,0.0,1.0,1.0,0.0,0.0,0.0,100.0,1.0,1.186,26.0,0.0,-15.15,74.678,66.0,0.0,26.0,26.0,26.0,26.0,1.89,-4.04,0.72,403.2,-5.22,2.96,-2.22,-0.63,-421.37,547.78,4.4,0.0,0.0,0.0,0.0,0.27,-7.49,-7.49,3.44,0.19,3.34,-6.19,3.78,0.47,0.21,22.54,100.0,0.0,0.0,11.61,0.0,0.0,0.0,0.0,0.0,0.0,0.0,1574.0,0.0,30.0,1.0,14.8,1.0,0.0,0.0,0.0,0.0,0.0,0.0,0.0,25.181,25.181,74.679,19.926,1.0,110.0,435.8,8750.0,0.0,0.0,110.0,110.0,433.0,0.0,0.0,0.0,1.0,333.3,107.6,107.6,82.6,82.6,34.0,0.0,-15.52,6.9,44.1,1.0,-102.44,320.0,100.0,2.0,7.8,14.4,33.8,0.0,1.0,0.0,0.0,0.0,0.0,0.0,0.0,1475.0,1810.0,5154.0,325.0,321.0,350.6,341.7,24.81,23.9,25.91,25.28,325.0,325.0,355.0,355.0,99.76,99.71,99.78,99.74,0.0,-0.85,0.72,0.5,0.0,0.4,0.1,0.5,81.0,75.4,81.7,77.7,84.3,79.6,91.3,87.9,81.3,76.6,89.2,85.6,79.2,74.9,88.1,84.7,17.91,-20.69,0.12,0.06,0.0,15.5,12.3,12.74,10.49,356.7,7.7,4.517975210202021,3.6010171076166766,10.082847924087638,-36.010171076166756,-144.0406848736907,0,5
505,25.2,478.3,44.05334468273829,-78.67909459534684,-49.6,3.0,-40.3,-20.6,2049.5,2049.0,0.8,0.0,1.0,1.0,0.0,1.0,1.0,0.0,0.0,0.0,100.0,1.0,1.186,26.0,0.0,-15.15,74.678,66.0,0.0,26.0,26.0,26.0,26.0,0.17,-6.76,0.2,404.2,-5.18,2.93,-2.18,-0.64,-421.29,547.82,4.4,0.0,0.0,0.0,0.0,0.27,-7.49,-7.49,3.4,0.14,3.33,-0.25,0.0,-0.12,0.01,3.01,100.0,0.0,0.0,7.67,0.0,0.0,0.0,0.0,0.0,0.0,0.0,1039.0,0.0,30.0,1.0,0.8,0.0,0.0,0.0,0.0,0.0,0.0,0.0,0.0,25.23,25.23,74.679,19.926,0.0,110.0,435.8,8750.0,0.0,0.0,110.0,110.0,433.0,0.0,0.0,0.0,1.0,166.7,74.7,74.7,76.0,76.0,34.0,0.0,0.44,0.4,3.7,1.0,-102.49,320.0,100.0,-0.4,8.0,12.4,32.8,0.0,1.0,0.0,0.0,0.0,0.0,0.0,0.0,1232.0,1996.0,4850.0,325.0,321.8,350.0,342.6,24.81,23.9,25.91,25.28,325.0,325.0,355.0,355.0,99.76,99.71,99.78,99.74,0.0,-13.98,-10.39,-11.81,0.0,9.4,67.1,5.3,81.0,75.4,81.7,77.7,84.3,79.6,91.3,87.8,81.3,76.6,89.2,85.6,79.1,74.9,88.1,84.7,17.97,-20.69,0.13,0.08,0.0,15.5,0.54,13.16,2.17,356.7,7.7,6.765094234376931,0.7202034272135722,0.7202033987623869,-14.404068259759603,-50.414239620438174,0,5
506,25.25,478.3,44.05334450287397,-78.67909513493981,-5.0,-12.2,31.7,2.8,2049.6,2050.0,5.7,0.0,1.0,1.0,0.0,1.0,1.0,0.0,0.0,0.0,100.0,1.0,1.186,26.0,0.0,-15.15,74.678,66.0,0.0,26.0,26.0,26.0,26.0,-0.17,-1.31,-0.07,401.8,-4.99,2.82,-2.07,-0.78,-421.35,547.8,4.4,0.0,0.0,0.0,0.0,0.27,-7.49,-7.49,3.42,-0.97,3.17,-8.76,-1.61,-0.06,-0.01,-6.3,100.0,0.0,0.0,3.14,0.0,0.0,0.0,0.0,0.0,0.0,0.0,425.0,0.0,30.0,1.0,5.7,1.0,0.0,0.0,0.0,0.0,0.0,0.0,0.0,25.281,25.281,74.679,19.926,1.0,110.0,435.8,8750.0,0.0,0.0,110.0,110.0,433.0,0.0,0.0,0.0,1.0,333.3,74.7,74.7,76.0,76.0,34.0,0.0,10.47,1.1,6.5,1.0,-102.54,320.0,100.0,-0.7,7.4,14.0,32.9,0.0,1.0,0.0,0.0,0.0,0.0,0.0,0.0,1340.0,3214.0,5073.0,325.0,321.4,347.1,342.1,24.8,23.9,25.91,25.28,325.0,325.0,355.0,355.0,99.76,99.71,99.78,99.74,0.0,3.63,-11.38,-12.26,0.0,3.5,100.0,46.8,81.0,75.4,81.7,77.8,84.2,79.5,91.3,87.8,81.2,76.5,89.2,85.6,79.1,74.8,88.2,84.7,17.95,-20.69,0.11,0.06,0.0,15.5,-2.34,9.93,-3.66,356.7,7.7,1.3228378585450298,2.1606102816407162,5.04142396204382,14.40406854427144,43.212205632814324,0,5
507,25.3,478.4,44.053344143145324,-78.67909585439709,12.4,-25.1,198.7,-61.1,2049.6,2050.0,6.4,0.0,1.0,1.0,0.0,1.0,1.0,0.0,0.0,0.0,100.0,1.0,1.186,26.0,0.0,-15.15,74.678,66.0,0.0,26.0,26.0,26.0,26.0,-0.09,0.7,-0.25,395.8,-4.24,2.1,-1.42,-1.5,-421.43,547.76,4.4,0.0,0.0,0.0,0.0,0.27,-7.49,-7.49,3.31,-4.79,2.37,-18.23,-1.75,-0.03,0.08,-9.14,100.0,0.0,0.0,2.48,0.0,0.0,0.0,0.0,0.0,0.0,0.0,0.0,0.0,30.0,1.0,6.4,0.0,0.0,0.0,0.0,0.0,0.0,0.0,0.0,25.331,25.331,74.679,19.926,0.0,110.0,435.8,8750.0,0.0,0.0,110.0,110.0,433.0,0.0,0.0,0.0,1.0,333.3,74.7,74.7,76.0,76.0,34.0,-0.18,-1.92,-0.1,-7.8,1.0,-102.59,320.0,100.0,-0.1,6.1,23.9,29.8,0.0,1.0,0.0,0.0,0.0,0.0,0.0,1762.0,1035.0,4949.0,2956.0,321.0,322.3,342.8,347.3,24.8,23.9,25.92,25.28,325.0,325.0,355.0,355.0,99.76,99.71,99.78,99.74,2.83,10.79,0.62,-0.53,70.9,-0.7,100.0,2.7,81.0,75.4,81.7,77.8,84.2,79.5,91.4,87.8,81.2,76.5,89.3,85.6,79.1,74.8,88.2,84.6,17.92,-20.71,0.09,0.07,0.0,10.77,-3.97,-3.54,-1.42,356.7,7.7,0.7487322618933954,2.1606102816407162,5.04142396204382,-7.202034556647572,-3.601016993811932,0,5
508,25.35,478.5,44.053343963281,-78.67909639399006,263.1,59.1,165.0,-91.0,2049.7,2050.0,4.3,0.0,1.0,1.0,0.0,1.0,1.0,0.0,0.0,0.0,100.0,1.0,1.186,26.0,0.0,-15.15,74.678,66.0,0.0,26.0,26.0,26.0,26.0,0.83,0.83,0.14,387.4,-4.18,1.55,-1.1,-1.88,-421.49,547.74,4.4,0.0,0.0,0.0,0.0,0.27,-7.49,-7.49,3.14,-2.62,2.01,6.35,-1.19,-0.16,0.1,-6.66,100.0,0.0,0.0,8.63,0.0,0.0,0.0,0.0,0.0,0.0,0.0,0.0,0.0,30.0,1.0,4.3,1.0,0.0,0.0,0.0,0.0,0.0,0.0,0.0,25.38,25.38,74.679,19.926,1.0,110.0,435.8,8750.0,0.0,0.0,110.0,110.0,433.0,0.0,0.0,0.0,1.0,333.3,74.7,74.7,76.0,76.0,34.0,-2.84,-5.83,67.9,-1.1,1.0,-102.64,320.0,100.0,13.1,9.1,32.1,25.3,0.0,1.0,0.0,0.0,0.0,0.0,0.0,3602.0,2486.0,5853.0,3992.0,315.7,318.6,340.4,345.0,24.8,23.9,25.92,25.28,325.0,325.0,355.0,355.0,99.76,99.71,99.78,99.74,6.72,12.32,2.93,2.53,-29.0,-3.1,-4.2,53.2,81.0,75.4,81.7,77.8,84.3,79.5,91.5,87.8,81.3,76.5,89.3,85.6,79.1,74.8,88.3,84.6,17.74,-20.66,0.07,0.08,0.0,-19.03,-2.96,-14.98,-2.28,356.7,7.7,1.1821167455035904,1.440406825975959,4.6813222626626265,-7.202034556647572,-5.690236992705877e-07,0,5
509,25.4,478.6,44.053343783416686,-78.67909702351518,57.3,280.2,-36.5,212.2,2049.8,2050.0,5.2,0.0,1.0,1.0,0.0,1.0,1.0,0.0,0.0,0.0,100.0,1.0,1.186,26.0,0.0,-15.15,74.678,66.0,0.0,26.0,26.0,26.0,26.0,-0.17,-0.25,0.17,381.5,-4.93,1.87,-1.86,-1.24,-421.56,547.72,4.4,0.0,0.0,0.0,0.0,0.27,-7.49,-7.49,2.88,-6.27,2.84,13.41,-1.4,-0.39,0.02,-14.39,100.0,0.0,0.0,4.41,0.0,0.0,0.0,0.0,0.0,0.0,0.0,0.0,0.0,30.0,1.0,5.2,0.0,0.0,0.0,0.0,0.0,0.0,0.0,0.0,25.431,25.431,74.679,19.926,0.0,110.0,435.8,8750.0,0.0,0.0,110.0,110.0,433.0,0.0,0.0,0.0,1.0,333.3,74.7,74.7,76.0,76.0,34.0,1.45,-1.05,0.2,0.3,1.0,-102.69,320.0,100.0,16.0,23.1,30.3,35.9,0.0,1.0,0.0,0.0,0.0,0.0,0.0,3026.0,5722.0,1964.0,4284.0,317.3,310.0,349.9,344.3,24.8,23.9,25.92,25.29,325.0,325.0,355.0,355.0,99.76,99.71,99.78,99.74,-2.78,0.2,-0.42,-0.73,32.8,-0.7,-24.6,-37.0,81.0,75.4,81.7,77.8,84.3,79.4,91.5,87.8,81.3,76.4,89.3,85.6,79.1,74.7,88.3,84.6,17.71,-20.46,0.08,0.06,0.0,-8.18,-5.19,-9.69,0.86,356.7,7.7,0.34684290392049255,1.440406825975959,5.04142390514145,3.6010172783237904,3.601016993811932,0,5
510,25.45,478.6,44.053343603552364,-78.6790976530403,108.1,132.3,-92.4,-66.1,2049.9,2050.0,5.7,0.0,1.0,1.0,0.0,1.0,1.0,0.0,0.0,0.0,100.0,1.0,1.186,26.0,0.0,-15.15,74.678,66.0,0.0,26.0,26.0,26.0,26.0,-0.3,0.59,0.15,380.3,-4.59,1.43,-1.61,-1.43,-421.63,547.7,4.4,0.0,0.0,0.0,0.0,0.27,-7.49,-7.49,2.69,-1.63,2.48,-17.14,-1.55,-0.14,-0.08,-5.2,100.0,0.0,0.0,2.61,0.0,0.0,0.0,0.0,0.0,0.0,0.0,0.0,0.0,30.0,1.0,5.7,1.0,0.0,0.0,0.0,0.0,0.0,0.0,0.0,25.481,25.481,74.679,19.926,1.0,110.0,435.8,8750.0,0.0,0.0,110.0,110.0,433.0,0.0,0.0,0.0,1.0,333.3,74.7,74.7,76.0,76.0,34.0,-37.35,35.72,3.0,7.0,1.0,-102.74,320.0,100.0,21.4,29.7,25.7,32.6,0.0,1.0,0.0,0.0,0.0,0.0,0.0,4598.0,4617.0,3692.0,2531.0,313.3,312.6,346.1,348.3,24.8,23.9,25.92,25.29,325.0,325.0,355.0,355.0,99.76,99.71,99.78,99.74,-0.4,0.79,1.15,0.83,3.2,0.1,10.0,-6.8,81.0,75.4,81.8,77.8,84.3,79.4,91.4,87.8,81.3,76.4,89.3,85.6,79.1,74.7,88.2,84.7,17.63,-20.36,0.09,0.06,0.0,-13.75,-5.39,-9.68,4.46,356.7,7.7,0.678675180038286,1.800508553808338,5.04142396204382,3.6010172783237904,3.60101756283564,0,5
511,25.5,478.7,44.05334333375588,-78.67909828256543,27.6,-90.8,33.7,-151.4,2049.9,2050.0,5.1,0.0,1.0,1.0,0.0,1.0,1.0,0.0,0.0,0.0,100.0,1.0,1.186,26.0,0.0,-15.15,74.678,66.0,0.0,26.0,26.0,26.0,26.0,0.1,0.71,0.05,383.8,-4.37,1.27,-1.32,-1.63,-421.7,547.67,4.4,0.0,0.0,0.0,0.0,0.27,-7.49,-7.49,2.8,4.57,2.23,3.17,-1.35,-0.36,-0.13,-10.97,100.0,0.0,0.0,5.61,0.0,0.0,0.0,0.0,0.0,0.0,0.0,0.0,0.0,30.0,1.0,5.1,0.0,0.0,0.0,0.0,0.0,0.0,0.0,0.0,25.53,25.53,74.679,19.926,0.0,110.0,435.8,8750.0,0.0,0.0,110.0,110.0,433.0,0.0,0.0,0.0,1.0,166.7,74.7,74.7,76.0,76.0,34.0,-6.36,10.88,-2.1,1.2,1.0,-102.79,320.0,100.0,22.7,25.1,27.4,25.0,0.0,1.0,0.0,0.0,0.0,0.0,0.0,2892.0,3213.0,4285.0,3532.0,317.4,316.4,344.3,346.1,24.8,23.9,25.92,25.29,325.0,325.0,355.0,355.0,99.76,99.71,99.78,99.74,0.17,0.44,0.17,-0.19,4.3,-1.0,-0.6,5.1,81.0,75.4,81.8,77.8,84.3,79.4,91.4,87.8,81.3,76.4,89.3,85.6,79.1,74.7,88.2,84.6,17.63,-20.45,0.08,0.09,0.0,-2.28,-3.98,-7.98,-3.23,356.7,7.7,0.7187489130426563,1.800508553808338,5.401525661425014,0.0,0.0,0,5
512,25.55,478.8,44.05334315389156,-78.67909900202271,2.6,-83.3,17.4,2.2,2050.0,2050.0,5.5,0.0,1.0,1.0,0.0,1.0,1.0,0.0,0.0,0.0,100.0,1.0,1.186,26.0,0.0,-15.15,74.678,66.0,0.0,26.0,26.0,26.0,26.0,-0.03,0.18,0.06,383.6,-3.37,1.32,-1.26,-1.7,-421.78,547.65,4.4,0.0,0.0,0.0,0.0,0.27,-7.49,-7.49,2.92,1.9,2.14,-0.58,-1.49,-0.18,-0.13,-10.01,100.0,0.0,0.0,3.83,0.0,0.0,0.0,0.0,0.0,0.0,0.0,0.0,0.0,30.0,1.0,5.5,1.0,0.0,0.0,0.0,0.0,0.0,0.0,0.0,25.581,25.581,74.679,19.926,1.0,110.0,435.8,8750.0,0.0,0.0,110.0,110.0,433.0,0.0,0.0,0.0,1.0,333.3,74.7,74.7,76.0,76.0,34.0,-6.93,-6.22,-2.7,1.3,1.0,-102.84,320.0,100.0,22.9,21.0,28.2,25.1,0.0,1.0,0.0,0.0,0.0,0.0,0.0,3699.0,2246.0,4001.0,2735.0,315.1,319.0,345.1,348.1,24.8,23.9,25.92,25.29,325.0,325.0,355.0,355.0,99.76,99.71,99.78,99.74,0.25,-0.08,0.08,-0.17,0.9,-0.1,5.4,5.2,81.0,75.4,81.8,77.8,84.3,79.3,91.4,87.8,81.3,76.3,89.3,85.5,79.1,74.6,88.2,84.6,17.62,-20.51,0.08,0.08,0.0,0.0,-3.74,-5.26,-2.39,356.7,7.7,0.19209372712298545,1.800508553808338,5.04142396204382,0.0,-7.202033987623873,0,5
513,25.6,478.9,44.05334288409508,-78.67909954161568,-230.0,-50.7,-1.9,0.1,2050.1,2050.0,5.4,0.0,1.0,1.0,0.0,1.0,1.0,0.0,0.0,0.0,100.0,1.0,1.186,26.0,0.0,-15.15,74.678,66.0,0.0,26.0,26.0,26.0,26.0,0.02,0.31,-0.24,388.9,-3.24,1.51,-1.38,-1.57,-421.84,547.62,4.4,0.0,0.0,0.0,0.0,0.27,-7.49,-7.49,2.97,-2.22,2.27,2.3,-1.47,-0.23,-0.04,-9.47,100.0,0.0,0.0,3.51,0.0,0.0,0.0,0.0,0.0,0.0,0.0,0.0,0.0,30.0,1.0,5.4,0.0,0.0,0.0,0.0,0.0,0.0,1.0,0.0,25.631,25.631,74.679,19.926,0.0,110.0,435.8,8750.0,0.0,0.0,110.0,110.0,433.0,0.0,0.0,0.0,1.0,333.3,74.7,74.7,76.0,76.0,34.0,0.54,10.27,-2.8,8.5,1.0,-102.89,320.0,100.0,11.4,18.4,28.1,25.1,0.0,1.0,0.0,0.0,0.0,0.0,0.0,169.0,3020.0,3163.0,3384.0,324.4,317.2,347.1,346.4,24.8,23.9,25.93,25.29,325.0,325.0,355.0,355.0,99.76,99.71,99.78,99.74,1.55,0.47,0.13,-0.01,4.3,0.6,1.7,2.1,81.0,75.3,81.8,77.8,84.2,79.3,91.3,87.7,81.2,76.3,89.2,85.5,79.0,74.6,88.1,84.5,17.78,-20.56,0.08,0.08,0.0,-6.35,-4.78,-3.7,-3.31,356.7,7.7,0.39255572852781045,1.800508553808338,4.6813222626626265,-3.6010169938119363,-5.690236992705877e-07,0,5
514,25.65,478.9,44.05334270423076,-78.6791001711408,-108.0,18.0,-2.6,-12.9,2050.2,2050.0,5.3,0.0,1.0,1.0,0.0,1.0,1.0,0.0,0.0,0.0,100.0,1.0,1.186,26.0,0.0,-15.15,74.678,66.0,0.0,26.0,26.0,26.0,26.0,0.17,-0.22,-0.16,389.3,-2.94,1.04,-1.21,-1.76,-421.91,547.6,4.4,0.0,0.0,0.0,0.0,0.27,-7.49,-7.49,2.8,-6.41,2.06,-8.08,-1.44,-0.29,0.07,-10.46,100.0,0.0,0.0,3.69,0.0,0.0,0.0,0.0,0.0,0.0,0.0,0.0,0.0,30.0,1.0,5.3,1.0,0.0,0.0,0.0,0.0,0.0,1.0,0.0,25.68,25.68,74.679,19.926,1.0,110.0,435.8,8750.0,0.0,0.0,110.0,110.0,433.0,0.0,0.0,0.0,1.0,166.7,74.7,74.7,76.0,76.0,34.0,2.15,19.52,7.3,15.2,1.0,-102.94,320.0,100.0,6.0,19.3,28.0,24.5,0.0,1.0,0.0,0.0,0.0,0.0,0.0,376.0,4148.0,4042.0,2501.0,324.1,314.1,345.0,348.5,24.8,23.9,25.93,25.3,325.0,325.0,355.0,355.0,99.76,99.71,99.78,99.74,1.7,0.49,0.31,0.23,-1.7,-0.3,0.1,-0.3,81.0,75.3,81.8,77.8,84.2,79.2,91.3,87.7,81.2,76.2,89.2,85.4,79.0,74.6,88.1,84.5,17.84,-20.54,0.08,0.09,0.0,-4.03,-3.91,-4.15,-3.23,356.7,7.7,0.3207802986469088,1.4404068544271444,5.04142390514145,-3.6010169938119363,3.601016993811932,0,5
515,25.7,479.0,44.053342524366435,-78.67910080066592,46.2,85.3,90.7,-95.5,2050.2,2050.0,5.2,0.0,1.0,1.0,0.0,1.0,1.0,0.0,0.0,0.0,100.0,1.0,1.186,26.0,0.0,-15.15,74.678,66.0,0.0,26.0,26.0,26.0,26.0,-0.12,-0.14,0.03,386.3,-2.58,0.4,-0.79,-2.18,-421.98,547.58,4.4,0.0,0.0,0.0,0.0,0.27,-7.49,-7.49,2.49,-6.7,1.57,-10.36,-1.4,-0.33,0.11,-10.1,100.0,0.0,0.0,3.94,0.0,0.0,0.0,0.0,0.0,0.0,0.0,0.0,0.0,30.0,1.0,5.2,0.0,0.0,0.0,0.0,0.0,0.0,1.0,0.0,25.731,25.731,74.679,19.926,0.0,110.0,435.8,8750.0,0.0,0.0,110.0,110.0,433.0,0.0,0.0,0.0,1.0,333.3,74.7,74.7,76.0,76.0,34.0,5.09,-26.3,-16.7,2.3,1.0,-102.99,320.0,100.0,8.3,23.6,32.6,19.7,0.0,1.0,0.0,0.0,0.0,0.0,0.0,1580.0,5100.0,4890.0,1618.0,321.0,311.6,342.8,350.8,24.8,23.89,25.93,25.3,325.0,325.0,355.0,355.0,99.76,99.71,99.78,99.74,0.71,-0.32,-0.1,-0.2,1.7,-0.0,-0.0,-0.8,81.0,75.3,81.8,77.9,84.1,79.2,91.2,87.6,81.1,76.2,89.1,85.4,79.0,74.5,88.0,84.4,17.8,-20.46,0.08,0.09,0.0,-5.95,-3.93,-4.64,-3.23,356.7,7.7,0.18681541692269404,1.4404068544271444,5.04142396204382,0.0,-3.6010164247882326,0,5
516,25.75,479.1,44.05334234450211,-78.67910143019105,75.7,154.0,110.2,-104.1,2050.3,2050.0,5.2,0.0,1.0,1.0,0.0,1.0,1.0,0.0,0.0,0.0,100.0,1.0,1.186,26.0,0.0,-15.15,74.678,66.0,0.0,26.0,26.0,26.0,26.0,-0.04,-0.3,0.25,378.5,-2.22,-1.31,-0.35,-2.64,-422.05,547.56,4.3,0.0,0.0,0.0,0.0,0.27,-7.49,-7.49,2.22,-4.0,1.04,-9.12,-1.41,-0.29,0.07,-9.6,100.0,0.0,0.0,4.1,0.0,0.0,0.0,0.0,0.0,0.0,0.0,0.0,0.0,30.0,1.0,5.2,1.0,0.0,0.0,0.0,0.0,0.0,1.0,0.0,25.781,25.781,74.679,19.926,1.0,110.0,435.8,8750.0,0.0,0.0,110.0,110.0,433.0,0.0,0.0,0.0,1.0,333.3,74.7,74.7,76.0,76.0,34.0,6.65,-24.2,-12.7,2.7,1.0,-103.04,320.0,100.0,12.1,31.3,38.1,14.5,0.0,1.0,0.0,0.0,0.0,0.0,0.0,2040.0,8913.0,5898.0,994.0,319.7,300.2,340.3,352.4,24.79,23.89,25.93,25.3,325.0,325.0,355.0,355.0,99.76,99.71,99.78,99.74,0.6,-0.32,-0.08,-0.11,1.0,0.1,-0.0,-0.8,81.0,75.3,81.8,77.9,84.1,79.1,91.2,87.5,81.1,76.2,89.0,85.3,78.9,74.5,88.0,84.4,17.75,-20.29,0.06,0.09,0.0,-5.1,-3.14,-4.42,-3.79,356.7,7.7,0.39255572852781045,1.4404068544271444,4.6813222626626265,3.6010169938119363,-3.601017562835631,0,5
517,25.8,479.1,44.05334216463779,-78.67910196978401,2.3,-11.9,101.6,-76.6,2050.4,2050.0,5.2,0.0,1.0,1.0,0.0,1.0,1.0,0.0,0.0,0.0,100.0,1.0,1.186,26.0,0.0,-15.15,74.678,66.0,0.0,26.0,26.0,26.0,26.0,-0.06,0.02,-0.06,382.2,-1.88,-1.65,0.01,-3.01,-422.11,547.54,4.3,0.0,0.0,0.0,0.0,0.27,-7.49,-7.49,2.12,-2.23,0.63,-4.04,-1.42,-0.29,0.03,-9.7,100.0,0.0,0.0,4.1,0.0,0.0,0.0,0.0,0.0,0.0,0.0,0.0,0.0,30.0,1.0,5.2,0.0,0.0,0.0,0.0,0.0,0.0,1.0,0.0,25.83,25.83,74.679,19.926,0.0,110.0,435.8,8750.0,0.0,0.0,110.0,110.0,433.0,0.0,0.0,0.0,1.0,333.3,74.7,74.7,76.0,76.0,34.0,2.98,-6.09,-27.2,0.8,1.0,-103.09,320.0,100.0,12.2,30.7,43.1,10.7,0.0,1.0,0.0,0.0,0.0,0.0,0.0,585.0,4733.0,6726.0,581.0,323.4,312.4,338.2,353.5,24.79,23.89,25.93,25.3,325.0,325.0,355.0,355.0,99.76,99.71,99.78,99.74,0.96,-0.29,-0.25,-0.27,-0.8,0.1,0.4,1.2,81.0,75.3,81.8,77.9,84.0,79.1,91.1,87.5,81.0,76.1,89.0,85.3,78.9,74.4,87.9,84.3,17.75,-20.36,0.05,0.12,0.0,-5.16,-4.6,-4.51,-3.7,356.7,7.7,0.08717797887081347,1.800508553808338,4.681322205760257,7.202033987623868,3.601016993811932,0,5
518,25.85,479.2,44.05334189484131,-78.67910259930913,-80.8,-79.1,32.9,-24.1,2050.4,2050.0,5.2,0.0,1.0,1.0,0.0,1.0,1.0,0.0,0.0,0.0,100.0,1.0,1.186,26.0,0.0,-15.15,74.678,66.0,0.0,26.0,26.0,26.0,26.0,-0.15,-0.02,-0.14,384.8,-1.73,-1.61,0.04,-3.07,-422.18,547.51,4.3,0.0,0.0,0.0,0.0,0.27,-7.49,-7.49,1.91,-6.26,0.58,1.3,-1.43,-0.22,0.1,-10.07,100.0,0.0,0.0,4.22,0.0,0.0,0.0,0.0,0.0,0.0,0.0,0.0,0.0,30.0,1.0,5.2,1.0,0.0,0.0,0.0,0.0,0.0,1.0,0.0,25.881,25.881,74.679,19.926,1.0,110.0,435.8,8750.0,0.0,0.0,110.0,110.0,433.0,0.0,0.0,0.0,1.0,333.3,74.7,74.7,76.0,76.0,34.0,0.11,-10.71,-25.3,1.0,1.0,-103.14,320.0,100.0,8.1,26.8,44.8,9.5,0.0,1.0,0.0,0.0,0.0,0.0,0.0,36.0,4471.0,6325.0,724.0,324.9,313.3,339.2,353.2,24.79,23.89,25.93,25.3,325.0,325.0,355.0,355.0,99.76,99.71,99.78,99.74,1.16,-0.37,-0.26,-0.31,0.3,0.1,0.3,0.5,80.9,75.3,81.8,77.9,84.0,79.0,91.0,87.4,81.0,76.1,88.9,85.2,78.8,74.4,87.9,84.3,17.81,-20.4,0.05,0.1,0.0,-5.56,-4.67,-4.72,-3.73,356.7,7.7,0.20615528128088303,2.1606102531895313,5.04142396204382,3.601016993811932,3.601017562835631,0,5
519,25.9,479.3,44.05334162504483,-78.67910322883426,-28.8,15.6,-22.8,2.4,2050.5,2051.0,5.3,0.0,1.0,1.0,0.0,1.0,1.0,0.0,0.0,0.0,100.0,1.0,1.186,26.0,0.0,-15.15,74.678,66.0,0.0,26.0,26.0,26.0,26.0,0.07,-0.04,-0.09,384.5,-1.77,-1.54,-0.06,-2.71,-422.25,547.48,4.3,0.0,0.0,0.0,0.0,0.27,-7.49,-7.49,1.54,-7.81,0.7,3.19,-1.43,-0.24,0.15,-10.27,100.0,0.0,0.0,4.36,0.0,0.0,0.0,0.0,0.0,0.0,0.0,0.0,0.0,30.0,1.0,5.3,0.0,0.0,0.0,0.0,0.0,0.0,1.0,0.0,25.931,25.931,74.679,19.926,0.0,110.0,435.8,8750.0,0.0,0.0,110.0,110.0,433.0,0.0,0.0,0.0,1.0,333.3,74.7,74.7,76.0,76.0,34.0,1.24,18.76,-5.8,2.7,1.0,-103.19,320.0,100.0,6.7,27.5,43.6,9.6,0.0,1.0,0.0,0.0,0.0,0.0,0.0,221.0,6013.0,5637.0,1012.0,324.4,309.2,340.9,352.5,24.79,23.89,25.94,25.3,325.0,325.0,355.0,355.0,99.76,99.71,99.78,99.74,1.4,0.03,-0.05,-0.14,0.2,0.1,0.1,-0.0,80.9,75.3,81.8,77.9,83.9,79.0,91.0,87.4,80.9,76.0,88.9,85.2,78.8,74.3,87.8,84.2,17.83,-20.4,0.06,0.12,0.0,-5.39,-4.73,-4.65,-4.07,356.7,7.7,0.12083045973594572,2.1606102531895313,5.04142396204382,2.8451184963529386e-07,0.0,0,5
520,25.95,479.4,44.05334135524835,-78.67910385835938,-16.1,42.3,-20.0,17.6,2050.6,2051.0,5.3,0.0,1.0,1.0,0.0,1.0,1.0,0.0,0.0,0.0,100.0,1.0,1.186,26.0,0.0,-15.15,74.678,66.0,0.0,26.0,26.0,26.0,26.0,-0.03,-0.06,0.24,384.5,-1.82,-1.53,-0.1,-2.68,-422.32,547.45,4.3,0.0,0.0,0.0,0.0,0.27,-7.49,-7.49,1.25,-2.97,0.73,-1.4,-1.46,-0.24,0.1,-10.03,100.0,0.0,0.0,4.29,0.0,0.0,0.0,0.0,0.0,0.0,0.0,0.0,0.0,30.0,1.0,5.3,1.0,0.0,0.0,0.0,0.0,0.0,1.0,0.0,25.983,25.983,74.679,19.926,1.0,110.0,435.8,8750.0,0.0,0.0,110.0,110.0,433.0,0.0,0.0,0.0,1.0,166.7,74.7,74.7,76.0,76.0,34.0,0.0,-7.05,-5.8,3.2,1.0,-103.24,315.9,100.0,5.9,29.7,42.6,10.5,0.0,1.0,0.0,0.0,0.0,0.0,0.0,0.0,5927.0,5937.0,1219.0,325.0,309.2,340.3,351.9,24.79,23.89,25.94,25.31,325.0,325.0,355.0,355.0,99.76,99.71,99.78,99.74,0.0,-0.26,-0.04,-0.15,0.0,-0.1,0.2,0.1,80.9,75.3,81.9,77.9,83.9,78.9,90.9,87.3,80.9,76.0,88.8,85.1,78.7,74.3,87.7,84.2,17.69,-20.16,0.05,0.11,0.0,-5.58,-4.36,-4.7,-3.88,356.7,7.7,0.24919871588754225,2.1606102816407162,5.04142396204382,2.8451184963529386e-07,0.0,0,5
521,26.0,479.4,44.05334108545186,-78.67910448788452,-19.0,-86.1,27.7,18.8,2050.7,2051.0,5.4,0.0,1.0,1.0,0.0,1.0,1.0,0.0,0.0,0.0,100.0,1.0,1.186,26.0,0.0,-15.15,74.678,66.0,0.0,26.0,26.0,26.0,26.0,-0.06,0.02,0.08,390.7,-2.07,-1.45,-0.06,-2.75,-422.39,547.42,4.3,0.0,0.0,0.0,0.0,0.27,-7.49,-7.49,1.21,-0.44,0.67,-0.04,-1.47,-0.25,0.03,-9.35,100.0,0.0,0.0,4.18,0.0,0.0,0.0,0.0,0.0,0.0,0.0,0.0,0.0,30.0,1.0,5.4,0.0,0.0,0.0,0.0,0.0,0.0,1.0,0.0,26.031,26.031,74.679,19.926,0.0,110.0,435.8,8750.0,0.0,0.0,110.0,110.0,433.0,0.0,0.0,0.0,1.0,333.3,74.7,74.7,76.0,76.0,34.0,0.0,0.0,-18.8,2.2,1.0,-103.29,307.9,100.0,4.9,25.3,44.0,11.4,0.0,1.0,0.0,0.0,0.0,0.0,0.0,0.0,3934.0,6583.0,1393.0,325.0,314.5,338.6,351.5,24.79,23.89,25.94,25.31,325.0,325.0,355.0,355.0,99.76,99.71,99.78,99.74,0.0,-0.17,-0.17,-0.28,0.0,-0.1,0.3,0.4,80.9,75.3,81.9,77.9,83.8,78.9,90.9,87.3,80.8,75.9,88.8,85.1,78.7,74.3,87.7,84.1,17.26,-19.65,0.05,0.12,0.0,-5.58,-4.53,-4.58,-3.78,356.7,7.7,0.1019803902718557,2.1606102816407162,5.04142396204382,-2.8451184963529386e-07,-3.601017562835631,0,5
