,Time,Distance,GPS Latitude,GPS Longitude,Damper Velocity (Calc) FL,Damper Velocity (Calc) FR,Damper Velocity (Calc) RL,Damper Velocity (Calc) RR,Corr Dist,Corr Dist (Unstretched),Corr Speed,ABS Active,ABS Enabled,AID Allow Tire Blankets,AID Auto Blip,AID Auto Clutch,AID Auto Shift,AID Fuel Rate,AID Ideal Line,AID Mech Damage,AID Stability,AID Tire Wear Rate,Air Density,Air Temp,Ballast,Best Lap Delta,Best Lap Time,Brake Bias,Brake Pos,Brake Temp FL,Brake Temp FR,Brake Temp RL,Brake Temp RR,CG Accel Lateral,CG Accel Longitudinal,CG Accel Vertical,CG Height,Camber FL,Camber FR,Camber RL,Camber RR,Car Coord X,Car Coord Y,Car Coord Z,Car Damage Front,Car Damage Left,Car Damage Rear,Car Damage Right,Car Pos Norm,Caster FL,Caster FR,Chassis Pitch Angle,Chassis Pitch Rate,Chassis Roll Angle,Chassis Roll Rate,Chassis Velocity X,Chassis Velocity Y,Chassis Velocity Z,Chassis Yaw Rate,Clutch Pos,DRS Active,DRS Available,Drive Train Speed,ERS Heat Charging,ERS Is Charging,ERS Max Energy,ERS Power Level,ERS Recovery Level,Engine Brake Setting,Engine Limiter,Engine RPM,Flags,Fuel Level,Gear,Ground Speed,HR Sample Clock,In Pit,KERS Charge,KERS Deployed Energy,KERS Input,KERS Max Energy,LR Sample Clock,Lap Invalidated,Lap Time,Lap Time2,Last Lap Time,Last Sector Time,MR Sample Clock,Max Fuel,Max Power,Max RPM,Max Sus Travel FL,Max Sus Travel FR,Max Sus Travel RL,Max Sus Travel RR,Max Torque,Max Turbo Boost,Num Tires Off Track,Penalties Enabled,Position,Raw Data Sample Rate,Ride Height FL,Ride Height FR,Ride Height RL,Ride Height RR,Road Temp,Self Align Torque FL,Self Align Torque FR,Self Align Torque RL,Self Align Torque RR,Session Lap Count,Session Time Left,Steering Angle,Surface Grip,Suspension Travel FL,Suspension Travel FR,Suspension Travel RL,Suspension Travel RR,TC Active,TC Enabled,Throttle Pos,Tire Dirt Level FL,Tire Dirt Level FR,Tire Dirt Level RL,Tire Dirt Level RR,Tire Load FL,Tire Load FR,Tire Load RL,Tire Load RR,Tire Loaded Radius FL,Tire Loaded Radius FR,Tire Loaded Radius RL,Tire Loaded Radius RR,Tire Pressure FL,Tire Pressure FR,Tire Pressure RL,Tire Pressure RR,Tire Radius FL,Tire Radius FR,Tire Radius RL,Tire Radius RR,Tire Rubber Grip FL,Tire Rubber Grip FR,Tire Rubber Grip RL,Tire Rubber Grip RR,Tire Slip Angle FL,Tire Slip Angle FR,Tire Slip Angle RL,Tire Slip Angle RR,Tire Slip Ratio FL,Tire Slip Ratio FR,Tire Slip Ratio RL,Tire Slip Ratio RR,Tire Temp Core FL,Tire Temp Core FR,Tire Temp Core RL,Tire Temp Core RR,Tire Temp Inner FL,Tire Temp Inner FR,Tire Temp Inner RL,Tire Temp Inner RR,Tire Temp Middle FL,Tire Temp Middle FR,Tire Temp Middle RL,Tire Temp Middle RR,Tire Temp Outer FL,Tire Temp Outer FR,Tire Temp Outer RL,Tire Temp Outer RR,Toe In FL,Toe In FR,Toe In RL,Toe In RR,Turbo Boost,Wheel Angular Speed FL,Wheel Angular Speed FR,Wheel Angular Speed RL,Wheel Angular Speed RR,Wind Direction,Wind Speed,CG Distance,Lateral Velocity,Longitudinal Velocity,Lateral Acceleration,Longitudinal Acceleration,level,curve_number
196,9.75,358.1,44.05362823884064,-78.67978833203365,44.7,13.8,4.6,-20.0,5466.2,5466.0,128.4,0.0,1.0,1.0,0.0,1.0,1.0,0.0,0.0,0.0,100.0,1.0,1.186,26.0,0.0,-0.12,50.194,66.0,48.9,26.0,26.0,26.0,26.0,-0.57,-0.99,0.18,380.2,-2.29,-3.49,-1.74,-1.38,-498.43,579.35,5.6,0.0,0.0,0.0,0.0,0.21,-7.49,-7.49,-0.77,4.2,1.26,0.74,35.64,-0.26,-0.58,11.24,100.0,0.0,0.0,98.9,0.0,0.0,0.0,0.0,0.0,0.0,0.0,6630.0,0.0,30.0,3.0,128.4,0.0,0.0,0.0,0.0,0.0,0.0,1.0,0.0,9.789,9.789,50.194,17.865,0.0,110.0,435.8,8750.0,0.0,0.0,110.0,110.0,433.0,0.0,0.0,0.0,1.0,166.7,60.4,60.4,78.6,78.6,34.0,-62.0,-11.14,-50.1,-22.6,3.0,-194.12,12.3,100.0,32.0,25.5,30.8,22.6,0.0,1.0,0.0,0.0,0.0,0.0,0.0,5479.0,5022.0,4068.0,4022.0,310.9,311.4,345.2,345.2,25.14,23.05,26.08,24.78,325.0,325.0,355.0,355.0,100.0,99.9,100.0,100.0,-0.75,-0.63,-0.95,-0.71,-1.8,-2.1,-1.8,-1.3,83.1,70.1,82.7,74.6,83.6,75.2,82.5,76.6,80.3,71.9,80.7,74.4,77.8,70.3,79.8,73.3,0.72,-0.72,0.09,0.09,0.0,107.68,106.93,99.06,98.74,174.7,27.6,1.1564601160437828,32.76925569638246,126.75580222224842,-46.813222626626114,-100.82847924087645,1,3
197,9.8,359.8,44.05363201599138,-78.67977349322716,7.6,-26.2,31.0,56.2,5468.0,5468.0,126.8,0.0,1.0,1.0,0.0,1.0,1.0,0.0,0.0,0.0,100.0,1.0,1.186,26.0,0.0,-0.114,50.194,66.0,45.9,26.0,26.0,26.0,26.0,-0.63,-0.9,0.19,380.5,-2.01,-4.12,-1.93,-1.35,-496.78,579.77,5.6,0.0,0.0,0.0,0.0,0.21,-7.49,-7.49,-0.61,3.4,1.21,0.17,35.19,-0.28,-0.55,10.11,100.0,0.0,0.0,97.74,0.0,0.0,0.0,0.0,0.0,0.0,0.0,6552.0,0.0,30.0,3.0,126.8,1.0,0.0,0.0,0.0,0.0,0.0,1.0,0.0,9.837,9.837,50.194,17.865,1.0,110.0,435.8,8750.0,0.0,0.0,110.0,110.0,433.0,0.0,0.0,0.0,1.0,333.3,63.6,63.6,77.6,77.6,34.0,-60.9,-6.15,-80.1,-16.3,3.0,-194.165,11.8,100.0,32.4,24.2,32.3,25.4,0.0,1.0,0.0,0.0,0.0,0.0,0.0,5394.0,2619.0,5493.0,2871.0,310.7,316.7,341.8,347.7,25.14,23.05,26.08,24.78,325.0,325.0,355.0,355.0,100.0,99.9,100.0,100.0,-0.77,-0.75,-0.96,-0.76,-1.8,-2.2,-1.3,-1.4,83.1,70.1,82.7,74.6,83.6,75.2,82.4,76.6,80.3,71.9,80.7,74.3,77.8,70.3,79.7,73.3,0.69,-0.68,0.08,0.09,0.0,106.46,104.62,98.27,97.21,174.7,27.6,1.1148990985734988,29.528340288146985,118.11336115258791,-39.611188354490494,-61.21729060187377,1,3
198,9.85,361.6,44.053635613277805,-78.67975883428498,-235.2,-180.0,26.4,17.3,5469.7,5470.0,125.4,0.0,1.0,1.0,0.0,1.0,1.0,0.0,0.0,0.0,100.0,1.0,1.186,26.0,0.0,-0.111,50.194,66.0,41.8,26.0,26.0,26.0,26.0,-0.46,-0.8,-0.32,388.4,-2.62,-3.09,-0.7,-1.86,-495.15,580.17,5.6,0.0,0.0,0.0,0.0,0.21,-7.49,-7.49,-0.62,-3.72,1.21,-0.28,34.79,-0.3,-0.49,7.63,100.0,0.0,0.0,96.46,0.0,0.0,0.0,0.0,0.0,0.0,0.0,6466.0,0.0,30.0,3.0,125.4,0.0,0.0,0.0,0.0,0.0,0.0,0.0,0.0,9.884,9.884,50.194,17.865,0.0,110.0,435.8,8750.0,0.0,0.0,110.0,110.0,433.0,0.0,0.0,0.0,1.0,333.3,78.5,78.5,77.9,77.9,34.0,-37.5,-2.12,-47.0,-9.9,3.0,-194.215,12.4,100.0,20.7,15.2,33.7,26.2,0.0,1.0,0.0,0.0,0.0,0.0,0.0,3642.0,1740.0,4188.0,2275.0,315.8,320.2,344.8,348.9,25.13,23.05,26.08,24.78,325.0,325.0,355.0,355.0,100.0,99.9,100.0,100.0,-0.9,-0.9,-0.88,-0.72,-2.6,-6.3,-1.3,-1.2,83.1,70.1,82.7,74.6,83.6,75.2,82.4,76.6,80.3,71.9,80.7,74.3,77.8,70.3,79.7,73.3,0.71,-0.72,0.07,0.07,0.0,104.35,99.45,96.82,96.1,174.7,27.6,0.9767292357659825,28.80813686093341,120.63407316206104,-7.202034272135762,46.81322262662647,1,3
199,9.9,363.3,44.05363921056423,-78.67974336595336,-9.9,-26.3,-83.8,-35.8,5471.4,5471.0,123.9,0.0,1.0,1.0,0.0,1.0,1.0,0.0,0.0,0.0,100.0,1.0,1.186,26.0,0.0,-0.099,50.194,66.0,39.6,26.0,26.0,26.0,26.0,-0.34,-0.63,-0.33,392.9,-2.74,-2.28,-1.04,-2.05,-493.43,580.57,5.6,0.0,0.0,0.0,0.0,0.21,-7.49,-7.49,-1.0,-8.73,1.37,3.43,34.4,-0.27,-0.59,7.55,100.0,0.0,0.0,94.59,0.0,0.0,0.0,0.0,0.0,0.0,0.0,6341.0,0.0,30.0,3.0,123.9,1.0,0.0,0.0,0.0,0.0,0.0,0.0,0.0,9.936,9.936,50.194,17.865,1.0,110.0,435.8,8750.0,0.0,0.0,110.0,110.0,433.0,0.0,0.0,0.0,1.0,333.3,79.8,79.8,90.1,90.1,34.0,-36.0,-2.71,-8.2,-5.3,3.0,-194.265,13.9,100.0,20.2,13.9,29.5,24.4,0.0,1.0,0.0,0.0,0.0,0.0,0.0,3297.0,1440.0,1174.0,1498.0,316.5,321.2,351.9,350.5,25.13,23.05,26.08,24.78,325.0,325.0,355.0,355.0,100.0,99.9,100.0,100.0,-0.98,-0.96,-0.81,-0.7,-2.4,-5.8,-2.1,-1.4,83.1,70.1,82.7,74.6,83.5,75.2,82.4,76.5,80.3,71.9,80.7,74.3,77.8,70.3,79.7,73.2,0.8,-0.8,0.09,0.09,0.0,102.79,98.51,94.59,94.59,174.7,27.6,0.7882892870006544,28.80813686093341,122.79468341525056,-18.00508553808342,-25.207120094731295,1,3
200,9.95,365.0,44.05364280785065,-78.67972816741822,-8.8,66.8,-203.2,-211.8,5473.1,5473.0,122.5,0.0,1.0,1.0,0.0,1.0,1.0,0.0,0.0,0.0,100.0,1.0,1.186,26.0,0.0,-0.096,50.194,66.0,39.0,26.0,26.0,26.0,26.0,-0.58,-0.96,-0.27,392.9,-2.85,-2.36,-1.66,-1.44,-491.74,580.97,5.6,0.0,0.0,0.0,0.0,0.21,-7.49,-7.49,-1.35,-5.51,1.33,-2.54,33.98,-0.32,-0.59,10.18,100.0,0.0,0.0,93.22,0.0,0.0,0.0,0.0,0.0,0.0,0.0,6249.0,0.0,30.0,3.0,122.5,0.0,0.0,0.0,0.0,0.0,0.0,0.0,0.0,9.987,9.987,50.194,17.865,0.0,110.0,435.8,8750.0,0.0,0.0,110.0,110.0,433.0,0.0,0.0,0.0,1.0,166.7,72.4,72.4,90.4,90.4,34.0,-67.7,-24.02,-41.0,-4.8,3.0,-194.315,15.2,100.0,19.7,17.2,19.3,13.9,0.0,1.0,0.0,0.0,0.0,0.0,0.0,5270.0,4442.0,3378.0,1289.0,312.6,313.5,346.7,351.5,25.13,23.05,26.07,24.77,325.0,325.0,355.0,355.0,100.0,99.9,100.0,100.0,-1.05,-0.91,-1.04,-0.8,-2.1,-2.6,-1.9,-2.9,83.1,70.1,82.7,74.6,83.5,75.2,82.3,76.5,80.3,71.9,80.6,74.2,77.7,70.3,79.7,73.2,0.88,-0.89,0.11,0.1,0.0,102.74,101.92,94.15,92.28,174.7,27.6,1.1536463929644993,27.007628307125067,118.11336115258791,-36.01017107616677,-57.616273608062585,1,3
201,10.0,366.7,44.05364595547627,-78.67971386820469,303.5,242.0,18.6,-64.7,5474.8,5475.0,121.1,0.0,1.0,1.0,0.0,1.0,1.0,0.0,0.0,0.0,100.0,1.0,1.186,26.0,0.0,-0.096,50.194,66.0,36.4,26.0,26.0,26.0,26.0,-0.75,-0.89,0.25,383.1,-3.02,-2.87,-1.57,-0.65,-490.15,581.32,5.6,0.0,0.0,0.0,0.0,0.21,-7.49,-7.49,-1.4,5.2,1.11,-5.55,33.59,-0.35,-0.64,14.82,100.0,0.0,0.0,92.12,0.0,0.0,0.0,0.0,0.0,0.0,0.0,6175.0,0.0,30.0,3.0,121.1,1.0,0.0,0.0,0.0,0.0,0.0,0.0,0.0,10.034,10.034,50.194,17.865,1.0,110.0,435.8,8750.0,0.0,0.0,110.0,110.0,433.0,0.0,0.0,0.0,1.0,166.7,51.7,51.7,93.5,93.5,34.0,-135.2,-27.31,-33.2,-11.5,3.0,-194.365,15.7,100.0,34.9,29.3,20.2,10.6,0.0,1.0,0.0,0.0,0.0,0.0,0.0,8303.0,5485.0,2961.0,2079.0,303.8,309.4,348.1,349.8,25.13,23.05,26.07,24.77,325.0,325.0,355.0,355.0,100.0,99.9,100.0,100.0,-0.99,-0.77,-1.2,-0.97,-1.1,-1.3,-2.4,-3.4,83.1,70.1,82.7,74.6,83.5,75.2,82.3,76.5,80.3,71.9,80.6,74.2,77.7,70.3,79.6,73.2,0.92,-0.91,0.1,0.11,0.0,103.07,101.33,92.75,91.48,174.7,27.6,1.1904200939164291,25.207119753316732,117.0330560544443,-25.20711952570725,10.803051550459344,1,3
202,10.05,368.3,44.05364910310189,-78.67969893946602,90.6,7.2,192.8,143.8,5476.5,5476.0,119.5,0.0,1.0,1.0,0.0,1.0,1.0,0.0,0.0,0.0,100.0,1.0,1.186,26.0,0.0,-0.09,50.194,66.0,37.4,26.0,26.0,26.0,26.0,-0.9,-0.79,0.37,377.3,-1.27,-3.59,-0.24,-2.12,-488.49,581.67,5.6,0.0,0.0,0.0,0.0,0.21,-7.49,-7.49,-0.83,14.67,0.79,-4.63,33.17,-0.4,-0.47,15.28,100.0,0.0,0.0,92.91,0.0,0.0,0.0,0.0,0.0,0.0,0.0,6228.0,0.0,30.0,3.0,119.5,0.0,0.0,0.0,0.0,0.0,0.0,0.0,0.0,10.086,10.086,50.194,17.865,0.0,110.0,435.8,8750.0,0.0,0.0,110.0,110.0,433.0,0.0,0.0,0.0,1.0,333.3,55.8,55.8,77.8,77.8,34.0,-82.7,-12.22,-103.0,-28.7,3.0,-194.415,15.6,100.0,39.4,29.7,29.9,17.8,0.0,1.0,0.0,0.0,0.0,0.0,0.0,6325.0,3335.0,6235.0,3486.0,308.6,315.7,339.4,345.8,25.13,23.05,26.07,24.77,325.0,325.0,355.0,355.0,100.0,99.9,100.0,100.0,-0.94,-0.83,-1.41,-1.08,-1.2,-2.0,-1.0,-0.9,83.1,70.1,82.7,74.6,83.5,75.2,82.3,76.4,80.3,71.9,80.6,74.2,77.7,70.3,79.6,73.1,0.93,-0.89,0.07,0.09,0.0,101.46,99.36,93.55,92.26,174.7,27.6,1.2533953885346796,24.486916354554342,119.19366630763385,-32.40915379784301,-21.606103100918403,1,3
203,10.1,370.0,44.053652070863194,-78.67968410065953,-172.3,-195.0,414.2,281.0,5478.1,5478.0,118.1,0.0,1.0,1.0,0.0,1.0,1.0,0.0,0.0,0.0,100.0,1.0,1.186,26.0,0.0,-0.084,50.194,66.0,43.5,26.0,26.0,26.0,26.0,-0.86,-0.84,0.34,373.9,-2.38,-2.76,-1.0,-2.37,-486.84,582.0,5.6,0.0,0.0,0.0,0.0,0.22,-7.49,-7.49,-0.3,5.24,0.6,-0.93,32.77,-0.34,-0.31,10.35,100.0,0.0,0.0,91.49,0.0,0.0,0.0,0.0,0.0,0.0,0.0,6133.0,0.0,30.0,3.0,118.1,1.0,0.0,0.0,0.0,0.0,0.0,0.0,0.0,10.137,10.137,50.194,17.865,1.0,110.0,435.8,8750.0,0.0,0.0,110.0,110.0,433.0,0.0,0.0,0.0,1.0,333.3,67.8,67.8,59.0,59.0,34.0,-89.9,-5.03,-114.1,-32.9,3.0,-194.465,16.2,100.0,30.8,20.0,50.6,31.9,0.0,1.0,0.0,0.0,0.0,0.0,0.0,6316.0,1760.0,7040.0,4749.0,309.4,320.2,337.5,342.8,25.13,23.05,26.07,24.77,325.0,325.0,355.0,355.0,100.0,99.9,100.0,100.0,-1.09,-1.09,-1.13,-0.94,-1.8,-4.9,-1.0,-0.8,83.1,70.1,82.7,74.6,83.5,75.1,82.3,76.4,80.3,71.9,80.6,74.1,77.7,70.3,79.6,73.1,0.93,-0.95,0.04,0.07,0.0,99.57,94.82,91.89,91.09,174.7,27.6,1.2493198149393132,21.96620437353243,114.87244574435246,-39.611188354490565,-57.6162736080623,1,3
204,10.15,371.6,44.05365458896369,-78.6796702511068,-184.0,-150.7,-54.5,29.0,5479.7,5480.0,116.7,0.0,1.0,1.0,0.0,1.0,1.0,0.0,0.0,0.0,100.0,1.0,1.186,26.0,0.0,-0.075,50.194,66.0,54.6,26.0,26.0,26.0,26.0,-0.47,-0.86,-0.19,383.4,-3.67,-2.7,0.09,-2.15,-485.3,582.28,5.6,0.0,0.0,0.0,0.0,0.22,-7.49,-7.49,-0.35,-6.27,0.82,9.32,32.4,-0.26,-0.36,6.28,100.0,0.0,0.0,89.61,0.0,0.0,0.0,0.0,0.0,0.0,0.0,6007.0,0.0,30.0,3.0,116.7,0.0,0.0,0.0,0.0,0.0,0.0,0.0,0.0,10.186,10.186,50.194,17.865,0.0,110.0,435.8,8750.0,0.0,0.0,110.0,110.0,433.0,0.0,0.0,0.0,1.0,333.3,79.9,79.9,66.4,66.4,34.0,-29.0,-0.52,-37.1,-16.0,3.0,-194.515,17.9,100.0,21.6,12.4,47.9,33.3,0.0,1.0,0.0,0.0,0.0,0.0,0.0,3306.0,1761.0,3803.0,3325.0,316.7,320.4,345.2,346.7,25.13,23.05,26.07,24.77,325.0,325.0,355.0,355.0,100.0,99.9,100.0,100.0,-1.28,-1.32,-0.88,-0.78,-4.1,-8.9,-1.4,-1.3,83.0,70.1,82.7,74.6,83.5,75.1,82.3,76.4,80.2,71.8,80.6,74.1,77.7,70.2,79.6,73.1,1.02,-1.04,0.04,0.07,0.0,94.91,92.08,89.73,89.5,174.7,27.6,0.9982985525382675,20.525797519105286,113.43203894682762,-18.00508553808342,3.601017562835267,1,3
205,10.2,373.2,44.05365719699635,-78.67965577202894,-62.3,18.6,-275.0,-109.4,5481.3,5481.0,114.9,0.0,1.0,1.0,0.0,1.0,1.0,0.0,0.0,0.0,100.0,1.0,1.186,26.0,0.0,-0.066,50.194,66.0,65.0,26.0,26.0,26.0,26.0,-0.39,-1.01,-0.3,389.8,-3.58,-2.34,-1.74,-1.74,-483.69,582.57,5.6,0.0,0.0,0.0,0.0,0.22,-7.49,-7.49,-0.88,-12.91,1.13,5.36,31.89,-0.19,-0.54,5.26,100.0,0.0,0.0,87.29,0.0,0.0,0.0,0.0,0.0,0.0,0.0,5852.0,0.0,30.0,3.0,114.9,1.0,0.0,0.0,0.0,0.0,0.0,0.0,0.0,10.236,10.236,50.194,17.865,1.0,110.0,435.8,8750.0,0.0,0.0,110.0,110.0,433.0,0.0,0.0,0.0,1.0,333.3,78.9,78.9,83.0,83.0,34.0,-26.2,0.82,-13.3,-6.8,3.0,-194.565,20.7,100.0,18.5,13.3,34.1,27.9,0.0,1.0,0.0,0.0,0.0,0.0,0.0,4037.0,2419.0,1596.0,2113.0,315.3,318.9,350.2,348.9,25.13,23.05,26.07,24.77,325.0,325.0,355.0,355.0,100.0,99.9,100.0,100.0,-1.42,-1.35,-0.7,-0.6,-5.3,-11.8,-2.1,-1.7,83.0,70.1,82.7,74.6,83.5,75.2,82.2,76.3,80.2,71.9,80.5,74.1,77.7,70.3,79.6,73.1,1.18,-1.2,0.07,0.07,0.0,92.52,85.05,87.24,87.34,174.7,27.6,1.1234767465328332,20.16569581972409,115.23254750063599,-18.005085538083385,-32.40915408235466,1,3
206,10.25,374.7,44.053659625164684,-78.6796414728154,82.7,174.8,-379.2,-264.8,5482.9,5483.0,112.8,0.0,1.0,1.0,0.0,1.0,1.0,0.0,0.0,0.0,100.0,1.0,1.186,26.0,0.0,-0.057,50.194,66.0,78.1,26.0,26.0,26.0,26.0,-0.47,-1.3,-0.18,392.4,-1.78,-3.46,-1.51,-0.57,-482.1,582.84,5.6,0.0,0.0,0.0,0.0,0.22,-7.49,-7.49,-1.47,-8.26,1.18,-4.22,31.28,-0.21,-0.69,9.95,100.0,0.0,0.0,82.02,0.0,0.0,0.0,0.0,0.0,0.0,0.0,5498.0,0.0,30.0,3.0,112.8,0.0,0.0,0.0,0.0,0.0,0.0,0.0,0.0,10.287,10.287,50.194,17.865,0.0,110.0,435.8,8750.0,0.0,0.0,110.0,110.0,433.0,0.0,0.0,0.0,1.0,333.3,65.5,65.5,99.3,99.3,34.0,-63.9,-19.02,-3.7,-0.5,3.0,-194.615,22.5,100.0,22.6,22.1,15.2,14.6,0.0,1.0,0.0,0.0,0.0,0.0,0.0,6262.0,4896.0,1541.0,417.0,309.2,311.5,351.6,353.9,25.12,23.05,26.07,24.77,325.0,325.0,355.0,355.0,100.0,99.9,100.0,100.0,-1.32,-1.15,-0.84,-0.65,-3.9,-4.7,-6.3,-5.9,83.0,70.1,82.7,74.6,83.5,75.2,82.2,76.3,80.3,71.9,80.5,74.0,77.7,70.3,79.5,73.0,1.29,-1.3,0.12,0.11,0.0,93.07,90.98,82.78,81.26,174.7,27.6,1.3940229553346675,18.725288965296947,110.19112353859215,-28.8081370885428,-75.62135971516923,1,3
207,10.3,376.3,44.0536618734687,-78.6796282527878,252.3,66.4,-18.1,-159.2,5484.4,5484.0,110.5,1.0,1.0,1.0,0.0,1.0,1.0,0.0,0.0,0.0,100.0,1.0,1.186,26.0,0.0,-0.048,50.194,66.0,83.1,26.0,26.0,26.0,26.0,-0.59,-1.23,-0.08,389.5,-2.67,-3.24,-0.35,-1.47,-480.63,583.09,5.6,0.0,0.0,0.0,0.0,0.22,-7.49,-7.49,-1.62,2.6,0.98,-0.58,30.66,-0.27,-0.73,15.02,100.0,0.0,0.0,75.9,0.0,0.0,0.0,0.0,0.0,0.0,0.0,5088.0,0.0,30.0,3.0,110.5,1.0,0.0,0.0,0.0,0.0,0.0,0.0,0.0,10.334,10.334,50.194,17.865,1.0,110.0,435.8,8750.0,0.0,0.0,110.0,110.0,433.0,0.0,0.0,0.0,1.0,333.3,56.1,56.1,107.8,107.8,34.0,-113.6,-6.85,-10.9,0.1,3.0,-194.665,22.7,100.0,35.2,25.4,14.3,6.6,0.0,1.0,0.0,0.0,0.0,0.0,0.0,8181.0,3900.0,1522.0,527.0,303.9,314.2,351.1,353.5,25.12,23.05,26.07,24.77,325.0,325.0,355.0,355.0,100.0,99.9,100.0,100.0,-1.23,-1.08,-1.23,-0.98,-3.0,-6.6,-3.4,-19.3,83.0,70.1,82.7,74.6,83.6,75.2,82.2,76.3,80.3,71.9,80.5,74.0,77.8,70.3,79.5,73.0,1.33,-1.32,0.12,0.11,0.0,92.2,86.62,83.78,68.02,174.7,27.6,1.366528448295168,17.28488211086981,107.67041152911906,-25.207119810219076,-18.00508610710679,1,3
208,10.35,377.8,44.05366394190839,-78.6796145830994,-16.1,-36.5,114.2,166.3,5485.9,5486.0,107.9,0.0,1.0,1.0,0.0,1.0,1.0,0.0,0.0,0.0,100.0,1.0,1.186,26.0,0.0,-0.042,50.194,66.0,91.8,26.0,26.0,26.0,26.0,-0.62,-1.5,0.03,386.9,-1.73,-2.87,-0.33,-2.4,-479.11,583.32,5.6,0.0,0.0,0.0,0.0,0.22,-7.49,-7.49,-1.37,4.7,1.11,3.91,29.91,-0.44,-0.55,16.57,100.0,0.0,0.0,78.33,0.0,0.0,0.0,0.0,0.0,0.0,0.0,5251.0,0.0,30.0,3.0,107.9,0.0,0.0,0.0,0.0,0.0,0.0,1.0,0.0,10.386,10.386,50.194,17.865,0.0,110.0,435.8,8750.0,0.0,0.0,110.0,110.0,433.0,0.0,0.0,0.0,1.0,333.3,62.9,62.9,96.6,96.6,34.0,-46.9,-1.13,-26.7,0.2,3.0,-194.715,23.1,100.0,34.4,23.6,20.0,15.0,0.0,1.0,0.0,0.0,0.0,0.0,0.0,5582.0,2450.0,3457.0,1924.0,310.1,318.4,346.3,349.9,25.12,23.05,26.06,24.77,325.0,325.0,355.0,355.0,100.0,99.9,100.0,100.0,-1.42,-1.38,-1.8,-1.5,-4.8,-8.7,-4.8,-9.8,83.0,70.1,82.6,74.6,83.6,75.3,82.2,76.3,80.3,72.0,80.5,74.0,77.8,70.4,79.5,73.0,1.33,-1.34,0.1,0.1,0.0,87.76,80.5,81.44,75.22,174.7,27.6,1.623360711610331,16.20457698427504,108.39061492788147,-28.808136804031044,-50.414239051414285,1,3
209,10.4,379.2,44.05366592041592,-78.67960118320747,-161.2,9.6,197.3,105.0,5487.4,5487.0,104.9,0.0,1.0,1.0,0.0,1.0,1.0,0.0,0.0,0.0,100.0,1.0,1.186,26.0,0.0,-0.033,50.194,66.0,100.0,26.0,26.0,26.0,26.0,-0.71,-1.65,0.08,382.9,-1.43,-2.44,-1.4,-1.81,-477.62,583.54,5.6,0.0,0.0,0.0,0.0,0.22,-7.49,-7.49,-1.31,-1.31,1.25,-0.61,29.09,-0.49,-0.53,13.14,100.0,0.0,0.0,78.23,0.0,0.0,0.0,0.0,0.0,0.0,0.0,5244.0,0.0,30.0,3.0,104.9,1.0,0.0,0.0,0.0,0.0,0.0,1.0,0.0,10.437,10.437,50.194,17.865,1.0,110.0,435.8,8750.0,0.0,0.0,110.0,110.0,433.0,0.0,0.0,0.0,1.0,333.3,63.0,63.0,78.5,78.5,34.0,1.6,-30.27,-51.8,-7.7,3.0,-194.765,24.9,100.0,26.4,24.1,29.8,20.2,0.0,1.0,0.0,0.0,0.0,0.0,0.0,6340.0,4932.0,3822.0,2045.0,309.5,311.0,345.3,349.6,25.12,23.05,26.06,24.77,325.0,325.0,355.0,355.0,100.0,99.9,100.0,100.0,-1.8,-1.7,-1.73,-1.51,-9.5,-5.0,-2.8,-5.6,83.0,70.1,82.6,74.5,83.7,75.3,82.2,76.3,80.4,72.0,80.5,74.0,77.9,70.4,79.5,73.0,1.41,-1.43,0.08,0.09,0.0,86.48,82.94,79.61,76.85,174.7,27.6,1.7980545041794478,14.404068430466705,102.62898762397764,-36.010171076166735,-82.82339256474557,1,3
210,10.45,380.7,44.05366753919481,-78.67958895243362,138.6,78.9,-12.0,-61.9,5488.8,5489.0,102.1,0.0,1.0,1.0,0.0,1.0,1.0,0.0,0.0,0.0,100.0,1.0,1.186,26.0,0.0,-0.021,50.194,66.0,100.0,26.0,26.0,26.0,26.0,-0.87,-1.69,0.28,380.9,-3.38,-3.03,-0.22,-1.51,-476.26,583.72,5.6,0.0,0.0,0.0,0.0,0.22,-7.49,-7.49,-1.32,1.63,1.11,-4.24,28.29,-0.45,-0.63,15.15,100.0,0.0,0.0,74.59,0.0,0.0,0.0,0.0,0.0,0.0,0.0,5000.0,0.0,30.0,3.0,102.1,0.0,0.0,0.0,0.0,0.0,0.0,1.0,0.0,10.484,10.484,50.194,17.865,0.0,110.0,435.8,8750.0,0.0,0.0,110.0,110.0,433.0,0.0,0.0,0.0,1.0,333.3,53.8,53.8,85.1,85.1,34.0,-83.4,-12.71,-39.8,0.0,3.0,-194.815,27.6,100.0,33.3,28.0,29.2,17.1,0.0,1.0,0.0,0.0,0.0,0.0,0.0,8548.0,5296.0,3165.0,682.0,303.2,310.6,346.5,353.4,25.12,23.06,26.06,24.77,325.0,325.0,355.0,355.0,100.0,99.9,100.0,100.0,-1.8,-1.62,-1.66,-1.49,-5.0,-7.1,-2.6,-9.6,83.0,70.1,82.6,74.5,83.7,75.4,82.1,76.3,80.4,72.1,80.4,74.0,77.9,70.5,79.5,73.0,1.58,-1.58,0.08,0.08,0.0,84.02,78.99,78.43,70.74,174.7,27.6,1.9213016421166145,12.603559876658366,100.10827567140691,-28.80813680403106,-21.606103100919114,1,3
211,10.5,382.0,44.05366906804154,-78.67957618206681,-16.4,-71.5,-81.8,-33.0,5490.2,5490.0,99.2,1.0,1.0,1.0,0.0,1.0,1.0,0.0,0.0,0.0,100.0,1.0,1.186,26.0,0.0,-0.015,50.194,66.0,100.0,26.0,26.0,26.0,26.0,-0.56,-1.73,-0.13,385.4,-2.37,-2.54,-0.78,-1.56,-474.84,583.89,5.6,0.0,0.0,0.0,0.0,0.22,-7.49,-7.49,-1.12,4.15,0.95,-2.24,27.5,-0.52,-0.53,15.33,100.0,0.0,0.0,72.61,0.0,0.0,0.0,0.0,0.0,0.0,0.0,4867.0,0.0,30.0,3.0,99.2,1.0,0.0,0.0,0.0,0.0,0.0,1.0,0.0,10.536,10.536,50.194,17.865,1.0,110.0,435.8,8750.0,0.0,0.0,110.0,110.0,433.0,0.0,0.0,0.0,1.0,333.3,63.1,63.1,87.5,87.5,34.0,4.7,-0.55,-25.1,-2.4,3.0,-194.865,30.2,100.0,32.5,24.4,25.1,15.5,0.0,1.0,0.0,0.0,0.0,0.0,0.0,5543.0,3218.0,4126.0,2033.0,310.9,316.5,344.9,349.1,25.12,23.06,26.06,24.77,325.0,325.0,355.0,355.0,100.0,99.9,100.0,100.0,-1.99,-1.95,-1.88,-1.67,-10.1,-9.2,-5.7,-8.0,83.0,70.1,82.6,74.5,83.8,75.5,82.1,76.3,80.5,72.2,80.4,74.0,78.0,70.5,79.5,73.0,1.73,-1.74,0.09,0.11,0.0,76.13,79.49,74.77,70.45,174.7,27.6,1.823019473291495,11.523254750063598,100.46837731388572,-28.80813680403106,-54.01525718327406,1,3
212,10.55,383.4,44.05367041702395,-78.67956386136082,-119.7,-105.8,99.2,64.2,5491.5,5492.0,96.6,1.0,1.0,1.0,0.0,1.0,1.0,0.0,0.0,0.0,100.0,1.0,1.186,26.0,0.0,-0.006,50.194,66.0,100.0,26.0,26.0,26.0,26.0,-0.61,-1.52,-0.09,386.1,-1.9,-2.34,-1.65,-2.02,-473.47,584.04,5.6,0.0,0.0,0.0,0.0,0.22,-7.49,-7.49,-1.06,-2.46,0.92,0.92,26.78,-0.48,-0.48,10.43,100.0,0.0,0.0,71.33,0.0,0.0,0.0,0.0,0.0,0.0,0.0,4782.0,0.0,30.0,3.0,96.6,0.0,0.0,0.0,0.0,0.0,0.0,1.0,0.0,10.587,10.587,50.194,17.865,0.0,110.0,435.8,8750.0,0.0,0.0,110.0,110.0,433.0,0.0,0.0,0.0,1.0,333.3,69.9,69.9,80.5,80.5,34.0,6.5,1.2,-80.1,-1.6,3.0,-194.915,32.8,100.0,26.5,19.1,30.1,18.7,0.0,1.0,0.0,0.0,0.0,0.0,0.0,5472.0,2619.0,5244.0,2250.0,311.3,318.2,341.9,349.2,25.12,23.06,26.06,24.76,325.0,325.0,355.0,355.0,100.0,99.9,100.0,100.0,-2.37,-2.37,-1.76,-1.5,-10.7,-17.0,-2.7,-8.4,83.0,70.1,82.6,74.5,83.9,75.5,82.1,76.3,80.6,72.2,80.4,74.0,78.0,70.6,79.5,73.0,1.86,-1.9,0.08,0.1,0.0,78.61,70.52,74.0,68.66,174.7,27.6,1.6403048497154424,9.72274619625526,94.70674995307951,-32.4091540823548,-79.22237613995748,1,3
213,10.6,384.7,44.05367149620988,-78.67955252990858,57.5,51.6,-59.1,-51.4,5492.8,5493.0,94.0,0.0,1.0,1.0,0.0,1.0,1.0,0.0,0.0,0.0,100.0,1.0,1.186,26.0,0.0,-0.006,50.194,66.0,100.0,26.0,26.0,26.0,26.0,-0.59,-1.45,-0.02,386.5,-2.19,-2.45,-0.84,-1.42,-472.21,584.16,5.6,0.0,0.0,0.0,0.0,0.22,-7.49,-7.49,-1.24,-2.39,0.94,1.8,26.04,-0.4,-0.58,10.69,100.0,0.0,0.0,67.57,0.0,0.0,0.0,0.0,0.0,0.0,0.0,4530.0,0.0,30.0,3.0,94.0,1.0,0.0,0.0,0.0,0.0,0.0,1.0,0.0,10.634,10.634,50.194,17.865,1.0,110.0,435.8,8750.0,0.0,0.0,110.0,110.0,433.0,0.0,0.0,0.0,1.0,333.3,61.9,61.9,89.9,89.9,34.0,0.2,3.53,-28.4,0.1,3.0,-194.965,36.3,100.0,29.4,21.7,27.1,16.1,0.0,1.0,0.0,0.0,0.0,0.0,0.0,7284.0,4513.0,2684.0,476.0,306.5,313.0,348.4,354.1,25.12,23.06,26.06,24.76,325.0,325.0,355.0,355.0,100.0,99.9,100.0,100.0,-2.48,-2.34,-1.52,-1.42,-8.8,-11.2,-3.0,-11.5,83.0,70.1,82.6,74.5,83.9,75.6,82.1,76.2,80.6,72.2,80.4,74.0,78.1,70.6,79.4,72.9,2.06,-2.1,0.09,0.09,0.0,73.59,74.78,71.68,63.46,174.7,27.6,1.5655669899432603,8.282339341828118,92.54613969988998,-21.60610281640715,-18.005085538083136,1,3
214,10.65,385.9,44.05367248546364,-78.67954074879555,-19.4,-26.1,-148.7,-68.3,5494.1,5494.0,91.5,1.0,1.0,1.0,0.0,1.0,1.0,0.0,0.0,0.0,100.0,1.0,1.186,26.0,0.0,0.006,50.194,66.0,87.4,26.0,26.0,26.0,26.0,-0.42,-1.09,-0.42,392.9,-3.15,-2.42,-0.54,-1.19,-470.9,584.27,5.6,0.0,0.0,0.0,0.0,0.23,-7.49,-7.49,-1.26,0.83,1.14,6.05,25.37,-0.38,-0.5,11.65,100.0,0.0,0.0,64.08,0.0,0.0,0.0,0.0,0.0,0.0,0.0,4978.0,0.0,30.0,0.0,91.5,0.0,0.0,0.0,0.0,0.0,0.0,1.0,0.0,10.686,10.686,50.194,17.865,0.0,110.0,435.8,8750.0,0.0,0.0,110.0,110.0,433.0,0.0,0.0,0.0,1.0,333.3,68.9,68.9,100.6,100.6,34.0,-55.6,1.24,0.3,0.2,3.0,-195.015,40.1,100.0,28.4,20.4,19.7,12.7,0.0,1.0,50.0,0.0,0.0,0.0,0.0,5497.0,1763.0,1861.0,685.0,311.3,320.1,350.7,353.3,25.12,23.06,26.05,24.76,325.0,325.0,355.0,355.0,100.0,99.9,100.0,100.0,-2.64,-2.68,-1.61,-1.48,-4.1,-11.6,-9.5,-12.7,83.0,70.1,82.6,74.5,84.0,75.6,82.1,76.2,80.7,72.3,80.4,74.0,78.2,70.7,79.4,72.9,2.26,-2.33,0.1,0.11,0.0,74.67,70.61,64.98,63.17,174.7,27.6,1.241329931968129,7.562135914614545,92.9062413992712,-21.606102531895324,-43.212205063790634,1,3
215,10.7,387.2,44.05367338478525,-78.67952932741115,-111.6,-35.3,6.5,109.7,5495.3,5495.0,89.3,0.0,1.0,1.0,0.0,1.0,1.0,0.0,0.0,0.0,100.0,1.0,1.186,26.0,0.0,0.015,50.194,66.0,52.7,26.0,26.0,26.0,26.0,-0.9,-0.93,-0.12,390.9,-2.03,-2.62,-1.08,-1.17,-469.63,584.37,5.5,0.0,0.0,0.0,0.0,0.23,-7.49,-7.49,-1.3,-2.07,1.22,-3.76,24.77,-0.32,-0.41,12.77,100.0,0.0,0.0,68.3,0.0,0.0,0.0,0.0,0.0,0.0,0.0,6075.0,0.0,30.0,0.0,89.3,1.0,0.0,0.0,0.0,0.0,0.0,1.0,0.0,10.737,10.737,50.194,17.865,1.0,110.0,435.8,8750.0,0.0,0.0,110.0,110.0,433.0,0.0,0.0,0.0,1.0,333.3,73.0,73.0,90.4,90.4,34.0,-53.9,1.53,-69.3,-14.1,3.0,-195.065,45.4,100.0,22.8,18.7,20.0,18.2,0.0,1.0,27.3,0.0,0.0,0.0,0.0,4620.0,2308.0,4409.0,1882.0,313.1,318.6,344.3,350.6,25.12,23.06,26.05,24.76,325.0,325.0,355.0,355.0,100.0,99.9,100.0,100.0,-2.63,-2.64,-1.59,-1.34,-3.4,-10.3,-1.5,-2.6,83.0,70.1,82.6,74.5,84.0,75.6,82.1,76.2,80.7,72.3,80.4,73.9,78.2,70.7,79.4,72.9,2.56,-2.63,0.1,0.09,0.0,73.38,67.27,69.41,67.2,174.7,27.6,1.2997307413460681,6.121729088638586,88.22491919351091,-32.40915379784296,-57.61627360806216,1,3
216,10.75,388.4,44.053674014310374,-78.6795187154162,14.9,-29.2,134.3,-48.2,5496.6,5497.0,87.9,0.0,1.0,1.0,0.0,1.0,1.0,0.0,0.0,0.0,100.0,1.0,1.186,26.0,0.0,0.024,50.194,66.0,29.5,26.0,26.0,26.0,26.0,-1.0,-0.8,-0.06,389.2,-3.06,-2.46,-0.54,-1.62,-468.45,584.44,5.5,0.0,0.0,0.0,0.0,0.23,-7.49,-7.49,-1.5,-4.06,0.97,-5.2,24.4,-0.19,-0.44,16.21,100.0,0.0,0.0,67.48,0.0,0.0,0.0,0.0,0.0,0.0,0.0,6176.0,0.0,30.0,0.0,87.9,0.0,0.0,0.0,0.0,0.0,0.0,1.0,0.0,10.784,10.784,50.194,17.865,0.0,110.0,435.8,8750.0,0.0,0.0,110.0,110.0,433.0,0.0,0.0,0.0,1.0,333.3,69.3,69.3,88.0,88.0,34.0,-112.1,-27.6,-48.1,-4.3,3.0,-195.115,50.2,100.0,23.6,17.2,26.8,15.8,0.0,1.0,0.0,0.0,0.0,0.0,0.0,6647.0,3624.0,3408.0,727.0,308.6,315.3,346.4,352.7,25.11,23.06,26.05,24.76,325.0,325.0,355.0,355.0,100.0,99.9,100.0,100.0,-2.52,-2.39,-1.36,-1.18,-1.7,-4.5,-0.9,-2.1,83.0,70.1,82.6,74.5,84.0,75.6,82.0,76.2,80.7,72.3,80.4,73.9,78.2,70.7,79.4,72.9,2.84,-2.93,0.09,0.1,0.0,74.36,72.75,68.52,66.45,174.7,27.6,1.2820296408429877,4.321220534830248,87.14461403846498,-36.010171076166756,3.6010164247883836,1,3
217,10.8,389.6,44.05367446397118,-78.67950756382828,145.0,28.9,-10.8,-79.2,5497.8,5498.0,86.9,0.0,1.0,1.0,0.0,1.0,1.0,0.0,0.0,0.0,100.0,1.0,1.186,26.0,0.0,0.024,50.194,66.0,28.2,26.0,26.0,26.0,26.0,-1.09,-0.46,0.08,387.2,-3.11,-3.27,-0.6,-2.13,-467.21,584.49,5.5,0.0,0.0,0.0,0.0,0.23,-7.49,-7.49,-1.53,2.67,0.77,-2.05,24.13,-0.12,-0.45,23.97,100.0,0.0,0.0,67.41,0.0,0.0,0.0,0.0,0.0,0.0,0.0,5793.0,0.0,30.0,2.0,86.9,1.0,0.0,0.0,0.0,0.0,0.0,1.0,0.0,10.836,10.836,50.194,17.865,1.0,110.0,435.8,8750.0,0.0,0.0,110.0,110.0,433.0,0.0,0.0,0.0,1.0,333.3,65.4,65.4,90.5,90.5,34.0,-132.9,-27.99,-75.9,-10.6,3.0,-195.165,53.5,100.0,30.8,18.6,26.2,11.8,0.0,1.0,0.0,0.0,0.0,0.0,0.0,7019.0,2776.0,4617.0,1253.0,307.0,317.4,343.9,351.7,25.11,23.06,26.05,24.76,325.0,325.0,355.0,355.0,100.0,99.9,100.0,100.0,-2.03,-1.95,-1.62,-1.45,-1.3,-2.2,-0.8,0.3,83.0,70.1,82.6,74.5,84.1,75.6,82.0,76.1,80.8,72.3,80.3,73.9,78.2,70.7,79.4,72.8,3.03,-3.13,0.1,0.11,0.0,74.37,71.64,68.37,66.44,174.7,27.6,1.1857908753233009,2.52071198102191,88.58502083598975,-39.61118806997869,-25.20712009473101,1,3
218,10.85,390.8,44.0536746438355,-78.6794965921047,35.9,-9.7,17.1,4.1,5499.0,5499.0,85.9,0.0,1.0,1.0,0.0,1.0,1.0,0.0,0.0,0.0,100.0,1.0,1.186,26.0,0.0,0.036,50.194,66.0,28.2,26.0,26.0,26.0,26.0,-1.13,-0.72,-0.01,386.6,-3.6,-2.59,-1.06,-1.71,-465.99,584.51,5.5,0.0,0.0,0.0,0.0,0.23,-7.49,-7.49,-1.29,7.04,0.79,3.25,23.83,-0.15,-0.35,28.33,100.0,0.0,0.0,66.26,0.0,0.0,0.0,0.0,0.0,0.0,0.0,5694.0,0.0,30.0,2.0,85.9,0.0,0.0,0.0,0.0,0.0,0.0,0.0,0.0,10.887,10.887,50.194,17.865,0.0,110.0,435.8,8750.0,0.0,0.0,110.0,110.0,433.0,0.0,0.0,0.0,1.0,333.3,65.9,65.9,89.9,89.9,34.0,-123.4,-21.32,-80.3,-23.6,3.0,-195.215,57.1,100.0,32.6,18.2,27.1,12.0,0.0,1.0,0.0,0.0,0.0,0.0,0.0,6774.0,2456.0,4670.0,2279.0,308.1,318.6,343.5,349.7,25.11,23.06,26.05,24.76,325.0,325.0,355.0,355.0,100.0,99.9,100.0,100.0,-2.05,-2.0,-2.06,-1.9,-1.4,-3.1,-1.4,-2.1,83.0,70.1,82.5,74.5,84.1,75.6,82.0,76.1,80.8,72.3,80.3,73.8,78.2,70.7,79.3,72.8,3.22,-3.35,0.09,0.11,0.0,73.66,70.19,67.57,64.94,174.7,27.6,1.3399253710561643,0.3601017278323786,84.62390202899188,-10.803051550459507,-50.41423905141457,1,3
219,10.9,392.0,44.05367455390334,-78.67948642977055,-57.0,-9.5,147.6,148.8,5500.1,5500.0,84.8,0.0,1.0,1.0,0.0,1.0,1.0,0.0,0.0,0.0,100.0,1.0,1.186,26.0,0.0,0.045,50.194,66.0,28.2,26.0,26.0,26.0,26.0,-1.01,-0.58,-0.02,385.3,-1.46,-2.29,-1.56,-2.12,-464.86,584.5,5.5,0.0,0.0,0.0,0.0,0.23,-7.49,-7.49,-0.99,5.14,0.81,0.42,23.53,-0.15,-0.28,27.83,100.0,0.0,0.0,65.54,0.0,0.0,0.0,0.0,0.0,0.0,0.0,5633.0,0.0,30.0,2.0,84.8,1.0,0.0,0.0,0.0,0.0,0.0,0.0,0.0,10.936,10.936,50.194,17.865,1.0,110.0,435.8,8750.0,0.0,0.0,110.0,110.0,433.0,0.0,0.0,0.0,1.0,333.3,71.4,71.4,79.2,79.2,34.0,-74.1,-12.87,-90.2,-24.2,3.0,-195.265,62.0,100.0,29.8,17.7,34.4,19.5,0.0,1.0,0.0,0.0,0.0,0.0,0.0,4591.0,1692.0,5037.0,2168.0,313.2,320.6,342.9,349.5,25.11,23.06,26.05,24.76,325.0,325.0,355.0,355.0,100.0,99.9,100.0,100.0,-2.17,-2.21,-2.04,-1.89,-1.6,-3.6,-1.2,-1.3,82.9,70.1,82.5,74.5,84.1,75.6,82.0,76.1,80.8,72.3,80.3,73.8,78.2,70.6,79.3,72.8,3.5,-3.62,0.08,0.1,0.0,72.26,68.44,66.66,64.43,174.7,27.6,1.1648605066702193,1.440406825975959,83.5435969308483,32.409153797842976,7.20203455664759,1,3
220,10.95,393.1,44.05367428410686,-78.67947572784344,-52.5,-12.6,105.9,24.2,5501.3,5501.0,83.6,0.0,1.0,1.0,0.0,1.0,1.0,0.0,0.0,0.0,100.0,1.0,1.186,26.0,0.0,0.051,50.194,66.0,29.5,26.0,26.0,26.0,26.0,-1.17,-0.54,0.11,383.6,-2.13,-2.79,-1.07,-2.67,-463.67,584.47,5.5,0.0,0.0,0.0,0.0,0.23,-7.49,-7.49,-0.86,0.87,0.63,-4.13,23.21,-0.1,-0.28,26.57,100.0,0.0,0.0,64.68,0.0,0.0,0.0,0.0,0.0,0.0,0.0,5559.0,0.0,30.0,2.0,83.6,0.0,0.0,0.0,0.0,0.0,0.0,0.0,0.0,10.986,10.986,50.194,17.865,0.0,110.0,435.8,8750.0,0.0,0.0,110.0,110.0,433.0,0.0,0.0,0.0,1.0,333.3,73.9,73.9,69.5,69.5,34.0,-77.6,-3.56,-143.6,-20.5,3.0,-195.315,68.6,100.0,27.1,17.1,39.7,20.7,0.0,1.0,0.0,0.0,0.0,0.0,0.0,4806.0,619.0,7083.0,2030.0,312.7,322.9,337.3,349.6,25.11,23.06,26.04,24.76,325.0,325.0,355.0,355.0,100.0,99.9,100.0,100.0,-2.41,-2.55,-1.88,-1.72,-1.7,-4.2,-0.8,-1.1,82.9,70.1,82.5,74.5,84.1,75.6,82.0,76.0,80.8,72.2,80.3,73.8,78.2,70.6,79.3,72.8,3.86,-4.0,0.06,0.07,0.0,71.13,66.0,65.86,63.51,174.7,27.6,1.293290377293514,3.6010171076166766,85.34410548465664,39.61118863900239,-18.00508553808328,1,3
221,11.0,394.3,44.053673654581736,-78.67946511584849,-91.6,-111.0,37.9,-19.6,5502.4,5502.0,82.6,0.0,1.0,1.0,0.0,1.0,1.0,0.0,0.0,0.0,100.0,1.0,1.186,26.0,0.0,0.051,50.194,66.0,29.5,26.0,26.0,26.0,26.0,-1.14,-0.61,-0.02,386.2,-2.05,-1.04,-1.04,-2.17,-462.49,584.4,5.5,0.0,0.0,0.0,0.0,0.23,-7.49,-7.49,-1.05,-6.55,0.67,4.62,22.93,-0.09,-0.29,23.37,100.0,0.0,0.0,63.56,0.0,0.0,0.0,0.0,0.0,0.0,0.0,5462.0,0.0,30.0,2.0,82.6,1.0,0.0,0.0,0.0,0.0,0.0,0.0,0.0,11.037,11.037,50.194,17.865,1.0,110.0,435.8,8750.0,0.0,0.0,110.0,110.0,433.0,0.0,0.0,0.0,1.0,333.3,75.8,75.8,77.3,77.3,34.0,-110.6,0.44,-82.9,-18.6,3.0,-195.37,74.7,100.0,22.6,11.5,41.6,19.7,0.0,1.0,0.0,0.0,0.0,0.0,0.0,7380.0,716.0,4665.0,1881.0,306.9,323.1,342.9,350.1,25.11,23.06,26.04,24.75,325.0,325.0,355.0,355.0,100.0,99.9,100.0,100.0,-3.2,-3.28,-1.75,-1.63,-1.7,-9.3,-1.0,-1.2,82.9,70.1,82.5,74.5,84.1,75.5,82.0,76.0,80.8,72.2,80.3,73.8,78.2,70.6,79.3,72.7,4.22,-4.41,0.05,0.09,0.0,70.31,62.04,64.52,62.59,174.7,27.6,1.2930970574554719,5.401525689876198,81.74308837703997,36.010171076166756,-50.414239620438224,1,3
222,11.05,395.4,44.053672935124446,-78.67945531324298,234.5,205.8,-173.9,4.8,5503.6,5504.0,81.4,0.0,1.0,1.0,0.0,1.0,1.0,0.0,0.0,0.0,100.0,1.0,1.186,26.0,0.0,0.057,50.194,66.0,29.5,26.0,26.0,26.0,26.0,-1.41,-0.65,0.41,380.6,-2.63,-3.35,-1.23,-2.27,-461.4,584.32,5.5,0.0,0.0,0.0,0.0,0.23,-7.49,-7.49,-1.3,-2.24,0.91,0.54,22.59,0.01,-0.46,31.09,100.0,0.0,0.0,62.75,0.0,0.0,0.0,0.0,0.0,0.0,0.0,5393.0,0.0,30.0,2.0,81.4,0.0,0.0,0.0,0.0,0.0,0.0,0.0,0.0,11.084,11.084,50.194,17.865,0.0,110.0,435.8,8750.0,0.0,0.0,110.0,110.0,433.0,0.0,0.0,0.0,1.0,333.3,60.0,60.0,86.5,86.5,34.0,-133.2,-40.75,-56.4,-34.3,3.0,-195.415,79.8,100.0,34.3,21.8,32.9,19.9,0.0,1.0,0.0,0.0,0.0,0.0,0.0,7697.0,3412.0,3450.0,2865.0,305.4,315.6,345.9,347.5,25.11,23.06,26.04,24.75,325.0,325.0,355.0,355.0,100.0,99.9,100.0,100.0,-2.84,-2.73,-1.92,-1.79,-1.5,-2.2,-1.3,-1.0,82.9,70.1,82.5,74.5,84.1,75.5,82.0,76.0,80.8,72.2,80.3,73.7,78.2,70.6,79.3,72.7,4.49,-4.67,0.08,0.09,0.0,69.67,66.3,63.7,61.8,174.7,27.6,1.6058331171077522,7.202034215233352,80.30268152261282,43.21220477927877,-3.6010169938120384,1,3
223,11.1,396.5,44.053671855938525,-78.67944506097668,26.0,83.5,-134.9,-151.4,5504.7,5505.0,80.3,0.0,1.0,1.0,0.0,1.0,1.0,0.0,0.0,0.0,100.0,1.0,1.186,26.0,0.0,0.06,50.194,66.0,26.8,26.0,26.0,26.0,26.0,-0.99,-0.51,-0.11,386.5,-2.61,-3.36,-1.04,-1.82,-460.26,584.2,5.5,0.0,0.0,0.0,0.0,0.23,-7.49,-7.49,-1.19,7.98,0.51,-9.68,22.27,-0.12,-0.48,40.84,100.0,0.0,0.0,61.12,0.0,0.0,0.0,0.0,0.0,0.0,0.0,5253.0,0.0,30.0,2.0,80.3,1.0,0.0,0.0,0.0,0.0,0.0,0.0,0.0,11.136,11.136,50.194,17.865,1.0,110.0,435.8,8750.0,0.0,0.0,110.0,110.0,433.0,0.0,0.0,0.0,1.0,333.3,60.4,60.4,93.6,93.6,34.0,-133.6,-19.02,-45.0,-0.2,3.0,-195.465,81.2,100.0,35.6,26.0,26.2,12.4,0.0,1.0,0.0,0.0,0.0,0.0,0.0,7161.0,2008.0,3058.0,67.0,306.8,319.4,347.5,354.8,25.11,23.06,26.04,24.75,325.0,325.0,355.0,355.0,100.0,99.9,100.0,100.0,-2.29,-2.31,-2.46,-2.5,-1.3,-2.6,-1.6,-4.2,82.9,70.1,82.5,74.5,84.1,75.5,81.9,75.9,80.8,72.2,80.2,73.7,78.3,70.6,79.3,72.7,4.6,-4.8,0.08,0.11,0.0,69.73,64.65,63.88,58.35,174.7,27.6,1.1190621073023606,9.722746167804075,81.38298667765876,46.813222626626235,-3.6010169938118963,1,3
224,11.15,397.6,44.05367050695612,-78.67943498857468,-95.7,-184.2,272.0,-106.7,5505.8,5506.0,79.4,0.0,1.0,1.0,0.0,1.0,1.0,0.0,0.0,0.0,100.0,1.0,1.186,26.0,0.0,0.06,50.194,66.0,7.4,26.0,26.0,26.0,26.0,-1.32,-0.56,-0.01,386.2,-1.96,-2.5,-0.04,-1.86,-459.14,584.05,5.5,0.0,0.0,0.0,0.0,0.23,-7.49,-7.49,-0.7,9.31,0.37,6.43,22.04,-0.33,-0.24,41.03,100.0,0.0,0.0,60.03,0.0,0.0,0.0,0.0,0.0,0.0,0.0,5159.0,0.0,30.0,2.0,79.4,0.0,0.0,0.0,0.0,0.0,0.0,0.0,0.0,11.187,11.187,50.194,17.865,0.0,110.0,435.8,8750.0,0.0,0.0,110.0,110.0,433.0,0.0,0.0,0.0,1.0,333.3,72.8,72.8,71.2,71.2,34.0,-72.8,-7.34,-109.7,-14.4,3.0,-195.515,79.6,100.0,30.8,16.8,39.8,7.0,0.0,1.0,0.0,0.0,0.0,0.0,0.0,4481.0,883.0,6872.0,2618.0,313.4,322.6,337.9,348.4,25.11,23.06,26.04,24.75,325.0,325.0,355.0,355.0,100.0,99.9,100.0,100.0,-2.81,-2.94,-3.44,-2.51,-0.5,-2.3,-1.4,-5.4,82.9,70.1,82.5,74.4,84.1,75.5,82.0,75.9,80.8,72.2,80.3,73.6,78.3,70.6,79.3,72.6,4.53,-4.74,0.06,0.11,0.0,69.45,64.93,62.25,57.81,174.7,27.6,1.4339107364128356,11.883356477895976,79.94257982323163,39.61118863900241,-46.81322262662604,1,3
225,11.2,398.7,44.05366888817722,-78.67942509603702,-210.3,-147.8,82.9,347.2,5506.9,5507.0,78.8,0.0,1.0,1.0,0.0,1.0,1.0,0.0,0.0,0.0,100.0,1.0,1.186,26.0,0.0,0.06,50.194,66.0,0.0,26.0,26.0,26.0,26.0,-1.32,-0.14,-0.08,386.3,-1.99,-2.31,-0.98,-2.73,-458.04,583.87,5.5,0.0,0.0,0.0,0.0,0.23,-7.49,-7.49,-0.52,-0.97,0.6,1.31,21.89,-0.37,-0.13,31.74,100.0,0.0,0.0,61.3,0.0,0.0,0.0,0.0,0.0,0.0,0.0,5268.0,0.0,30.0,2.0,78.8,1.0,0.0,0.0,0.0,0.0,0.0,0.0,0.0,11.238,11.238,50.194,17.865,1.0,110.0,435.8,8750.0,0.0,0.0,110.0,110.0,433.0,0.0,0.0,0.0,1.0,166.7,84.6,84.6,67.8,67.8,34.0,-35.4,-0.64,-98.5,-74.1,3.0,-195.565,78.1,100.0,20.3,9.4,43.9,24.4,0.0,1.0,0.0,0.0,0.0,0.0,0.0,2868.0,122.0,5765.0,4647.0,317.4,324.6,340.7,343.1,25.1,23.06,26.04,24.75,325.0,325.0,355.0,355.0,100.0,99.9,100.0,100.0,-3.41,-3.6,-3.13,-3.03,0.0,-0.4,-0.5,-0.1,82.9,70.1,82.5,74.4,84.1,75.5,82.0,75.9,80.8,72.1,80.3,73.6,78.3,70.5,79.3,72.6,4.46,-4.67,0.05,0.08,0.0,68.54,65.47,62.63,59.97,174.7,27.6,1.3298120167903433,13.683865031704316,76.70166441499616,39.61118778546685,-39.61118806997874,1,3
189,9.4,359.3,44.05363003748385,-78.67977205431258,46.5,13.2,52.3,73.5,7189.4,7189.0,147.5,0.0,1.0,1.0,0.0,1.0,1.0,0.0,0.0,0.0,100.0,1.0,1.186,26.0,0.0,-0.426,48.272,66.0,75.7,26.0,26.0,26.0,26.0,-0.54,-1.43,0.34,374.6,-2.05,-2.16,-0.88,-1.91,-496.62,579.55,5.6,0.0,0.0,0.0,0.0,0.21,-7.49,-7.49,-0.61,0.86,1.21,2.36,40.93,-0.25,-0.69,8.48,100.0,0.0,0.0,112.88,0.0,0.0,0.0,0.0,0.0,0.0,0.0,7567.0,0.0,30.0,3.0,147.5,0.0,0.0,0.0,0.0,0.0,0.0,1.0,0.0,9.414,9.414,48.272,17.725,0.0,110.0,435.8,8750.0,0.0,0.0,110.0,110.0,433.0,0.0,0.0,0.0,1.0,333.3,56.1,56.1,71.9,71.9,34.0,-59.1,-13.73,-37.8,-9.7,4.0,-242.015,11.4,100.0,35.2,28.0,38.4,30.8,0.0,1.0,0.0,0.0,0.0,0.0,0.0,6060.0,5368.0,3934.0,3234.0,309.1,310.7,344.7,346.0,25.34,22.87,26.46,24.83,325.0,325.0,355.0,355.0,99.98,100.0,99.98,100.0,-0.77,-0.66,-0.72,-0.58,-2.9,-4.4,-1.8,-1.8,84.4,68.9,85.1,74.9,84.8,74.1,85.2,77.5,81.7,71.0,83.7,75.3,79.1,69.4,82.6,74.2,0.67,-0.64,0.07,0.08,0.0,121.89,120.12,112.97,112.78,174.7,27.6,1.5659182609574485,42.49200189263772,148.72200656732963,-25.20712009473087,-36.010171645190496,1,3
190,9.45,361.3,44.05363543341348,-78.6797530786267,-189.3,-180.8,-52.6,-66.6,7191.5,7191.0,145.0,0.0,1.0,1.0,0.0,1.0,1.0,0.0,0.0,0.0,100.0,1.0,1.186,26.0,0.0,-0.432,48.272,66.0,90.9,26.0,26.0,26.0,26.0,-0.46,-1.43,-0.12,383.5,-2.98,-2.68,-0.67,-1.79,-494.51,580.15,5.6,0.0,0.0,0.0,0.0,0.21,-7.49,-7.49,-0.73,-5.91,1.26,3.75,40.22,-0.3,-0.71,5.58,100.0,0.0,0.0,109.88,0.0,0.0,0.0,0.0,0.0,0.0,0.0,7366.0,0.0,30.0,3.0,145.0,1.0,0.0,0.0,0.0,0.0,0.0,1.0,0.0,9.468,9.468,48.272,17.725,1.0,110.0,435.8,8750.0,0.0,0.0,110.0,110.0,433.0,0.0,0.0,0.0,1.0,166.7,70.8,70.8,76.2,76.2,34.0,-21.1,-3.94,-47.0,-5.8,4.0,-242.065,13.8,100.0,25.8,18.9,35.8,27.5,0.0,1.0,0.0,0.0,0.0,0.0,0.0,5285.0,2556.0,4730.0,2837.0,311.9,317.7,343.1,348.2,25.34,22.87,26.46,24.83,325.0,325.0,355.0,355.0,99.98,100.0,99.98,100.0,-1.07,-1.03,-0.76,-0.56,-6.4,-6.7,-1.8,-3.4,84.4,68.9,85.1,74.9,84.8,74.2,85.2,77.5,81.7,71.0,83.6,75.2,79.2,69.5,82.6,74.2,0.77,-0.79,0.07,0.08,0.0,115.46,112.95,110.65,109.1,174.7,27.6,1.5069505632236249,38.890984756569864,138.2790569438608,-57.616273892573844,-169.24780383037415,1,3
191,9.5,363.3,44.05363975015719,-78.67973752036292,-104.5,-26.2,-284.0,-137.5,7193.4,7193.0,143.1,1.0,1.0,1.0,0.0,1.0,1.0,0.0,0.0,0.0,100.0,1.0,1.186,26.0,0.0,-0.441,48.272,66.0,100.0,26.0,26.0,26.0,26.0,-0.24,-1.27,-0.67,393.4,-2.64,-1.77,-1.64,-0.74,-492.78,580.63,5.6,0.0,0.0,0.0,0.0,0.21,-7.49,-7.49,-1.11,-8.39,1.49,3.86,39.69,-0.34,-0.8,5.14,100.0,0.0,0.0,103.74,0.0,0.0,0.0,0.0,0.0,0.0,0.0,6954.0,0.0,30.0,3.0,143.1,0.0,0.0,0.0,0.0,0.0,0.0,1.0,0.0,9.513,9.513,48.272,17.725,0.0,110.0,435.8,8750.0,0.0,0.0,110.0,110.0,433.0,0.0,0.0,0.0,1.0,333.3,74.7,74.7,92.0,92.0,34.0,1.7,0.66,-2.6,-2.0,4.0,-242.11,16.1,100.0,20.6,17.6,21.6,20.6,0.0,1.0,0.0,0.0,0.0,0.0,0.0,3291.0,3864.0,1500.0,1706.0,317.1,314.4,351.5,350.9,25.34,22.87,26.46,24.83,325.0,325.0,355.0,355.0,99.98,100.0,99.98,100.0,-1.26,-1.22,-0.75,-0.64,-13.8,-10.2,-6.9,-6.5,84.4,68.9,85.1,74.9,84.9,74.2,85.2,77.5,81.8,71.1,83.6,75.2,79.2,69.5,82.6,74.2,0.9,-0.92,0.1,0.09,0.0,103.12,107.56,103.73,103.73,174.7,27.6,1.4558159224297555,36.73037450338033,131.7972261842922,2.845117563765598e-07,36.010171645190496,1,3
192,9.55,365.3,44.05364460649386,-78.67972016345593,52.9,152.1,-107.0,-176.5,7195.4,7195.0,140.5,0.0,1.0,1.0,0.0,1.0,1.0,0.0,0.0,0.0,100.0,1.0,1.186,26.0,0.0,-0.444,48.272,66.0,100.0,26.0,26.0,26.0,26.0,-0.41,-1.5,-0.14,391.7,-2.69,-1.95,-1.56,-1.5,-490.85,581.17,5.6,0.0,0.0,0.0,0.0,0.21,-7.49,-7.49,-1.47,-4.39,1.5,-3.36,38.98,-0.4,-0.85,8.27,100.0,0.0,0.0,96.26,0.0,0.0,0.0,0.0,0.0,0.0,0.0,6453.0,0.0,30.0,3.0,140.5,1.0,0.0,0.0,0.0,0.0,0.0,1.0,0.0,9.564,9.564,48.272,17.725,1.0,110.0,435.8,8750.0,0.0,0.0,110.0,110.0,433.0,0.0,0.0,0.0,1.0,333.3,62.0,62.0,95.3,95.3,34.0,-20.5,-6.71,0.0,0.0,4.0,-242.165,19.7,100.0,23.2,25.2,16.3,11.8,0.0,1.0,0.0,0.0,0.0,0.0,0.0,6181.0,6390.0,976.0,0.0,309.5,307.8,352.4,355.0,25.34,22.87,26.46,24.83,325.0,325.0,355.0,355.0,99.98,100.0,99.98,100.0,-1.48,-1.28,-0.93,0.0,-7.1,-8.3,-9.4,0.0,84.3,68.9,85.1,74.9,84.9,74.4,85.1,77.4,81.8,71.2,83.6,75.2,79.3,69.6,82.6,74.2,1.11,-1.11,0.11,0.11,0.0,111.36,109.48,99.18,93.34,174.7,27.6,1.5613135495473034,38.89098478502104,141.88007410837986,-21.606102531895317,-3.601016993811754,1,3
193,9.6,367.2,44.053649462830535,-78.67970208709164,323.5,212.2,-29.3,-67.4,7197.3,7197.0,137.2,1.0,1.0,1.0,0.0,1.0,1.0,0.0,0.0,0.0,100.0,1.0,1.186,26.0,0.0,-0.453,48.272,66.0,100.0,26.0,26.0,26.0,26.0,-0.73,-2.06,0.25,380.7,-2.94,-3.04,-0.97,-1.32,-488.84,581.71,5.6,0.0,0.0,0.0,0.0,0.21,-7.49,-7.49,-1.27,11.72,1.05,-10.84,38.03,-0.56,-0.79,17.06,100.0,0.0,0.0,96.16,0.0,0.0,0.0,0.0,0.0,0.0,0.0,6446.0,0.0,30.0,3.0,137.2,0.0,0.0,0.0,0.0,0.0,0.0,0.0,0.0,9.618,9.618,48.272,17.725,0.0,110.0,435.8,8750.0,0.0,0.0,110.0,110.0,433.0,0.0,0.0,0.0,1.0,166.7,45.2,45.2,93.9,93.9,34.0,-107.5,-24.82,1.2,0.8,4.0,-242.215,20.7,100.0,39.4,35.8,14.8,8.4,0.0,1.0,0.0,0.0,0.0,0.0,0.0,9070.0,5929.0,4540.0,2679.0,302.3,308.4,344.4,348.6,25.34,22.87,26.46,24.83,325.0,325.0,355.0,355.0,99.98,100.0,99.98,100.0,-1.41,-1.2,-1.46,-1.15,-4.0,-5.1,-9.8,-12.5,84.3,69.0,85.1,74.9,85.0,74.5,85.1,77.4,81.9,71.3,83.6,75.2,79.4,69.7,82.6,74.2,1.21,-1.17,0.11,0.12,0.0,113.56,109.8,97.58,94.74,174.7,27.6,2.1997727155322204,34.5697642501908,131.43712448491104,-72.0203421523335,-176.44983895604568,1,3
194,9.65,369.0,44.05365323998128,-78.6796873382173,-36.9,-140.9,468.8,264.0,7199.2,7199.0,134.0,0.0,1.0,1.0,0.0,1.0,1.0,0.0,0.0,0.0,100.0,1.0,1.186,26.0,0.0,-0.459,48.272,66.0,100.0,26.0,26.0,26.0,26.0,-0.93,-1.88,0.28,374.8,-2.95,-2.93,-1.18,-2.01,-487.2,582.13,5.6,0.0,0.0,0.0,0.0,0.22,-7.49,-7.49,-0.75,8.87,0.62,-7.59,37.15,-0.71,-0.59,15.93,100.0,0.0,0.0,99.2,0.0,0.0,0.0,0.0,0.0,0.0,0.0,6650.0,0.0,30.0,3.0,134.0,1.0,0.0,0.0,0.0,0.0,0.0,0.0,0.0,9.663,9.663,48.272,17.725,1.0,110.0,435.8,8750.0,0.0,0.0,110.0,110.0,433.0,0.0,0.0,0.0,1.0,333.3,55.9,55.9,69.2,69.2,34.0,-42.7,-1.34,-115.5,-1.9,4.0,-242.26,20.5,100.0,37.5,28.8,38.2,21.6,0.0,1.0,0.0,0.0,0.0,0.0,0.0,7272.0,3791.0,6764.0,3450.0,307.1,314.8,338.4,346.4,25.34,22.87,26.46,24.83,325.0,325.0,355.0,355.0,99.98,100.0,99.98,100.0,-1.65,-1.54,-1.73,-1.45,-6.1,-9.1,-2.2,-8.7,84.3,69.0,85.1,74.9,85.1,74.6,85.2,77.5,82.0,71.3,83.6,75.2,79.4,69.8,82.6,74.2,1.2,-1.19,0.06,0.08,0.0,108.28,101.84,102.74,95.67,174.7,27.6,2.1160576551691594,31.68895056978769,124.23509021277529,-28.808136804031115,-18.00508553808328,1,3
195,9.7,370.9,44.05365737686067,-78.67967106049625,-135.2,-229.2,141.4,108.4,7201.0,7201.0,131.1,1.0,1.0,1.0,0.0,1.0,1.0,0.0,0.0,0.0,100.0,1.0,1.186,26.0,0.0,-0.465,48.272,66.0,100.0,26.0,26.0,26.0,26.0,-0.67,-1.32,-0.15,381.1,-1.61,-2.24,-1.67,-2.32,-485.39,582.59,5.6,0.0,0.0,0.0,0.0,0.22,-7.49,-7.49,-0.58,-1.38,0.52,4.91,36.35,-0.69,-0.56,8.58,100.0,0.0,0.0,98.51,0.0,0.0,0.0,0.0,0.0,0.0,0.0,6604.0,0.0,30.0,3.0,131.1,0.0,0.0,0.0,0.0,0.0,0.0,0.0,0.0,9.714,9.714,48.272,17.725,0.0,110.0,435.8,8750.0,0.0,0.0,110.0,110.0,433.0,0.0,0.0,0.0,1.0,333.3,70.9,70.9,70.4,70.4,34.0,1.6,0.81,-74.6,-12.4,4.0,-242.315,22.0,100.0,30.8,17.3,45.3,27.1,0.0,1.0,0.0,0.0,0.0,0.0,0.0,4886.0,1699.0,4999.0,2598.0,312.2,320.8,342.5,348.7,25.34,22.88,26.46,24.83,325.0,325.0,355.0,355.0,99.98,100.0,99.98,100.0,-2.01,-2.08,-1.54,-1.39,-9.4,-12.4,-2.5,-4.5,84.3,69.0,85.1,74.9,85.2,74.6,85.2,77.5,82.0,71.4,83.6,75.2,79.5,69.8,82.6,74.2,1.26,-1.28,0.04,0.09,0.0,100.49,99.03,99.71,97.31,174.7,27.6,1.4878844041120936,31.68895056978769,129.6366159311027,-25.207120094730904,5.690237969702139e-07,1,3
196,9.75,372.7,44.053661154011415,-78.67965496263949,-154.9,-48.9,-172.0,-18.7,7202.8,7203.0,128.6,0.0,1.0,1.0,0.0,1.0,1.0,0.0,0.0,0.0,100.0,1.0,1.186,26.0,0.0,-0.471,48.272,66.0,100.0,26.0,26.0,26.0,26.0,-0.67,-1.31,-0.14,386.7,-2.71,-2.94,-0.91,-1.98,-483.6,583.01,5.6,0.0,0.0,0.0,0.0,0.22,-7.49,-7.49,-0.9,-9.81,0.9,7.89,35.69,-0.56,-0.65,3.6,100.0,0.0,0.0,96.05,0.0,0.0,0.0,0.0,0.0,0.0,0.0,6439.0,0.0,30.0,3.0,128.6,1.0,0.0,0.0,0.0,0.0,0.0,0.0,0.0,9.764,9.764,48.272,17.725,1.0,110.0,435.8,8750.0,0.0,0.0,110.0,110.0,433.0,0.0,0.0,0.0,1.0,333.3,73.1,73.1,80.8,80.8,34.0,-37.2,-9.73,-21.2,-6.0,4.0,-242.365,28.6,100.0,23.0,14.9,36.7,26.1,0.0,1.0,0.0,0.0,0.0,0.0,0.0,5306.0,3258.0,2357.0,1450.0,312.0,316.1,348.7,350.7,25.33,22.88,26.45,24.83,325.0,325.0,355.0,355.0,99.98,100.0,99.98,100.0,-2.52,-2.44,-1.22,-1.07,-5.2,-6.8,-3.3,-3.8,84.3,69.0,85.1,74.9,85.3,74.6,85.2,77.5,82.1,71.4,83.6,75.2,79.6,69.8,82.6,74.2,1.59,-1.62,0.07,0.08,0.0,106.82,99.15,96.41,95.69,174.7,27.6,1.478039241698271,29.1682385603146,124.23509026967767,-39.611188354490494,-79.22237670898141,1,3
197,9.8,374.4,44.05366466136567,-78.67964003390084,31.7,139.7,-340.3,-212.6,7204.5,7205.0,126.4,0.0,1.0,1.0,0.0,1.0,1.0,0.0,0.0,0.0,100.0,1.0,1.186,26.0,0.0,-0.477,48.272,66.0,100.0,26.0,26.0,26.0,26.0,-0.46,-1.49,-0.12,390.9,-3.03,-2.51,-1.02,-1.47,-481.94,583.4,5.6,0.0,0.0,0.0,0.0,0.22,-7.49,-7.49,-1.33,-6.56,1.13,1.38,35.07,-0.5,-0.75,7.3,100.0,0.0,0.0,89.28,0.0,0.0,0.0,0.0,0.0,0.0,0.0,5985.0,0.0,30.0,3.0,126.4,0.0,0.0,0.0,0.0,0.0,0.0,0.0,0.0,9.813,9.813,48.272,17.725,0.0,110.0,435.8,8750.0,0.0,0.0,110.0,110.0,433.0,0.0,0.0,0.0,1.0,333.3,64.0,64.0,96.9,96.9,34.0,10.0,1.4,-2.0,0.0,4.0,-242.415,37.8,100.0,24.6,21.9,19.7,15.5,0.0,1.0,0.0,0.0,0.0,0.0,0.0,6904.0,4590.0,1496.0,0.0,307.3,312.4,351.0,355.0,25.33,22.88,26.45,24.83,325.0,325.0,355.0,355.0,99.98,100.0,99.98,100.0,-2.74,-2.63,-1.21,0.0,-11.2,-9.5,-7.7,0.0,84.3,69.0,85.1,74.9,85.4,74.7,85.1,77.4,82.2,71.5,83.6,75.2,79.6,69.9,82.6,74.1,2.09,-2.13,0.1,0.1,0.0,95.77,100.52,91.28,87.28,174.7,27.6,1.5640012787718558,27.72783173433864,121.71437826020457,-21.60610224738342,-14.404068544271098,1,3
198,9.85,376.1,44.05366807878778,-78.67962456556921,118.4,100.4,-89.1,-101.1,7206.2,7206.0,123.8,1.0,1.0,1.0,0.0,1.0,1.0,0.0,0.0,0.0,100.0,1.0,1.186,26.0,0.0,-0.483,48.272,66.0,100.0,26.0,26.0,26.0,26.0,-0.52,-1.35,-0.2,389.7,-4.36,-3.01,-1.43,-1.73,-480.22,583.78,5.6,0.0,0.0,0.0,0.0,0.22,-7.49,-7.49,-1.41,1.93,1.04,-4.23,34.32,-0.57,-0.74,14.93,100.0,0.0,0.0,84.76,0.0,0.0,0.0,0.0,0.0,0.0,0.0,5682.0,0.0,30.0,3.0,123.8,1.0,0.0,0.0,0.0,0.0,0.0,0.0,0.0,9.864,9.864,48.272,17.725,1.0,110.0,435.8,8750.0,0.0,0.0,110.0,110.0,433.0,0.0,0.0,0.0,1.0,333.3,57.3,57.3,104.2,104.2,34.0,15.1,4.03,0.5,0.1,4.0,-242.465,46.9,100.0,30.5,26.9,15.2,10.4,0.0,1.0,0.0,0.0,0.0,0.0,0.0,8417.0,4496.0,1061.0,453.0,304.6,313.0,352.8,354.0,25.33,22.88,26.45,24.83,325.0,325.0,355.0,355.0,99.98,100.0,99.98,100.0,-3.09,-2.88,-1.57,-1.35,-10.1,-11.5,-10.6,-13.9,84.3,69.0,85.1,74.9,85.5,74.8,85.1,77.4,82.3,71.6,83.6,75.2,79.8,70.0,82.5,74.1,2.63,-2.67,0.13,0.11,0.0,95.74,91.46,85.89,83.62,174.7,27.6,1.4604451376207188,27.007628335576257,122.79468341525056,-32.40915408235484,-46.81322205760267,1,3
199,9.9,377.8,44.05367140627772,-78.67960936703408,104.8,-79.6,224.3,116.2,7207.9,7208.0,120.6,1.0,1.0,1.0,0.0,1.0,1.0,0.0,0.0,0.0,100.0,1.0,1.186,26.0,0.0,-0.489,48.272,66.0,100.0,26.0,26.0,26.0,26.0,-0.85,-1.62,0.08,384.0,-2.35,-3.05,-1.73,-1.64,-478.53,584.15,5.6,0.0,0.0,0.0,0.0,0.22,-7.49,-7.49,-1.24,2.65,0.88,1.01,33.45,-0.66,-0.66,16.13,100.0,0.0,0.0,88.62,0.0,0.0,0.0,0.0,0.0,0.0,0.0,5941.0,0.0,30.0,3.0,120.6,0.0,0.0,0.0,0.0,0.0,0.0,0.0,0.0,9.914,9.914,48.272,17.725,0.0,110.0,435.8,8750.0,0.0,0.0,110.0,110.0,433.0,0.0,0.0,0.0,1.0,333.3,61.0,61.0,91.9,91.9,34.0,11.8,2.11,-32.1,-4.5,4.0,-242.515,54.5,100.0,35.8,22.9,26.4,16.3,0.0,1.0,0.0,0.0,0.0,0.0,0.0,6838.0,2690.0,3763.0,2435.0,307.6,317.8,345.6,348.7,25.33,22.88,26.45,24.83,325.0,325.0,355.0,355.0,99.98,100.0,99.98,100.0,-3.54,-3.56,-1.9,-1.63,-9.3,-14.4,-4.8,-7.3,84.3,69.0,85.1,74.9,85.7,74.9,85.1,77.4,82.5,71.7,83.6,75.2,79.9,70.1,82.6,74.1,3.06,-3.15,0.09,0.09,0.0,93.35,84.97,90.49,86.75,174.7,27.6,1.83120179117431,24.486916326103156,117.0330560544443,-50.41423990495009,-82.82339370279331,1,3
200,9.95,379.4,44.0536741941747,-78.67959533761702,-73.1,-14.4,63.5,43.6,7209.6,7210.0,118.0,1.0,1.0,1.0,0.0,1.0,1.0,0.0,0.0,0.0,100.0,1.0,1.186,26.0,0.0,-0.495,48.272,66.0,100.0,26.0,26.0,26.0,26.0,-0.99,-1.7,0.21,382.2,-2.7,-2.75,-0.85,-1.93,-476.97,584.46,5.6,0.0,0.0,0.0,0.0,0.22,-7.49,-7.49,-1.19,0.02,0.89,-0.21,32.72,-0.69,-0.62,15.84,100.0,0.0,0.0,87.11,0.0,0.0,0.0,0.0,0.0,0.0,0.0,5840.0,0.0,30.0,3.0,118.0,1.0,0.0,0.0,0.0,0.0,0.0,0.0,0.0,9.963,9.963,48.272,17.725,1.0,110.0,435.8,8750.0,0.0,0.0,110.0,110.0,433.0,0.0,0.0,0.0,1.0,333.3,60.9,60.9,82.9,82.9,34.0,12.4,5.64,-62.7,-3.2,4.0,-242.565,61.4,100.0,32.1,22.2,29.6,18.4,0.0,1.0,0.0,0.0,0.0,0.0,0.0,6709.0,4747.0,4591.0,2133.0,308.1,312.4,343.6,349.2,25.33,22.88,26.45,24.82,325.0,325.0,355.0,355.0,99.98,100.0,99.98,100.0,-4.02,-4.0,-1.99,-1.75,-11.1,-12.2,-3.0,-7.6,84.3,69.0,85.1,74.9,85.8,75.0,85.1,77.4,82.6,71.7,83.6,75.2,80.0,70.2,82.6,74.1,3.45,-3.56,0.09,0.11,0.0,89.29,86.2,89.74,84.49,174.7,27.6,1.978433723934163,21.96620434508125,114.51234404497123,-36.01017079165491,-14.404069113294895,1,3
201,10.0,381.0,44.053676892139514,-78.67958076860701,5.4,74.1,34.4,-100.0,7211.2,7211.0,115.3,1.0,1.0,1.0,0.0,1.0,1.0,0.0,0.0,0.0,100.0,1.0,1.186,26.0,0.0,-0.504,48.272,66.0,100.0,26.0,26.0,26.0,26.0,-0.7,-1.37,-0.11,385.1,-2.98,-3.13,-1.34,-1.95,-475.35,584.76,5.6,0.0,0.0,0.0,0.0,0.22,-7.49,-7.49,-1.17,2.08,0.82,0.56,31.98,-0.69,-0.66,17.59,100.0,0.0,0.0,83.08,0.0,0.0,0.0,0.0,0.0,0.0,0.0,5569.0,0.0,30.0,3.0,115.3,0.0,0.0,0.0,0.0,0.0,0.0,0.0,0.0,10.014,10.014,48.272,17.725,0.0,110.0,435.8,8750.0,0.0,0.0,110.0,110.0,433.0,0.0,0.0,0.0,1.0,333.3,61.2,61.2,84.8,84.8,34.0,10.9,4.63,-19.0,0.0,4.0,-242.615,69.2,100.0,32.4,25.9,31.3,13.4,0.0,1.0,0.0,0.0,0.0,0.0,0.0,6299.0,3337.0,3154.0,1002.0,309.0,315.8,347.8,352.6,25.33,22.88,26.45,24.82,325.0,325.0,355.0,355.0,99.98,100.0,99.98,100.0,-4.39,-4.44,-2.02,-1.89,-12.9,-9.6,-5.4,-9.4,84.3,69.0,85.1,74.9,86.0,75.1,85.1,77.4,82.8,71.9,83.6,75.1,80.1,70.3,82.6,74.1,3.88,-4.0,0.08,0.1,0.0,90.17,90.41,85.8,80.35,174.7,27.6,1.542400726140908,20.885899246937665,115.59264914311481,-36.01017079165498,-46.81322205760267,1,3
202,10.05,382.6,44.053679410240015,-78.67956646939348,13.9,-107.2,-35.5,89.4,7212.7,7213.0,112.6,0.0,1.0,1.0,0.0,1.0,1.0,0.0,0.0,0.0,100.0,1.0,1.186,26.0,0.0,-0.507,48.272,66.0,100.0,26.0,26.0,26.0,26.0,-0.99,-1.48,0.0,384.1,-2.32,-3.2,-0.7,-1.99,-473.76,585.04,5.6,0.0,0.0,0.0,0.0,0.22,-7.49,-7.49,-1.04,1.89,0.83,1.94,31.23,-0.74,-0.58,18.66,100.0,0.0,0.0,82.98,0.0,0.0,0.0,0.0,0.0,0.0,0.0,5563.0,0.0,30.0,3.0,112.6,1.0,0.0,0.0,0.0,0.0,0.0,0.0,0.0,10.064,10.064,48.272,17.725,1.0,110.0,435.8,8750.0,0.0,0.0,110.0,110.0,433.0,0.0,0.0,0.0,1.0,333.3,63.9,63.9,90.2,90.2,34.0,16.8,3.39,-28.1,-9.1,4.0,-242.665,77.1,100.0,33.1,20.5,29.6,17.9,0.0,1.0,0.0,0.0,0.0,0.0,0.0,7232.0,2536.0,3881.0,2638.0,306.9,318.9,345.6,348.0,25.33,22.88,26.45,24.82,325.0,325.0,355.0,355.0,99.98,100.0,99.98,100.0,-4.94,-5.05,-2.25,-2.01,-9.5,-9.4,-5.2,-6.4,84.3,69.0,85.0,74.9,86.1,75.2,85.1,77.4,82.9,71.9,83.6,75.1,80.3,70.3,82.6,74.1,4.33,-4.52,0.08,0.11,0.0,86.58,87.79,84.36,81.6,174.7,27.6,1.7805897899291683,18.36518726591575,109.83102183921096,-46.813222626626256,-82.82339256474572,1,3
203,10.1,384.1,44.05368147867971,-78.67955333929802,-20.8,29.1,-24.4,18.4,7214.3,7214.0,110.1,1.0,1.0,1.0,0.0,1.0,1.0,0.0,0.0,0.0,100.0,1.0,1.186,26.0,0.0,-0.516,48.272,66.0,100.0,26.0,26.0,26.0,26.0,-0.9,-1.42,-0.09,384.6,-2.99,-2.52,-1.24,-2.25,-472.3,585.27,5.6,0.0,0.0,0.0,0.0,0.22,-7.49,-7.49,-1.0,1.36,0.83,-1.76,30.53,-0.77,-0.57,19.99,100.0,0.0,0.0,80.28,0.0,0.0,0.0,0.0,0.0,0.0,0.0,5381.0,0.0,30.0,3.0,110.1,0.0,0.0,0.0,0.0,0.0,0.0,1.0,0.0,10.113,10.113,48.272,17.725,0.0,110.0,435.8,8750.0,0.0,0.0,110.0,110.0,433.0,0.0,0.0,0.0,1.0,333.3,61.8,61.8,88.1,88.1,34.0,12.2,7.54,-28.9,-0.7,4.0,-242.715,84.3,100.0,32.0,22.0,28.3,18.8,0.0,1.0,0.0,0.0,0.0,0.0,0.0,6437.0,4257.0,3157.0,1415.0,308.6,313.6,347.2,351.3,25.33,22.88,26.45,24.82,325.0,325.0,355.0,355.0,99.98,100.0,99.98,100.0,-5.29,-5.39,-2.37,-2.24,-13.5,-7.9,-4.2,-8.5,84.3,69.0,85.0,74.9,86.3,75.3,85.1,77.4,83.1,72.0,83.6,75.1,80.4,70.4,82.6,74.1,4.73,-4.94,0.1,0.09,0.0,80.72,87.88,83.03,77.52,174.7,27.6,1.6835973390332974,16.20457698427504,107.31030988664024,-36.01017136067854,-10.803051550459344,1,3
204,10.15,385.6,44.05368345718724,-78.67953966960961,-5.4,-31.7,85.4,-124.8,7215.8,7216.0,107.8,1.0,1.0,1.0,0.0,1.0,1.0,0.0,0.0,0.0,100.0,1.0,1.186,26.0,0.0,-0.522,48.272,66.0,100.0,26.0,26.0,26.0,26.0,-0.87,-1.05,-0.17,386.8,-2.62,-3.2,-0.81,-2.5,-470.78,585.49,5.6,0.0,0.0,0.0,0.0,0.23,-7.49,-7.49,-0.96,1.08,0.75,5.09,29.9,-0.78,-0.55,18.04,100.0,0.0,0.0,75.44,0.0,0.0,0.0,0.0,0.0,0.0,0.0,5057.0,0.0,30.0,3.0,107.8,1.0,0.0,0.0,0.0,0.0,0.0,1.0,0.0,10.164,10.164,48.272,17.725,1.0,110.0,435.8,8750.0,0.0,0.0,110.0,110.0,433.0,0.0,0.0,0.0,1.0,166.7,69.4,69.4,81.8,81.8,34.0,9.0,0.68,-98.8,0.6,4.0,-242.765,90.9,100.0,31.8,20.4,32.6,12.6,0.0,1.0,0.0,0.0,0.0,0.0,0.0,5070.0,663.0,5781.0,1843.0,311.8,322.7,340.9,350.8,25.33,22.88,26.44,24.82,325.0,325.0,355.0,355.0,99.98,100.0,99.98,100.0,-5.81,-6.09,-2.47,-2.27,-14.8,-12.9,-2.0,-18.9,84.3,69.0,85.0,74.9,86.5,75.4,85.1,77.4,83.2,72.1,83.6,75.1,80.6,70.5,82.6,74.1,5.1,-5.35,0.07,0.1,0.0,81.86,79.68,81.9,68.98,174.7,27.6,1.3741542853697324,14.764170129847896,108.75071668416503,-36.010171076166735,-36.010171645190354,1,3
205,10.2,387.1,44.05368516589829,-78.67952617978553,-243.1,-122.2,-103.2,138.7,7217.2,7217.0,105.7,0.0,1.0,1.0,0.0,1.0,1.0,0.0,0.0,0.0,100.0,1.0,1.186,26.0,0.0,-0.531,48.272,66.0,100.0,26.0,26.0,26.0,26.0,-0.72,-1.21,-0.4,392.0,-2.56,-1.72,-0.78,-1.61,-469.28,585.68,5.6,0.0,0.0,0.0,0.0,0.23,-7.49,-7.49,-1.13,-6.76,1.11,3.07,29.32,-0.85,-0.47,15.61,100.0,0.0,0.0,76.39,0.0,0.0,0.0,0.0,0.0,0.0,0.0,5121.0,0.0,30.0,3.0,105.7,0.0,0.0,0.0,0.0,0.0,0.0,1.0,0.0,10.214,10.214,48.272,17.725,0.0,110.0,435.8,8750.0,0.0,0.0,110.0,110.0,433.0,0.0,0.0,0.0,1.0,333.3,79.1,79.1,85.5,85.5,34.0,7.5,2.92,-10.2,-4.1,4.0,-242.815,98.2,100.0,19.6,14.3,27.4,19.5,0.0,1.0,0.0,0.0,0.0,0.0,0.0,3578.0,2008.0,3608.0,2313.0,316.2,319.7,346.0,348.8,25.33,22.88,26.44,24.82,325.0,325.0,355.0,355.0,99.98,100.0,99.98,100.0,-6.56,-6.73,-2.49,-2.32,-9.8,-11.9,-6.9,-7.5,84.3,69.0,85.0,74.9,86.5,75.4,85.1,77.4,83.3,72.1,83.6,75.1,80.7,70.5,82.6,74.1,5.53,-5.8,0.09,0.1,0.0,83.35,79.65,77.54,75.23,174.7,27.6,1.4637281168304448,12.603559876658366,103.7092927221212,-36.01017079165491,-68.41932515852164,1,3
206,10.25,388.5,44.05368660481286,-78.67951376914736,49.8,92.2,-28.3,-66.8,7218.7,7219.0,103.6,0.0,1.0,1.0,0.0,1.0,1.0,0.0,0.0,0.0,100.0,1.0,1.186,26.0,0.0,-0.54,48.272,66.0,100.0,26.0,26.0,26.0,26.0,-0.94,-0.93,-0.14,391.2,-2.35,-2.22,-0.94,-2.42,-467.9,585.84,5.6,0.0,0.0,0.0,0.0,0.23,-7.49,-7.49,-1.55,-7.81,0.99,-6.38,28.74,-0.84,-0.61,18.36,100.0,0.0,0.0,72.55,0.0,0.0,0.0,0.0,0.0,0.0,0.0,4863.0,0.0,30.0,3.0,103.6,1.0,0.0,0.0,0.0,0.0,0.0,1.0,0.0,10.263,10.263,48.272,17.725,1.0,110.0,435.8,8750.0,0.0,0.0,110.0,110.0,433.0,0.0,0.0,0.0,1.0,333.3,70.0,70.0,89.9,89.9,34.0,14.6,6.35,-18.3,0.0,4.0,-242.865,107.7,100.0,22.1,18.9,26.0,16.2,0.0,1.0,0.0,0.0,0.0,0.0,0.0,6041.0,3540.0,2323.0,0.0,310.0,315.2,349.1,355.0,25.33,22.88,26.44,24.82,325.0,325.0,355.0,355.0,99.98,100.0,99.98,100.0,-6.87,-7.03,-2.51,0.0,-10.3,-11.1,-4.4,0.0,84.3,69.0,85.0,74.9,86.7,75.5,85.1,77.4,83.4,72.2,83.6,75.1,80.8,70.6,82.6,74.1,6.03,-6.36,0.08,0.09,0.0,77.18,74.15,78.06,67.04,174.7,27.6,1.3296992141082133,11.163153050682405,101.90878416831286,-32.40915408235484,-7.202033987623935,1,3
207,10.3,390.0,44.05368795379527,-78.67950072898408,259.5,109.3,-117.7,-224.8,7220.1,7220.0,101.5,1.0,1.0,1.0,0.0,1.0,1.0,0.0,0.0,0.0,100.0,1.0,1.186,26.0,0.0,-0.549,48.272,66.0,100.0,26.0,26.0,26.0,26.0,-1.06,-1.34,0.06,388.2,-3.17,-2.36,-0.39,-1.67,-466.45,585.99,5.6,0.0,0.0,0.0,0.0,0.23,-7.49,-7.49,-1.67,3.33,0.63,-4.76,28.14,-0.91,-0.62,25.32,100.0,0.0,0.0,57.57,0.0,0.0,0.0,0.0,0.0,0.0,0.0,4898.0,0.0,30.0,0.0,101.5,0.0,0.0,0.0,0.0,0.0,0.0,1.0,0.0,10.314,10.314,48.272,17.725,0.0,110.0,435.8,8750.0,0.0,0.0,110.0,110.0,433.0,0.0,0.0,0.0,1.0,333.3,56.2,56.2,97.9,97.9,34.0,19.2,8.39,-15.0,0.0,4.0,-242.915,119.7,100.0,35.1,24.4,20.1,4.9,0.0,1.0,50.0,0.0,0.0,0.0,0.0,8217.0,4652.0,3374.0,0.0,304.4,312.2,347.1,355.0,25.33,22.88,26.44,24.82,325.0,325.0,355.0,355.0,99.98,100.0,99.98,100.0,-7.27,-7.49,-3.05,0.0,-13.9,-13.0,-5.7,0.0,84.3,69.0,85.0,74.9,86.9,75.6,85.1,77.3,83.6,72.3,83.6,75.1,81.0,70.7,82.6,74.0,6.63,-7.04,0.11,0.13,0.0,79.09,71.51,75.88,39.25,174.7,27.6,1.7096198407833247,9.362644468422882,102.98908932335881,-43.21220534830247,-43.21220506379049,1,3
208,10.35,391.3,44.05368894304903,-78.67948804854943,15.2,4.5,111.8,51.8,7221.4,7221.0,99.2,1.0,1.0,1.0,0.0,1.0,1.0,0.0,0.0,0.0,100.0,1.0,1.186,26.0,0.0,-0.555,48.272,66.0,100.0,26.0,26.0,26.0,26.0,-1.19,-1.09,0.03,386.0,-2.17,-3.67,-0.52,-2.22,-465.04,586.1,5.6,0.0,0.0,0.0,0.0,0.23,-7.49,-7.49,-1.34,7.79,0.45,-1.72,27.49,-1.01,-0.5,28.37,100.0,0.0,0.0,59.17,0.0,0.0,0.0,0.0,0.0,0.0,0.0,6020.0,0.0,30.0,0.0,99.2,1.0,0.0,0.0,0.0,0.0,0.0,1.0,0.0,10.366,10.366,48.272,17.725,1.0,110.0,435.8,8750.0,0.0,0.0,110.0,110.0,433.0,0.0,0.0,0.0,1.0,333.3,61.0,61.0,90.0,90.0,34.0,18.1,3.04,-39.6,0.2,4.0,-242.965,132.6,100.0,35.8,24.6,25.7,7.5,0.0,1.0,30.0,0.0,0.0,0.0,0.0,6589.0,2457.0,4627.0,1135.0,308.2,317.9,343.6,351.9,25.33,22.89,26.44,24.82,325.0,325.0,355.0,355.0,99.98,100.0,99.98,100.0,-8.06,-8.49,-3.51,-3.35,-8.9,-18.8,-3.8,-46.2,84.3,69.0,85.0,74.9,87.1,75.8,85.1,77.4,83.8,72.4,83.6,75.1,81.2,70.8,82.6,74.1,7.34,-7.84,0.09,0.12,0.0,75.13,63.76,75.68,42.66,174.7,27.6,1.6140322177701412,6.841932515852158,97.58756366193381,-43.21220506379062,-43.21220563281429,1,3
209,10.4,392.7,44.05368966250632,-78.67947635736856,-110.5,-90.5,241.3,141.8,7222.8,7223.0,97.1,1.0,1.0,1.0,0.0,1.0,1.0,0.0,0.0,0.0,100.0,1.0,1.186,26.0,0.0,-0.555,48.272,66.0,98.1,26.0,26.0,26.0,26.0,-1.23,-1.26,0.02,383.1,-2.91,-2.2,-0.47,-1.83,-463.74,586.18,5.6,0.0,0.0,0.0,0.0,0.23,-7.49,-7.49,-1.1,2.28,0.45,1.78,26.91,-1.06,-0.42,24.99,100.0,0.0,0.0,72.87,0.0,0.0,0.0,0.0,0.0,0.0,0.0,6182.0,0.0,30.0,0.0,97.1,0.0,0.0,0.0,0.0,0.0,0.0,1.0,0.0,10.413,10.413,48.272,17.725,0.0,110.0,435.8,8750.0,0.0,0.0,110.0,110.0,433.0,0.0,0.0,0.0,1.0,333.3,67.8,67.8,75.4,75.4,34.0,13.8,3.04,-58.0,1.4,4.0,-243.015,145.5,100.0,30.3,20.1,37.8,14.6,0.0,1.0,0.0,0.0,0.0,0.0,0.0,5946.0,2193.0,5469.0,3250.0,310.5,319.1,341.2,347.0,25.33,22.89,26.44,24.82,325.0,325.0,355.0,355.0,99.98,100.0,99.98,100.0,-9.1,-9.63,-3.62,-3.45,-14.0,-18.1,-3.1,-8.7,84.3,69.0,85.0,74.9,87.3,75.8,85.2,77.5,84.0,72.5,83.6,75.2,81.3,70.9,82.6,74.2,8.05,-8.67,0.06,0.1,0.0,69.15,67.92,74.31,71.43,174.7,27.6,1.760937250443638,5.04142396204382,98.66786876007738,-39.611188354490544,-7.202034556647732,1,3
210,10.45,394.0,44.05369020209928,-78.67946340713743,133.1,-40.3,-13.1,124.9,7224.1,7224.0,94.7,0.0,1.0,1.0,0.0,1.0,1.0,0.0,0.0,0.0,100.0,1.0,1.186,26.0,0.0,-0.561,48.272,66.0,99.1,26.0,26.0,26.0,26.0,-1.52,-1.12,0.33,380.4,-3.36,-2.59,0.07,-0.81,-462.3,586.24,5.5,0.0,0.0,0.0,0.0,0.23,-7.49,-7.49,-1.13,-1.1,0.63,6.61,26.25,-0.92,-0.5,22.94,100.0,0.0,0.0,69.06,0.0,0.0,0.0,0.0,0.0,0.0,0.0,5935.0,0.0,30.0,2.0,94.7,1.0,0.0,0.0,0.0,0.0,0.0,1.0,0.0,10.467,10.467,48.272,17.725,1.0,110.0,435.8,8750.0,0.0,0.0,110.0,110.0,433.0,0.0,0.0,0.0,1.0,166.7,60.4,60.4,83.4,83.4,34.0,20.4,8.94,-37.8,0.4,4.0,-243.065,161.3,100.0,37.0,18.0,37.1,20.9,0.0,1.0,0.0,0.0,0.0,0.0,0.0,6947.0,4179.0,4068.0,1404.0,306.9,313.3,344.6,351.5,25.33,22.89,26.44,24.82,325.0,325.0,355.0,355.0,99.98,100.0,99.98,100.0,-9.88,-10.47,-3.36,-3.26,-9.2,-10.6,-3.7,-8.6,84.3,69.0,85.0,74.9,87.6,75.9,85.2,77.5,84.3,72.6,83.6,75.2,81.5,70.9,82.6,74.2,8.9,-9.67,0.07,0.09,0.0,70.23,66.82,71.84,66.28,174.7,27.6,1.9166898549321953,2.8808136804031035,96.86736020626904,-43.212205348302476,-97.22746167804075,1,3
211,10.5,395.3,44.053690381963605,-78.67945216561736,-84.0,134.3,-158.9,-65.5,7225.4,7225.0,92.6,1.0,1.0,1.0,0.0,1.0,1.0,0.0,0.0,0.0,100.0,1.0,1.186,26.0,0.0,-0.564,48.272,66.0,100.0,26.0,26.0,26.0,26.0,-1.04,-0.97,-0.15,385.4,-3.18,-1.78,-1.06,-1.9,-461.05,586.26,5.5,0.0,0.0,0.0,0.0,0.23,-7.49,-7.49,-1.1,2.31,0.62,-4.78,25.68,-0.97,-0.49,28.13,100.0,0.0,0.0,65.41,0.0,0.0,0.0,0.0,0.0,0.0,0.0,5622.0,0.0,30.0,2.0,92.6,0.0,0.0,0.0,0.0,0.0,0.0,1.0,0.0,10.514,10.514,48.272,17.725,0.0,110.0,435.8,8750.0,0.0,0.0,110.0,110.0,433.0,0.0,0.0,0.0,1.0,333.3,63.0,63.0,88.2,88.2,34.0,16.2,5.2,-7.5,0.8,4.0,-243.115,174.4,100.0,32.8,24.8,29.2,17.6,0.0,1.0,0.0,0.0,0.0,0.0,0.0,5848.0,2833.0,3141.0,1137.0,310.5,317.1,347.7,352.1,25.33,22.89,26.44,24.82,325.0,325.0,355.0,355.0,99.98,100.0,99.98,100.0,-10.28,-11.01,-3.56,-3.48,-8.9,-14.3,-6.0,-12.7,84.3,69.0,85.0,74.8,87.8,76.1,85.2,77.5,84.4,72.7,83.6,75.2,81.7,71.1,82.6,74.2,9.62,-10.46,0.09,0.1,0.0,68.46,67.51,69.21,61.62,174.7,27.6,1.4300349646075092,0.7202034272135722,88.94512259227331,-18.005085538083378,-46.81322205760253,1,3
