,Time,Distance,GPS Latitude,GPS Longitude,Damper Velocity (Calc) FL,Damper Velocity (Calc) FR,Damper Velocity (Calc) RL,Damper Velocity (Calc) RR,Corr Dist,Corr Dist (Unstretched),Corr Speed,ABS Active,ABS Enabled,AID Allow Tire Blankets,AID Auto Blip,AID Auto Clutch,AID Auto Shift,AID Fuel Rate,AID Ideal Line,AID Mech Damage,AID Stability,AID Tire Wear Rate,Air Density,Air Temp,Ballast,Best Lap Delta,Best Lap Time,Brake Bias,Brake Pos,Brake Temp FL,Brake Temp FR,Brake Temp RL,Brake Temp RR,CG Accel Lateral,CG Accel Longitudinal,CG Accel Vertical,CG Height,Camber FL,Camber FR,Camber RL,Camber RR,Car Coord X,Car Coord Y,Car Coord Z,Car Damage Front,Car Damage Left,Car Damage Rear,Car Damage Right,Car Pos Norm,Caster FL,Caster FR,Chassis Pitch Angle,Chassis Pitch Rate,Chassis Roll Angle,Chassis Roll Rate,Chassis Velocity X,Chassis Velocity Y,Chassis Velocity Z,Chassis Yaw Rate,Clutch Pos,DRS Active,DRS Available,Drive Train Speed,ERS Heat Charging,ERS Is Charging,ERS Max Energy,ERS Power Level,ERS Recovery Level,Engine Brake Setting,Engine Limiter,Engine RPM,Flags,Fuel Level,Gear,Ground Speed,HR Sample Clock,In Pit,KERS Charge,KERS Deployed Energy,KERS Input,KERS Max Energy,LR Sample Clock,Lap Invalidated,Lap Time,Lap Time2,Last Lap Time,Last Sector Time,MR Sample Clock,Max Fuel,Max Power,Max RPM,Max Sus Travel FL,Max Sus Travel FR,Max Sus Travel RL,Max Sus Travel RR,Max Torque,Max Turbo Boost,Num Tires Off Track,Penalties Enabled,Position,Raw Data Sample Rate,Ride Height FL,Ride Height FR,Ride Height RL,Ride Height RR,Road Temp,Self Align Torque FL,Self Align Torque FR,Self Align Torque RL,Self Align Torque RR,Session Lap Count,Session Time Left,Steering Angle,Surface Grip,Suspension Travel FL,Suspension Travel FR,Suspension Travel RL,Suspension Travel RR,TC Active,TC Enabled,Throttle Pos,Tire Dirt Level FL,Tire Dirt Level FR,Tire Dirt Level RL,Tire Dirt Level RR,Tire Load FL,Tire Load FR,Tire Load RL,Tire Load RR,Tire Loaded Radius FL,Tire Loaded Radius FR,Tire Loaded Radius RL,Tire Loaded Radius RR,Tire Pressure FL,Tire Pressure FR,Tire Pressure RL,Tire Pressure RR,Tire Radius FL,Tire Radius FR,Tire Radius RL,Tire Radius RR,Tire Rubber Grip FL,Tire Rubber Grip FR,Tire Rubber Grip RL,Tire Rubber Grip RR,Tire Slip Angle FL,Tire Slip Angle FR,Tire Slip Angle RL,Tire Slip Angle RR,Tire Slip Ratio FL,Tire Slip Ratio FR,Tire Slip Ratio RL,Tire Slip Ratio RR,Tire Temp Core FL,Tire Temp Core FR,Tire Temp Core RL,Tire Temp Core RR,Tire Temp Inner FL,Tire Temp Inner FR,Tire Temp Inner RL,Tire Temp Inner RR,Tire Temp Middle FL,Tire Temp Middle FR,Tire Temp Middle RL,Tire Temp Middle RR,Tire Temp Outer FL,Tire Temp Outer FR,Tire Temp Outer RL,Tire Temp Outer RR,Toe In FL,Toe In FR,Toe In RL,Toe In RR,Turbo Boost,Wheel Angular Speed FL,Wheel Angular Speed FR,Wheel Angular Speed RL,Wheel Angular Speed RR,Wind Direction,Wind Speed,CG Distance,Lateral Velocity,Longitudinal Velocity,Lateral Acceleration,Longitudinal Acceleration,level,curve_number
222,11.05,358.7,44.05359946054924,-78.6798240351014,52.6,4.6,-40.9,15.9,1929.9,1930.0,144.9,0.0,1.0,1.0,0.0,1.0,1.0,0.0,0.0,0.0,100.0,1.0,1.186,26.0,0.0,-20.259,74.678,66.0,0.0,26.0,26.0,26.0,26.0,0.23,0.16,0.02,381.7,-2.97,-2.14,-1.87,-2.27,-502.4,576.15,5.5,0.0,0.0,0.0,0.0,0.21,-7.49,-7.49,-0.49,2.0,1.34,0.53,40.25,0.16,-0.33,-1.93,100.0,0.0,0.0,112.9,0.0,0.0,0.0,0.0,0.0,0.0,0.0,7568.0,0.0,30.0,3.0,144.9,1.0,0.0,0.0,0.0,0.0,0.0,1.0,0.0,11.081,11.081,74.679,19.926,1.0,110.0,435.8,8750.0,0.0,0.0,110.0,110.0,433.0,0.0,0.0,0.0,1.0,333.3,73.3,73.3,70.0,70.0,34.0,-5.32,26.6,-6.3,65.8,1.0,-88.34,-1.3,100.0,20.0,22.0,30.7,33.3,0.0,1.0,0.0,0.0,0.0,0.0,0.0,2811.0,4106.0,4685.0,6141.0,317.9,314.4,343.1,339.3,24.61,23.53,25.32,24.69,325.0,325.0,355.0,355.0,99.71,99.68,99.7,99.67,0.2,0.25,0.19,0.39,-0.0,-0.0,0.6,0.4,79.8,73.1,78.0,74.1,82.8,83.9,80.7,78.9,80.1,80.7,79.0,77.4,78.2,78.9,78.1,76.8,-0.07,0.07,0.07,0.05,0.0,123.46,123.65,112.9,112.9,356.7,7.7,0.28089143810376277,37.090476231212705,138.2790569438608,-3.6010169938119674,-39.611188639002535,0,3
223,11.1,360.7,44.05360395715728,-78.67980730771954,4.7,-2.8,120.4,70.2,1931.9,1932.0,144.6,0.0,1.0,1.0,0.0,1.0,1.0,0.0,0.0,0.0,100.0,1.0,1.186,26.0,0.0,-20.262,74.678,66.0,0.0,26.0,26.0,26.0,26.0,0.09,-0.19,0.03,379.5,-2.73,-2.56,-2.28,-0.87,-500.54,576.65,5.5,0.0,0.0,0.0,0.0,0.21,-7.49,-7.49,-0.51,-2.07,1.25,0.95,40.16,0.13,-0.36,-1.39,100.0,0.0,0.0,112.39,0.0,0.0,0.0,0.0,0.0,0.0,0.0,7534.0,0.0,30.0,3.0,144.6,0.0,0.0,0.0,0.0,0.0,0.0,0.0,0.0,11.13,11.13,74.679,19.926,0.0,110.0,435.8,8750.0,0.0,0.0,110.0,110.0,433.0,0.0,0.0,0.0,1.0,333.3,70.8,70.8,69.3,69.3,34.0,-14.67,24.57,-10.7,30.2,1.0,-88.39,-1.2,100.0,20.3,21.9,36.7,36.8,0.0,1.0,0.0,0.0,0.0,0.0,0.0,5110.0,3677.0,3915.0,4891.0,312.3,315.5,344.5,342.7,24.61,23.53,25.32,24.69,325.0,325.0,355.0,355.0,99.71,99.68,99.7,99.67,0.12,0.23,0.17,0.3,-0.0,-0.0,-0.2,-0.4,79.8,73.1,78.0,74.1,82.8,83.9,80.6,78.9,80.0,80.7,78.9,77.3,78.1,78.9,78.1,76.8,-0.05,0.05,0.07,0.05,0.0,123.15,123.21,112.39,112.39,356.7,7.7,0.21236760581595301,37.450577930593894,138.2790569438608,18.005085253571593,39.611188639002535,0,3
224,11.15,362.7,44.053608813493945,-78.67978950115175,100.1,82.7,-99.9,26.8,1933.9,1934.0,144.3,0.0,1.0,1.0,0.0,1.0,1.0,0.0,0.0,0.0,100.0,1.0,1.186,26.0,0.0,-20.265,74.678,66.0,0.0,26.0,26.0,26.0,26.0,0.1,-0.18,0.16,377.8,-2.95,-2.43,-2.13,-1.4,-498.56,577.19,5.5,0.0,0.0,0.0,0.0,0.21,-7.49,-7.49,-0.56,0.64,1.29,-2.03,40.06,0.1,-0.46,-0.92,100.0,0.0,0.0,112.14,0.0,0.0,0.0,0.0,0.0,0.0,0.0,7518.0,0.0,30.0,3.0,144.3,1.0,0.0,0.0,0.0,0.0,0.0,0.0,0.0,11.181,11.181,74.679,19.926,1.0,110.0,435.8,8750.0,0.0,0.0,110.0,110.0,433.0,0.0,0.0,0.0,1.0,333.3,63.3,63.3,73.0,73.0,34.0,-17.43,38.01,-13.5,21.2,1.0,-88.44,-1.3,100.0,25.3,26.0,31.7,38.1,0.0,1.0,0.0,0.0,0.0,0.0,0.0,5291.0,5269.0,4093.0,3387.0,311.5,311.0,345.0,345.5,24.61,23.54,25.32,24.69,325.0,325.0,355.0,355.0,99.71,99.68,99.7,99.67,0.12,0.23,0.09,0.25,-0.0,-0.0,-0.4,-0.4,79.8,73.1,78.0,74.1,82.7,83.8,80.6,78.9,80.0,80.6,78.9,77.3,78.1,78.8,78.0,76.8,-0.05,0.07,0.08,0.06,0.0,122.97,123.01,112.14,112.14,356.7,7.7,0.260768096208106,38.890984756569864,142.24017580776106,0.0,-10.803050981435547,0,3
225,11.2,364.7,44.05361366983062,-78.6797717845161,21.8,55.3,68.6,-32.0,1935.9,1936.0,143.9,0.0,1.0,1.0,0.0,1.0,1.0,0.0,0.0,0.0,100.0,1.0,1.186,26.0,0.0,-20.265,74.678,66.0,0.0,26.0,26.0,26.0,26.0,0.13,-0.19,0.2,376.5,-3.27,-3.24,-1.73,-1.47,-496.59,577.73,5.5,0.0,0.0,0.0,0.0,0.21,-7.49,-7.49,-0.41,3.42,1.32,-0.49,39.96,0.08,-0.46,-1.37,100.0,0.0,0.0,112.02,0.0,0.0,0.0,0.0,0.0,0.0,0.0,7509.0,0.0,30.0,3.0,143.9,0.0,0.0,0.0,0.0,0.0,0.0,0.0,0.0,11.231,11.231,74.679,19.926,0.0,110.0,435.8,8750.0,0.0,0.0,110.0,110.0,433.0,0.0,0.0,0.0,1.0,333.3,63.6,63.6,66.8,66.8,34.0,-16.45,35.68,-11.8,29.0,1.0,-88.49,-1.4,100.0,26.4,28.8,35.1,36.5,0.0,1.0,0.0,0.0,0.0,0.0,0.0,4263.0,4746.0,4405.0,4404.0,314.4,311.8,344.0,343.0,24.61,23.54,25.32,24.69,325.0,325.0,355.0,355.0,99.71,99.68,99.7,99.67,0.1,0.16,0.08,0.23,-0.0,-0.0,-0.3,-0.4,79.8,73.1,78.0,74.1,82.7,83.8,80.6,78.8,80.0,80.6,78.8,77.2,78.1,78.8,78.0,76.7,-0.07,0.08,0.07,0.06,0.0,122.67,122.76,112.01,112.01,356.7,7.7,0.30495901363953815,37.450577930593894,137.19875184571725,-14.404068259759697,-54.01525661425012,0,3
226,11.25,366.7,44.053618166438646,-78.67975523699856,-143.2,-218.1,36.6,55.7,1937.9,1938.0,143.6,0.0,1.0,1.0,0.0,1.0,1.0,0.0,0.0,0.0,100.0,1.0,1.186,26.0,0.0,-20.265,74.678,66.0,0.0,26.0,26.0,26.0,26.0,0.11,-0.18,-0.17,383.2,-3.12,-2.87,-1.54,-1.92,-494.75,578.23,5.5,0.0,0.0,0.0,0.0,0.21,-7.49,-7.49,-0.35,-2.77,1.36,1.77,39.87,0.08,-0.43,-0.69,100.0,0.0,0.0,111.62,0.0,0.0,0.0,0.0,0.0,0.0,0.0,7482.0,0.0,30.0,3.0,143.6,1.0,0.0,0.0,0.0,0.0,0.0,0.0,0.0,11.28,11.28,74.679,19.926,1.0,110.0,435.8,8750.0,0.0,0.0,110.0,110.0,433.0,0.0,0.0,0.0,1.0,333.3,79.6,79.6,68.1,68.1,34.0,-2.0,16.98,-9.6,37.1,1.0,-88.54,-1.4,100.0,19.2,17.9,37.0,39.3,0.0,1.0,0.0,0.0,0.0,0.0,0.0,1079.0,2951.0,3793.0,5144.0,321.5,317.3,345.0,341.6,24.61,23.54,25.32,24.69,325.0,325.0,355.0,355.0,99.71,99.68,99.7,99.67,0.2,0.14,0.06,0.19,0.0,-0.0,-0.3,-0.3,79.8,73.1,78.0,74.1,82.6,83.8,80.5,78.8,79.9,80.6,78.8,77.2,78.0,78.7,78.0,76.7,-0.08,0.08,0.07,0.04,0.0,122.17,122.18,111.61,111.61,356.7,7.7,0.2709243436828813,37.450577930593894,136.83865014633605,14.404068544271453,36.01017107616656,0,3
227,11.3,368.7,44.05362302277532,-78.67973761029508,-95.7,23.3,-60.1,-113.1,1939.9,1940.0,143.2,0.0,1.0,1.0,0.0,1.0,1.0,0.0,0.0,0.0,100.0,1.0,1.186,26.0,0.0,-20.274,74.678,66.0,6.6,26.0,26.0,26.0,26.0,0.07,-0.21,-0.38,388.9,-2.72,-2.35,-1.86,-1.17,-492.79,578.77,5.5,0.0,0.0,0.0,0.0,0.21,-7.49,-7.49,-0.63,-7.15,1.23,-4.72,39.77,0.06,-0.52,-1.04,100.0,0.0,0.0,110.79,0.0,0.0,0.0,0.0,0.0,0.0,0.0,7427.0,0.0,30.0,3.0,143.2,0.0,0.0,0.0,0.0,0.0,0.0,0.0,0.0,11.331,11.331,74.679,19.926,0.0,110.0,435.8,8750.0,0.0,0.0,110.0,110.0,433.0,0.0,0.0,0.0,1.0,333.3,79.0,79.0,74.4,74.4,34.0,-5.25,20.85,-3.1,6.0,1.0,-88.59,-1.4,100.0,14.4,19.1,34.0,33.6,0.0,1.0,0.0,0.0,0.0,0.0,0.0,2544.0,3463.0,1629.0,1440.0,318.9,315.7,350.8,350.7,24.61,23.55,25.32,24.7,325.0,325.0,355.0,355.0,99.71,99.68,99.7,99.67,0.14,0.2,0.11,0.21,-0.4,-0.3,-0.6,-0.7,79.8,73.2,78.0,74.1,82.6,83.7,80.5,78.8,79.8,80.5,78.8,77.2,77.9,78.7,77.9,76.6,-0.08,0.07,0.08,0.07,0.0,121.19,121.38,110.79,110.79,356.7,7.7,0.43977266854592045,38.89098478502104,140.7997689533339,3.601017278323866,-10.80305155045977,0,3
228,11.35,370.7,44.05362787911199,-78.67972007352377,76.9,100.8,-172.4,-197.2,1941.9,1942.0,142.4,0.0,1.0,1.0,0.0,1.0,1.0,0.0,0.0,0.0,100.0,1.0,1.186,26.0,0.0,-20.28,74.678,66.0,24.7,26.0,26.0,26.0,26.0,0.19,-0.56,-0.01,386.2,-2.56,-2.66,-0.7,-1.77,-490.84,579.31,5.5,0.0,0.0,0.0,0.0,0.21,-7.49,-7.49,-0.88,-3.15,1.0,-7.19,39.55,0.05,-0.55,-1.38,100.0,0.0,0.0,109.94,0.0,0.0,0.0,0.0,0.0,0.0,0.0,7370.0,0.0,30.0,3.0,142.4,1.0,0.0,0.0,0.0,0.0,0.0,0.0,0.0,11.381,11.381,74.679,19.926,1.0,110.0,435.8,8750.0,0.0,0.0,110.0,110.0,433.0,0.0,0.0,0.0,1.0,333.3,68.8,68.8,78.8,78.8,34.0,-13.02,39.51,0.0,24.0,1.0,-88.64,-1.7,100.0,18.3,24.1,25.4,23.8,0.0,1.0,0.0,0.0,0.0,0.0,0.0,4606.0,5383.0,2770.0,3364.0,313.4,310.6,347.7,346.2,24.61,23.55,25.32,24.7,325.0,325.0,355.0,355.0,99.71,99.68,99.7,99.67,0.09,0.23,0.11,0.31,-0.9,-0.9,-0.9,-1.0,79.8,73.2,78.0,74.1,82.5,83.7,80.4,78.7,79.8,80.5,78.7,77.1,77.9,78.7,77.9,76.6,-0.09,0.09,0.09,0.08,0.0,120.16,120.14,109.94,109.94,356.7,7.7,0.5914389233048498,37.81067965842628,135.75834499129007,-14.404068544271453,-64.81830759568595,0,3
229,11.4,372.6,44.053632465652186,-78.67970370587054,248.8,5.5,-8.1,-3.9,1943.9,1944.0,141.2,0.0,1.0,1.0,0.0,1.0,1.0,0.0,0.0,0.0,100.0,1.0,1.186,26.0,0.0,-20.283,74.678,66.0,53.3,26.0,26.0,26.0,26.0,0.04,-0.98,0.02,382.3,-2.28,-2.39,-0.95,-0.78,-489.02,579.82,5.5,0.0,0.0,0.0,0.0,0.21,-7.49,-7.49,-0.89,1.51,0.85,4.41,39.18,0.07,-0.55,-1.47,100.0,0.0,0.0,108.44,0.0,0.0,0.0,0.0,0.0,0.0,0.0,7269.0,0.0,30.0,3.0,141.2,0.0,0.0,0.0,0.0,0.0,0.0,0.0,0.0,11.43,11.43,74.679,19.926,0.0,110.0,435.8,8750.0,0.0,0.0,110.0,110.0,433.0,0.0,0.0,0.0,1.0,333.3,60.3,60.3,93.1,93.1,34.0,-23.35,12.89,-2.4,21.5,1.0,-88.69,-2.4,100.0,30.7,24.4,24.9,23.6,0.0,1.0,0.0,0.0,0.0,0.0,0.0,7594.0,3418.0,1935.0,4655.0,305.7,315.9,349.6,343.7,24.61,23.55,25.32,24.7,325.0,325.0,355.0,355.0,99.71,99.68,99.7,99.67,0.04,0.15,0.02,0.25,-1.5,-3.0,-1.6,-1.4,79.8,73.2,78.0,74.1,82.5,83.6,80.4,78.7,79.8,80.4,78.7,77.1,77.9,78.6,77.8,76.6,-0.12,0.12,0.1,0.08,0.0,118.46,116.37,108.06,108.82,356.7,7.7,0.9810198774744576,37.450577930593894,134.31793819376531,-2.8451189848510694e-07,3.6010175628359775,0,3
230,11.45,374.6,44.053637232056694,-78.67968652882786,63.1,98.0,74.6,197.1,1945.8,1946.0,138.7,0.0,1.0,1.0,0.0,1.0,1.0,0.0,0.0,0.0,100.0,1.0,1.186,26.0,0.0,-20.292,74.678,66.0,98.1,26.0,26.0,26.0,26.0,0.02,-1.64,0.35,375.6,-3.1,-2.62,-1.76,-1.29,-487.11,580.35,5.5,0.0,0.0,0.0,0.0,0.22,-7.49,-7.49,-0.79,1.21,1.25,9.64,38.48,0.08,-0.64,-1.65,100.0,0.0,0.0,105.71,0.0,0.0,0.0,0.0,0.0,0.0,0.0,7086.0,0.0,30.0,3.0,138.7,1.0,0.0,0.0,0.0,0.0,0.0,0.0,0.0,11.481,11.481,74.679,19.926,1.0,110.0,435.8,8750.0,0.0,0.0,110.0,110.0,433.0,0.0,0.0,0.0,1.0,333.3,55.0,55.0,80.2,80.2,34.0,-16.27,14.08,-13.7,14.8,1.0,-88.74,-3.2,100.0,33.9,29.3,28.7,33.4,0.0,1.0,0.0,0.0,0.0,0.0,0.0,6378.0,5675.0,3815.0,3757.0,308.4,310.2,345.1,344.9,24.61,23.56,25.32,24.7,325.0,325.0,355.0,355.0,99.71,99.68,99.7,99.67,0.07,0.2,-0.04,0.15,-3.8,-5.5,-2.0,-2.1,79.8,73.2,78.0,74.1,82.5,83.7,80.3,78.7,79.8,80.5,78.6,77.1,77.9,78.7,77.8,76.5,-0.15,0.18,0.09,0.07,0.0,112.94,111.23,105.71,105.71,356.7,7.7,1.6770509831248421,37.81067962997509,136.11844674757367,-10.803051265947587,-50.41424018946145,0,3
231,11.5,376.4,44.053641908529045,-78.67966971151382,-118.2,62.3,-0.6,-9.7,1947.7,1948.0,135.5,1.0,1.0,1.0,0.0,1.0,1.0,0.0,0.0,0.0,100.0,1.0,1.186,26.0,0.0,-20.298,74.678,66.0,100.0,26.0,26.0,26.0,26.0,0.17,-1.62,0.1,378.5,-2.6,-1.81,-1.83,-1.65,-485.24,580.87,5.5,0.0,0.0,0.0,0.0,0.22,-7.49,-7.49,-0.77,-0.81,1.75,5.67,37.59,0.1,-0.72,-0.86,100.0,0.0,0.0,102.75,0.0,0.0,0.0,0.0,0.0,0.0,0.0,6888.0,0.0,30.0,3.0,135.5,0.0,0.0,0.0,0.0,0.0,0.0,0.0,0.0,11.531,11.531,74.679,19.926,0.0,110.0,435.8,8750.0,0.0,0.0,110.0,110.0,433.0,0.0,0.0,0.0,1.0,333.3,60.9,60.9,75.1,75.1,34.0,0.08,15.95,-4.3,32.9,1.0,-88.79,-3.1,100.0,28.0,32.4,28.6,33.0,0.0,1.0,0.0,0.0,0.0,0.0,0.0,3051.0,5843.0,2324.0,5261.0,317.0,309.2,348.9,340.9,24.61,23.56,25.32,24.7,325.0,325.0,355.0,355.0,99.71,99.68,99.7,99.67,0.23,0.27,0.02,0.23,-12.2,-5.2,-3.6,-1.9,79.8,73.2,78.0,74.1,82.6,83.7,80.3,78.6,79.8,80.5,78.6,77.0,77.9,78.7,77.8,76.5,-0.17,0.19,0.09,0.06,0.0,99.36,108.99,101.73,103.77,356.7,7.7,1.6319620093617377,36.370272803999136,129.27651417481917,-21.606102531895317,-97.22746281608835,0,3
232,11.55,378.3,44.053646315204915,-78.67965424318221,-157.2,-90.9,-59.8,-41.7,1949.5,1950.0,132.9,1.0,1.0,1.0,0.0,1.0,1.0,0.0,0.0,0.0,100.0,1.0,1.186,26.0,0.0,-20.304,74.678,66.0,100.0,26.0,26.0,26.0,26.0,0.04,-1.74,-0.13,383.5,-2.71,-2.77,-1.6,-1.19,-483.52,581.36,5.5,0.0,0.0,0.0,0.0,0.22,-7.49,-7.49,-0.94,-5.76,1.64,-8.35,36.86,0.06,-0.77,1.29,100.0,0.0,0.0,99.69,0.0,0.0,0.0,0.0,0.0,0.0,0.0,6683.0,0.0,30.0,3.0,132.9,1.0,0.0,0.0,0.0,0.0,0.0,0.0,0.0,11.58,11.58,74.679,19.926,1.0,110.0,435.8,8750.0,0.0,0.0,110.0,110.0,433.0,0.0,0.0,0.0,1.0,333.3,65.3,65.3,75.6,75.6,34.0,0.18,-2.0,-5.3,6.1,1.0,-88.84,-0.6,100.0,20.1,27.8,25.7,30.9,0.0,1.0,0.0,0.0,0.0,0.0,0.0,4250.0,6454.0,3199.0,2112.0,314.6,307.5,347.1,348.9,24.61,23.56,25.32,24.7,325.0,325.0,355.0,355.0,99.71,99.68,99.7,99.67,0.2,0.33,0.03,0.21,-13.5,-11.4,-3.6,-3.6,79.8,73.3,78.0,74.1,82.6,83.8,80.3,78.6,79.9,80.6,78.6,77.0,78.0,78.8,77.7,76.5,-0.04,0.05,0.08,0.07,0.0,96.83,100.34,100.04,99.33,356.7,7.7,1.745307995741726,35.65006937678556,126.39570046596484,-7.202034272135762,-18.005084969060192,0,3
233,11.6,380.1,44.05365081181294,-78.67963814532547,75.8,-35.9,-124.6,-285.2,1951.3,1951.0,130.2,0.0,1.0,1.0,0.0,1.0,1.0,0.0,0.0,0.0,100.0,1.0,1.186,26.0,0.0,-20.313,74.678,66.0,100.0,26.0,26.0,26.0,26.0,-0.03,-1.42,-0.28,391.2,-2.42,-3.42,-1.07,-2.06,-481.73,581.86,5.6,0.0,0.0,0.0,0.0,0.22,-7.49,-7.49,-1.18,-2.92,1.1,-9.0,36.11,0.01,-0.81,0.39,100.0,0.0,0.0,93.19,0.0,0.0,0.0,0.0,0.0,0.0,0.0,6247.0,0.0,30.0,3.0,130.2,0.0,0.0,0.0,0.0,0.0,0.0,1.0,0.0,11.631,11.631,74.679,19.926,0.0,110.0,435.8,8750.0,0.0,0.0,110.0,110.0,433.0,0.0,0.0,0.0,1.0,166.7,66.3,66.3,93.7,93.7,34.0,-0.31,-0.54,-1.1,0.0,1.0,-88.89,2.9,100.0,23.9,26.0,19.4,16.6,0.0,1.0,0.0,0.0,0.0,0.0,0.0,5463.0,3330.0,1471.0,43.0,310.8,315.8,350.5,354.6,24.61,23.57,25.32,24.7,325.0,325.0,355.0,355.0,99.71,99.68,99.7,99.67,-0.07,0.01,-0.01,0.15,-9.5,-11.1,-5.3,-10.2,79.8,73.3,78.0,74.1,82.7,83.9,80.3,78.6,80.0,80.7,78.5,77.0,78.1,78.9,77.7,76.5,0.14,-0.14,0.1,0.1,0.0,100.17,96.71,96.22,90.17,356.7,7.7,1.4476532734049268,35.65006937678556,127.47600567791315,-18.00508553808342,-54.015256045226465,0,3
234,11.65,381.9,44.053655218488814,-78.67962240719736,99.3,-90.7,-47.5,-20.5,1953.1,1953.0,127.3,0.0,1.0,1.0,0.0,1.0,1.0,0.0,0.0,0.0,100.0,1.0,1.186,26.0,0.0,-20.319,74.678,66.0,100.0,26.0,26.0,26.0,26.0,-0.09,-1.5,-0.2,390.8,-1.06,-2.33,-0.79,-1.5,-479.98,582.35,5.6,0.0,0.0,0.0,0.0,0.22,-7.49,-7.49,-1.24,-1.02,1.1,6.03,35.32,0.08,-0.72,-1.61,100.0,0.0,0.0,90.68,0.0,0.0,0.0,0.0,0.0,0.0,0.0,6079.0,0.0,30.0,3.0,127.3,1.0,0.0,0.0,0.0,0.0,0.0,1.0,0.0,11.681,11.681,74.679,19.926,1.0,110.0,435.8,8750.0,0.0,0.0,110.0,110.0,433.0,0.0,0.0,0.0,1.0,333.3,65.4,65.4,102.5,102.5,34.0,-13.65,0.03,-0.0,1.1,1.0,-88.94,6.5,100.0,28.8,21.5,17.0,15.6,0.0,1.0,0.0,0.0,0.0,0.0,0.0,5508.0,3799.0,936.0,2159.0,310.5,315.5,352.7,349.4,24.61,23.57,25.32,24.7,325.0,325.0,355.0,355.0,99.71,99.68,99.7,99.67,-0.4,-0.29,0.0,0.26,-5.6,-11.6,-8.9,-8.1,79.8,73.3,78.0,74.1,82.8,84.0,80.2,78.6,80.0,80.8,78.5,77.0,78.1,78.9,77.7,76.5,0.36,-0.37,0.11,0.11,0.0,101.89,94.6,89.84,91.52,356.7,7.7,1.5159485479395403,33.84956082297722,120.99417486144219,-25.20711981021904,-90.02542825944062,0,3
235,11.7,383.6,44.05365926543604,-78.67960792811951,-3.2,14.0,4.8,44.7,1954.8,1955.0,124.5,0.0,1.0,1.0,0.0,1.0,1.0,0.0,0.0,0.0,100.0,1.0,1.186,26.0,0.0,-20.328,74.678,66.0,100.0,26.0,26.0,26.0,26.0,-0.11,-1.76,-0.06,388.3,-1.9,-2.32,-1.12,-1.3,-478.37,582.8,5.5,0.0,0.0,0.0,0.0,0.22,-7.49,-7.49,-1.26,-1.21,1.46,10.91,34.52,0.16,-0.68,-0.83,100.0,0.0,0.0,89.34,0.0,0.0,0.0,0.0,0.0,0.0,0.0,5989.0,0.0,30.0,3.0,124.5,0.0,0.0,0.0,0.0,0.0,0.0,1.0,0.0,11.73,11.73,74.679,19.926,0.0,110.0,435.8,8750.0,0.0,0.0,110.0,110.0,433.0,0.0,0.0,0.0,1.0,333.3,64.4,64.4,96.2,96.2,34.0,-11.05,-3.37,-0.4,1.4,1.0,-88.99,11.0,100.0,28.7,22.2,17.3,17.8,0.0,1.0,0.0,0.0,0.0,0.0,0.0,4778.0,5050.0,2255.0,2567.0,312.0,312.6,349.1,347.9,24.61,23.57,25.32,24.7,325.0,325.0,355.0,355.0,99.71,99.68,99.7,99.67,-0.51,-0.39,0.01,0.28,-6.5,-4.7,-7.9,-8.0,79.8,73.3,78.0,74.1,82.8,84.0,80.2,78.6,80.1,80.8,78.5,77.0,78.2,79.0,77.7,76.5,0.59,-0.6,0.11,0.08,0.0,98.28,100.0,89.34,89.34,356.7,7.7,1.7644545899512405,33.129357395763655,118.47346285196909,-10.803051265947587,-18.00508553808342,0,3
236,11.75,385.3,44.05366349224759,-78.67959281951653,-18.5,214.8,11.2,73.6,1956.5,1956.0,121.1,0.0,1.0,1.0,0.0,1.0,1.0,0.0,0.0,0.0,100.0,1.0,1.186,26.0,0.0,-20.337,74.678,66.0,100.0,26.0,26.0,26.0,26.0,-0.15,-1.89,0.28,382.4,-2.64,-2.57,-1.39,-1.4,-476.69,583.27,5.5,0.0,0.0,0.0,0.0,0.22,-7.49,-7.49,-1.3,0.23,1.7,-2.69,33.59,0.16,-0.73,4.2,100.0,0.0,0.0,88.22,0.0,0.0,0.0,0.0,0.0,0.0,0.0,5914.0,0.0,30.0,3.0,121.1,1.0,0.0,0.0,0.0,0.0,0.0,1.0,0.0,11.781,11.781,74.679,19.926,1.0,110.0,435.8,8750.0,0.0,0.0,110.0,110.0,433.0,0.0,0.0,0.0,1.0,333.3,54.0,54.0,86.7,86.7,34.0,-17.99,-12.07,-0.1,5.4,1.0,-89.04,20.9,100.0,27.8,33.0,17.8,21.5,0.0,1.0,0.0,0.0,0.0,0.0,0.0,6357.0,7670.0,2459.0,1675.0,308.9,304.6,348.7,349.6,24.61,23.57,25.32,24.7,325.0,325.0,355.0,355.0,99.71,99.68,99.7,99.67,-0.69,-0.5,0.01,0.26,-6.8,-3.9,-9.2,-3.8,79.8,73.3,78.0,74.1,82.9,84.1,80.2,78.6,80.2,80.8,78.5,77.0,78.2,79.0,77.7,76.5,1.11,-1.1,0.11,0.08,0.0,96.65,99.32,86.52,89.92,356.7,7.7,1.9165072397463045,32.76925569638246,119.19366630763385,-25.207119810219112,-61.21729060187391,0,3
237,11.8,386.9,44.053667449262655,-78.67957816057435,137.5,35.7,46.5,-22.1,1958.1,1958.0,117.8,0.0,1.0,1.0,0.0,1.0,1.0,0.0,0.0,0.0,100.0,1.0,1.186,26.0,0.0,-20.349,74.678,66.0,100.0,26.0,26.0,26.0,26.0,-0.25,-1.87,0.1,381.6,-2.98,-2.26,-1.08,-1.85,-475.06,583.71,5.5,0.0,0.0,0.0,0.0,0.22,-7.49,-7.49,-1.04,7.66,1.42,-8.23,32.66,0.12,-0.69,9.72,100.0,0.0,0.0,86.89,0.0,0.0,0.0,0.0,0.0,0.0,0.0,5825.0,0.0,30.0,3.0,117.8,0.0,0.0,0.0,0.0,0.0,0.0,1.0,0.0,11.831,11.831,74.679,19.926,0.0,110.0,435.8,8750.0,0.0,0.0,110.0,110.0,433.0,0.0,0.0,0.0,1.0,333.3,55.1,55.1,89.0,89.0,34.0,-13.98,-7.83,-2.1,6.5,1.0,-89.09,32.7,100.0,34.6,34.7,20.2,20.4,0.0,1.0,0.0,0.0,0.0,0.0,0.0,5365.0,4468.0,2835.0,3151.0,311.1,313.1,347.9,346.1,24.61,23.58,25.32,24.7,325.0,325.0,355.0,355.0,99.71,99.68,99.7,99.67,-1.09,-0.97,-0.18,0.1,-7.3,-6.7,-7.0,-5.1,79.8,73.4,78.0,74.1,83.0,84.1,80.2,78.6,80.2,80.9,78.5,77.0,78.3,79.0,77.7,76.5,1.79,-1.78,0.1,0.09,0.0,93.03,92.02,86.42,87.36,356.7,7.7,1.8892855792600547,30.608645414741744,112.3517337917817,-36.01017107616684,-97.2274616780409,0,3
238,11.85,388.5,44.053671136481235,-78.67956476068242,-70.5,-194.7,184.5,47.0,1959.7,1960.0,114.8,1.0,1.0,1.0,0.0,1.0,1.0,0.0,0.0,0.0,100.0,1.0,1.186,26.0,0.0,-20.355,74.678,66.0,100.0,26.0,26.0,26.0,26.0,-0.38,-1.58,0.06,381.9,-1.98,-2.15,-1.8,-1.88,-473.57,584.12,5.6,0.0,0.0,0.0,0.0,0.22,-7.49,-7.49,-0.8,2.2,1.05,-4.63,31.84,-0.01,-0.57,10.23,100.0,0.0,0.0,87.38,0.0,0.0,0.0,0.0,0.0,0.0,0.0,5857.0,0.0,30.0,3.0,114.8,1.0,0.0,0.0,0.0,0.0,0.0,1.0,0.0,11.88,11.88,74.679,19.926,1.0,110.0,435.8,8750.0,0.0,0.0,110.0,110.0,433.0,0.0,0.0,0.0,1.0,333.3,65.1,65.1,78.7,78.7,34.0,-2.42,1.29,-57.4,0.7,1.0,-89.14,46.1,100.0,31.1,25.0,29.4,22.7,0.0,1.0,0.0,0.0,0.0,0.0,0.0,5309.0,2464.0,6114.0,3222.0,311.4,318.8,340.0,346.7,24.61,23.58,25.32,24.7,325.0,325.0,355.0,355.0,99.71,99.68,99.7,99.67,-2.06,-2.04,-0.53,-0.26,-8.7,-12.6,-2.3,-3.3,79.8,73.4,78.0,74.1,83.1,84.2,80.2,78.6,80.3,80.9,78.5,77.0,78.4,79.1,77.7,76.4,2.52,-2.58,0.08,0.09,0.0,93.82,87.52,88.4,86.35,356.7,7.7,1.6261611236282831,29.168238588765774,109.47092013982976,-25.207119525707284,-18.00508553808342,0,3
239,11.9,390.1,44.053674733767664,-78.67955082119752,-6.5,-32.9,49.1,-41.8,1961.3,1961.0,112.0,1.0,1.0,1.0,0.0,1.0,1.0,0.0,0.0,0.0,100.0,1.0,1.186,26.0,0.0,-20.367,74.678,66.0,100.0,26.0,26.0,26.0,26.0,-0.52,-1.55,-0.08,383.4,-2.56,-3.6,-0.93,-1.43,-472.02,584.52,5.6,0.0,0.0,0.0,0.0,0.22,-7.49,-7.49,-0.85,-0.88,0.97,2.14,31.07,-0.07,-0.62,12.71,100.0,0.0,0.0,83.39,0.0,0.0,0.0,0.0,0.0,0.0,0.0,5590.0,0.0,30.0,3.0,112.0,0.0,0.0,0.0,0.0,0.0,0.0,1.0,0.0,11.931,11.931,74.679,19.926,0.0,110.0,435.8,8750.0,0.0,0.0,110.0,110.0,433.0,0.0,0.0,0.0,1.0,333.3,62.8,62.8,85.0,85.0,34.0,11.1,1.56,-25.9,-1.7,1.0,-89.19,59.3,100.0,30.8,23.4,31.9,20.6,0.0,1.0,0.0,0.0,0.0,0.0,0.0,7067.0,3015.0,3383.0,1729.0,307.1,316.8,346.4,350.7,24.61,23.58,25.32,24.7,325.0,325.0,355.0,355.0,99.71,99.68,99.7,99.67,-2.94,-2.93,-0.73,-0.58,-10.6,-17.8,-2.8,-6.0,79.8,73.4,78.0,74.1,83.2,84.3,80.2,78.5,80.4,81.0,78.5,76.9,78.5,79.2,77.7,76.4,3.29,-3.4,0.08,0.09,0.0,85.72,80.58,85.27,81.51,356.7,7.7,1.636856743884449,28.087933462171016,110.55122523797336,-28.8081370885428,-43.212205632814005,0,3
240,11.95,391.6,44.053678151189764,-78.67953715150912,-59.7,-67.8,-147.5,-53.2,1962.8,1963.0,109.5,1.0,1.0,1.0,0.0,1.0,1.0,0.0,0.0,0.0,100.0,1.0,1.186,26.0,0.0,-20.382,74.678,66.0,100.0,26.0,26.0,26.0,26.0,-0.49,-1.37,-0.33,389.2,-2.55,-2.91,-0.85,-0.85,-470.5,584.9,5.6,0.0,0.0,0.0,0.0,0.23,-7.49,-7.49,-0.89,-0.76,1.34,9.72,30.38,-0.16,-0.54,13.93,100.0,0.0,0.0,79.78,0.0,0.0,0.0,0.0,0.0,0.0,0.0,5348.0,0.0,30.0,3.0,109.5,1.0,0.0,0.0,0.0,0.0,0.0,1.0,0.0,11.981,11.981,74.679,19.926,1.0,110.0,435.8,8750.0,0.0,0.0,110.0,110.0,433.0,0.0,0.0,0.0,1.0,333.3,70.2,70.2,90.6,90.6,34.0,5.52,2.19,-14.8,-1.4,1.0,-89.24,73.3,100.0,27.8,20.0,24.5,18.0,0.0,1.0,0.0,0.0,0.0,0.0,0.0,3832.0,2852.0,2684.0,2896.0,314.9,317.3,348.3,347.8,24.61,23.58,25.32,24.7,325.0,325.0,355.0,355.0,99.71,99.68,99.7,99.67,-3.81,-3.96,-1.13,-0.9,-12.3,-17.0,-4.9,-8.5,79.8,73.4,78.0,74.1,83.3,84.3,80.2,78.5,80.5,81.0,78.5,76.9,78.6,79.2,77.6,76.4,4.05,-4.21,0.09,0.09,0.0,80.19,79.43,81.4,78.17,356.7,7.7,1.491945039202182,26.287424879911494,105.14969957654836,-36.0101713606786,-75.62135914614544,0,3
241,12.0,393.1,44.053681298815384,-78.67952456100663,-174.8,10.0,-6.1,64.8,1964.3,1964.0,107.2,1.0,1.0,1.0,0.0,1.0,1.0,0.0,0.0,0.0,100.0,1.0,1.186,26.0,0.0,-20.391,74.678,66.0,100.0,26.0,26.0,26.0,26.0,-0.57,-1.42,-0.18,389.7,-2.1,-1.44,-1.33,-2.32,-469.1,585.25,5.6,0.0,0.0,0.0,0.0,0.23,-7.49,-7.49,-1.1,-6.41,1.39,-6.19,29.74,-0.29,-0.53,16.58,100.0,0.0,0.0,79.17,0.0,0.0,0.0,0.0,0.0,0.0,0.0,5307.0,0.0,30.0,3.0,107.2,0.0,0.0,0.0,0.0,0.0,0.0,1.0,0.0,12.03,12.03,74.679,19.926,0.0,110.0,435.8,8750.0,0.0,0.0,110.0,110.0,433.0,0.0,0.0,0.0,1.0,333.3,73.3,73.3,81.7,81.7,34.0,5.29,5.54,-41.7,-2.3,1.0,-89.29,85.7,100.0,19.1,20.5,24.2,21.2,0.0,1.0,0.0,0.0,0.0,0.0,0.0,3836.0,3995.0,4010.0,1620.0,315.3,314.7,344.8,350.7,24.61,23.59,25.32,24.7,325.0,325.0,355.0,355.0,99.71,99.68,99.7,99.67,-4.54,-4.61,-1.36,-1.17,-14.5,-12.1,-3.6,-6.8,79.8,73.4,78.0,74.1,83.4,84.4,80.2,78.5,80.6,81.1,78.5,76.9,78.6,79.3,77.6,76.4,4.78,-4.95,0.09,0.09,0.0,81.46,82.38,81.65,76.7,356.7,7.7,1.5406816673148285,24.486916326103156,102.98908932335881,-32.40915379784294,-7.20203455664759,0,3
242,12.05,394.5,44.05368426657668,-78.67951143091119,123.4,39.2,30.4,-226.8,1965.8,1966.0,105.0,1.0,1.0,1.0,0.0,1.0,1.0,0.0,0.0,0.0,100.0,1.0,1.186,26.0,0.0,-20.409,74.678,66.0,100.0,26.0,26.0,26.0,26.0,-0.82,-1.27,-0.09,389.5,-3.57,-1.96,-0.45,-2.48,-467.64,585.58,5.6,0.0,0.0,0.0,0.0,0.23,-7.49,-7.49,-1.4,-3.61,0.94,-7.92,29.12,-0.37,-0.63,21.18,100.0,0.0,0.0,74.33,0.0,0.0,0.0,0.0,0.0,0.0,0.0,4983.0,0.0,30.0,3.0,105.0,1.0,0.0,0.0,0.0,0.0,0.0,1.0,0.0,12.081,12.081,74.679,19.926,1.0,110.0,435.8,8750.0,0.0,0.0,110.0,110.0,433.0,0.0,0.0,0.0,1.0,333.3,64.3,64.3,89.7,89.7,34.0,11.08,5.58,-24.4,0.0,1.0,-89.34,97.1,100.0,25.2,22.4,25.7,9.9,0.0,1.0,0.0,0.0,0.0,0.0,0.0,7243.0,4414.0,2632.0,196.0,306.8,313.9,348.2,354.3,24.61,23.59,25.32,24.7,325.0,325.0,355.0,355.0,99.71,99.68,99.7,99.67,-5.21,-5.22,-1.63,-1.48,-5.2,-15.0,-3.7,-14.6,79.8,73.4,78.0,74.1,83.5,84.5,80.2,78.5,80.7,81.2,78.5,76.9,78.7,79.3,77.6,76.3,5.42,-5.67,0.09,0.11,0.0,83.26,77.86,79.24,69.42,356.7,7.7,1.5143975699927679,23.0465095001272,104.4294961208836,-36.01017079165491,-36.0101710761667,0,3
243,12.1,396.0,44.05368705447366,-78.67949848068007,201.8,43.4,-75.0,-61.2,1967.2,1967.0,102.6,1.0,1.0,1.0,0.0,1.0,1.0,0.0,0.0,0.0,100.0,1.0,1.186,26.0,0.0,-20.421,74.678,66.0,100.0,26.0,26.0,26.0,26.0,-0.91,-1.46,0.03,386.8,-3.1,-1.55,0.31,-1.46,-466.2,585.89,5.6,0.0,0.0,0.0,0.0,0.23,-7.49,-7.49,-1.35,5.01,0.59,-3.39,28.43,-0.54,-0.59,27.21,100.0,0.0,0.0,72.95,0.0,0.0,0.0,0.0,0.0,0.0,0.0,4890.0,0.0,30.0,3.0,102.6,0.0,0.0,0.0,0.0,0.0,0.0,0.0,0.0,12.131,12.131,74.679,19.926,0.0,110.0,435.8,8750.0,0.0,0.0,110.0,110.0,433.0,0.0,0.0,0.0,1.0,333.3,58.2,58.2,96.0,96.0,34.0,17.62,6.71,-17.6,0.5,1.0,-89.39,105.8,100.0,35.3,24.6,21.9,6.8,0.0,1.0,0.0,0.0,0.0,0.0,0.0,7854.0,3378.0,3931.0,1162.0,304.8,316.2,345.1,352.3,24.61,23.59,25.31,24.7,325.0,325.0,355.0,355.0,99.71,99.68,99.7,99.67,-5.72,-5.88,-2.38,-2.18,-12.1,-6.6,-6.3,-13.0,79.8,73.5,78.0,74.1,83.7,84.5,80.2,78.4,80.9,81.3,78.5,76.8,78.9,79.4,77.6,76.3,5.92,-6.23,0.1,0.11,0.0,77.09,82.26,76.25,69.65,356.7,7.7,1.7206394160311451,20.885899246937665,99.38807221574214,-39.611188354490565,-43.212205063790634,0,3
244,12.15,397.3,44.053689482642,-78.67948660963486,10.7,-65.8,103.8,59.4,1968.6,1969.0,100.2,1.0,1.0,1.0,0.0,1.0,1.0,0.0,0.0,0.0,100.0,1.0,1.186,26.0,0.0,-20.436,74.678,66.0,100.0,26.0,26.0,26.0,26.0,-0.99,-1.34,-0.04,386.0,-1.67,-1.37,-1.38,-1.71,-464.88,586.16,5.6,0.0,0.0,0.0,0.0,0.23,-7.49,-7.49,-1.07,6.11,0.46,1.27,27.77,-0.7,-0.5,28.42,100.0,0.0,0.0,72.8,0.0,0.0,0.0,0.0,0.0,0.0,0.0,4880.0,0.0,30.0,3.0,100.2,1.0,0.0,0.0,0.0,0.0,0.0,0.0,0.0,12.18,12.18,74.679,19.926,1.0,110.0,435.8,8750.0,0.0,0.0,110.0,110.0,433.0,0.0,0.0,0.0,1.0,166.7,63.4,63.4,90.2,90.2,34.0,14.58,2.06,-56.1,1.3,1.0,-89.44,109.3,100.0,35.9,21.3,27.1,9.8,0.0,1.0,0.0,0.0,0.0,0.0,0.0,6758.0,1681.0,5360.0,1869.0,307.3,320.7,341.8,350.7,24.61,23.59,25.31,24.7,325.0,325.0,355.0,355.0,99.71,99.68,99.7,99.67,-6.19,-6.5,-2.87,-2.67,-12.6,-14.3,-4.0,-10.2,79.8,73.5,78.0,74.1,83.9,84.6,80.2,78.4,81.0,81.3,78.5,76.8,79.1,79.5,77.6,76.3,6.14,-6.5,0.09,0.11,0.0,74.45,73.38,76.64,68.95,356.7,7.7,1.66652332716947,19.085390664678144,100.10827561450454,-46.813222626626256,-10.803051550459486,0,3
245,12.2,398.7,44.05369182087817,-78.67947347953942,-165.8,-55.9,173.3,161.2,1969.9,1970.0,97.7,1.0,1.0,1.0,0.0,1.0,1.0,0.0,0.0,0.0,100.0,1.0,1.186,26.0,0.0,-20.436,74.678,66.0,100.0,26.0,26.0,26.0,26.0,-1.17,-0.94,0.05,386.0,-2.66,-2.67,-1.19,-0.96,-463.42,586.42,5.6,0.0,0.0,0.0,0.0,0.23,-7.49,-7.49,-0.95,-0.88,0.59,2.6,27.11,-0.79,-0.44,24.85,100.0,0.0,0.0,71.12,0.0,0.0,0.0,0.0,0.0,0.0,0.0,4768.0,0.0,30.0,3.0,97.7,0.0,0.0,0.0,0.0,0.0,0.0,0.0,0.0,12.234,12.234,74.679,19.926,0.0,110.0,435.8,8750.0,0.0,0.0,110.0,110.0,433.0,0.0,0.0,0.0,1.0,166.7,70.0,70.0,80.4,80.4,34.0,17.58,2.2,-49.3,0.7,1.0,-89.49,110.7,100.0,27.6,18.5,35.8,17.9,0.0,1.0,0.0,0.0,0.0,0.0,0.0,6270.0,1647.0,4473.0,1339.0,309.2,320.7,343.6,351.8,24.61,23.6,25.31,24.7,325.0,325.0,355.0,355.0,99.71,99.68,99.7,99.67,-6.78,-7.05,-3.01,-2.86,-6.9,-12.1,-3.5,-9.5,79.8,73.5,78.0,74.1,84.0,84.6,80.2,78.4,81.2,81.4,78.5,76.8,79.2,79.5,77.7,76.3,6.23,-6.61,0.08,0.1,0.0,75.18,73.22,74.7,67.55,356.7,7.7,1.5016657417681205,16.20457698427504,98.3077670606962,-57.61627360806209,-97.22746167804075,0,3
275,13.7,359.0,44.0535794956096,-78.67985155434255,-12.2,130.8,-11.6,-104.0,3711.8,3712.0,121.8,0.0,1.0,1.0,0.0,1.0,1.0,0.0,0.0,0.0,100.0,1.0,1.186,26.0,0.0,-17.541,74.678,66.0,0.0,26.0,26.0,26.0,26.0,-0.14,0.62,0.08,384.1,-2.58,-2.54,-1.4,-1.57,-505.46,573.93,5.5,0.0,0.0,0.0,0.0,0.2,-7.49,-7.49,-0.5,-0.32,1.01,-1.4,33.84,-0.11,-0.3,2.21,100.0,0.0,0.0,98.0,0.0,0.0,0.0,0.0,0.0,0.0,0.0,8422.0,0.0,30.0,2.0,121.8,0.0,0.0,0.0,0.0,0.0,0.0,1.0,0.0,13.71,13.71,84.921,21.577,0.0,110.0,435.8,8750.0,0.0,0.0,110.0,110.0,433.0,0.0,0.0,0.0,1.0,333.3,75.3,75.3,65.9,65.9,34.0,-18.31,18.95,-26.2,2.7,2.0,-175.89,-0.9,100.0,16.1,20.1,34.4,29.2,0.0,1.0,100.0,0.0,0.0,0.0,0.0,3560.0,4465.0,4950.0,4533.0,316.8,313.1,343.3,344.4,25.91,24.0,27.89,26.88,325.0,325.0,355.0,355.0,100.0,99.94,100.0,100.0,-0.11,0.0,-0.34,-0.18,-0.1,-0.1,3.1,3.3,88.0,76.0,94.1,87.8,101.5,95.1,102.7,98.0,97.7,90.7,101.1,95.7,95.6,88.7,99.8,94.1,-0.04,0.03,0.07,0.07,0.0,103.9,103.8,98.0,98.0,356.7,7.7,0.6406246951218787,34.20966252235842,111.9916320924005,-10.803051550459557,-14.404068544271382,0,3
276,13.75,360.7,44.0535838123533,-78.67983752492549,107.0,-2.6,-27.5,29.8,3713.5,3713.0,122.7,0.0,1.0,1.0,0.0,1.0,1.0,0.0,0.0,0.0,100.0,1.0,1.186,26.0,0.0,-17.535,74.678,66.0,0.0,26.0,26.0,26.0,26.0,-0.11,0.67,0.07,383.6,-1.92,-2.64,-1.6,-0.69,-503.9,574.41,5.5,0.0,0.0,0.0,0.0,0.21,-7.49,-7.49,-0.41,3.21,0.96,-0.69,34.11,-0.09,-0.28,0.7,100.0,0.0,0.0,98.53,0.0,0.0,0.0,0.0,0.0,0.0,0.0,8468.0,0.0,30.0,2.0,122.7,1.0,0.0,0.0,0.0,0.0,0.0,1.0,0.0,13.759,13.759,84.921,21.577,1.0,110.0,435.8,8750.0,0.0,0.0,110.0,110.0,433.0,0.0,0.0,0.0,1.0,333.3,76.2,76.2,70.9,70.9,34.0,-6.06,9.48,-30.3,0.6,2.0,-175.94,-3.9,100.0,21.5,19.9,33.0,30.7,0.0,1.0,100.0,0.0,0.0,0.0,0.0,3020.0,2197.0,5579.0,5236.0,317.4,319.6,341.5,342.4,25.92,24.01,27.9,26.88,325.0,325.0,355.0,355.0,100.0,99.94,100.0,100.0,0.07,0.08,-0.28,-0.1,-0.1,-0.1,2.9,3.0,88.0,76.0,94.1,87.8,101.4,95.0,102.7,98.0,97.7,90.7,101.0,95.6,95.5,88.7,99.7,94.1,-0.21,0.2,0.06,0.07,0.0,104.77,104.62,98.52,98.52,356.7,7.7,0.6825686778632609,35.28996764895318,116.31285259877957,21.606102816407144,82.82339313376966,0,3
277,13.8,362.4,44.05358830896133,-78.67982250625468,-37.0,-45.8,71.9,146.3,3715.2,3715.0,123.3,0.0,1.0,1.0,0.0,1.0,1.0,0.0,0.0,0.0,100.0,1.0,1.186,26.0,0.0,-17.529,74.678,66.0,0.0,26.0,26.0,26.0,26.0,-0.03,0.01,0.1,381.7,-2.04,-1.4,-2.1,-1.44,-502.23,574.91,5.5,0.0,0.0,0.0,0.0,0.21,-7.49,-7.49,-0.34,-1.65,0.89,-2.21,34.24,-0.06,-0.25,-1.74,100.0,0.0,0.0,96.22,0.0,0.0,0.0,0.0,0.0,0.0,0.0,8290.0,0.0,30.0,0.0,123.3,0.0,0.0,0.0,0.0,0.0,0.0,1.0,0.0,13.809,13.809,84.921,21.577,0.0,110.0,435.8,8750.0,0.0,0.0,110.0,110.0,433.0,0.0,0.0,0.0,1.0,333.3,76.4,76.4,65.1,65.1,34.0,-0.21,22.15,-41.3,14.3,2.0,-175.99,-7.2,100.0,19.6,17.6,36.6,38.0,0.0,1.0,0.0,0.0,0.0,0.0,0.0,2723.0,4002.0,5770.0,4120.0,318.3,315.3,341.3,344.9,25.92,24.01,27.9,26.89,325.0,325.0,355.0,355.0,100.0,99.94,100.0,100.0,0.23,0.28,-0.15,0.02,0.0,0.0,0.4,0.3,88.0,76.1,94.1,87.8,101.4,95.0,102.6,97.9,97.6,90.6,101.0,95.6,95.5,88.6,99.7,94.1,-0.4,0.38,0.07,0.05,0.0,104.94,105.02,96.14,96.31,356.7,7.7,0.10488088481701517,36.370272803999136,120.27397140577746,3.601017278323795,3.601017562835267,0,3
278,13.85,364.1,44.053592895501524,-78.67980748758386,-10.1,30.5,13.6,-102.4,3716.9,3717.0,123.2,0.0,1.0,1.0,0.0,1.0,1.0,0.0,0.0,0.0,100.0,1.0,1.186,26.0,0.0,-17.523,74.678,66.0,0.0,26.0,26.0,26.0,26.0,0.13,-0.05,-0.06,383.8,-2.08,-2.66,-0.74,-1.33,-500.56,575.42,5.5,0.0,0.0,0.0,0.0,0.21,-7.49,-7.49,-0.5,-3.83,0.95,4.62,34.21,-0.01,-0.34,-3.86,100.0,0.0,0.0,96.07,0.0,0.0,0.0,0.0,0.0,0.0,0.0,7912.0,0.0,30.0,0.0,123.2,1.0,0.0,0.0,0.0,0.0,0.0,1.0,0.0,13.86,13.86,84.921,21.577,1.0,110.0,435.8,8750.0,0.0,0.0,110.0,110.0,433.0,0.0,0.0,0.0,1.0,333.3,75.7,75.7,68.9,68.9,34.0,2.86,24.53,-7.1,16.1,2.0,-176.04,-10.1,100.0,19.1,19.2,37.3,32.9,0.0,1.0,0.0,0.0,0.0,0.0,0.0,3285.0,3116.0,4143.0,3539.0,316.7,316.6,345.1,346.4,25.92,24.02,27.9,26.89,325.0,325.0,355.0,355.0,100.0,99.94,100.0,100.0,0.31,0.34,-0.0,0.13,0.0,-0.0,0.0,-0.0,88.0,76.1,94.1,87.8,101.3,94.9,102.5,97.8,97.5,90.5,100.9,95.5,95.4,88.5,99.6,94.0,-0.57,0.55,0.08,0.06,0.0,104.73,104.99,95.94,96.19,356.7,7.7,0.15165750888103102,35.65006937678556,116.6729543550631,-3.601017278323795,-36.010171076167126,0,3
279,13.9,365.8,44.05359721224523,-78.67979336823464,61.8,47.8,-170.3,66.1,3718.6,3719.0,123.5,0.0,1.0,1.0,0.0,1.0,1.0,0.0,0.0,0.0,100.0,1.0,1.186,26.0,0.0,-17.52,74.678,66.0,0.0,26.0,26.0,26.0,26.0,0.27,0.53,0.18,382.5,-1.96,-2.58,-1.78,-1.33,-498.99,575.9,5.5,0.0,0.0,0.0,0.0,0.21,-7.49,-7.49,-0.64,-0.59,1.23,3.75,34.33,0.04,-0.45,-5.89,100.0,0.0,0.0,97.81,0.0,0.0,0.0,0.0,0.0,0.0,0.0,6556.0,0.0,30.0,3.0,123.5,0.0,0.0,0.0,0.0,0.0,0.0,1.0,0.0,13.909,13.909,84.921,21.577,0.0,110.0,435.8,8750.0,0.0,0.0,110.0,110.0,433.0,0.0,0.0,0.0,1.0,333.3,70.0,70.0,78.4,78.4,34.0,5.09,42.24,-2.1,26.4,2.0,-176.09,-10.7,100.0,22.2,21.6,28.7,36.2,0.0,1.0,0.0,0.0,0.0,0.0,0.0,4100.0,4533.0,3523.0,4174.0,314.7,313.1,347.0,344.9,25.93,24.02,27.9,26.89,325.0,325.0,355.0,355.0,100.0,99.94,100.0,100.0,0.32,0.42,0.16,0.31,-0.1,-0.1,5.3,1.3,88.0,76.1,94.1,87.8,101.2,94.9,102.5,97.8,97.5,90.5,100.9,95.5,95.3,88.5,99.6,94.0,-0.62,0.61,0.08,0.07,0.0,105.14,105.62,98.71,96.9,356.7,7.7,0.621449917531574,36.010171076166756,116.67295429816075,32.4091540823548,72.02034158330989,0,3
280,13.95,367.5,44.05360188871758,-78.67977834956383,55.3,23.5,-58.0,-40.4,3720.3,3720.0,123.4,0.0,1.0,1.0,0.0,1.0,1.0,0.0,0.0,0.0,100.0,1.0,1.186,26.0,0.0,-17.511,74.678,66.0,0.0,26.0,26.0,26.0,26.0,0.23,-0.19,-0.02,382.9,-2.18,-1.87,-1.61,-0.66,-497.32,576.42,5.5,0.0,0.0,0.0,0.0,0.21,-7.49,-7.49,-0.54,3.45,1.48,7.01,34.28,0.1,-0.4,-6.48,100.0,0.0,0.0,96.2,0.0,0.0,0.0,0.0,0.0,0.0,0.0,6449.0,0.0,30.0,3.0,123.4,1.0,0.0,0.0,0.0,0.0,0.0,1.0,0.0,13.959,13.959,84.921,21.577,1.0,110.0,435.8,8750.0,0.0,0.0,110.0,110.0,433.0,0.0,0.0,0.0,1.0,333.3,68.2,68.2,82.4,82.4,34.0,6.26,37.29,0.1,31.4,2.0,-176.14,-9.8,100.0,25.0,22.7,25.8,34.2,0.0,1.0,0.0,0.0,0.0,0.0,0.0,4083.0,4422.0,3172.0,4594.0,314.7,313.8,347.6,344.4,25.93,24.03,27.9,26.89,325.0,325.0,355.0,355.0,100.0,99.94,100.0,100.0,0.37,0.45,0.25,0.41,0.0,-0.0,-0.2,-0.6,88.1,76.2,94.1,87.8,101.2,94.8,102.4,97.8,97.4,90.4,100.8,95.4,95.3,88.4,99.5,93.9,-0.57,0.56,0.09,0.06,0.0,105.08,105.61,95.95,96.45,356.7,7.7,0.29899832775452106,38.89098478502104,123.87498851339409,7.202034272135762,-3.6010164247879572,0,3
281,14.0,369.2,44.053606924918576,-78.6797624315714,-82.9,72.8,105.4,60.4,3722.1,3722.0,123.1,0.0,1.0,1.0,0.0,1.0,1.0,0.0,0.0,0.0,100.0,1.0,1.186,26.0,0.0,-17.505,74.678,66.0,0.0,26.0,26.0,26.0,26.0,0.37,-0.12,0.18,381.5,-1.59,-2.36,-1.57,-1.88,-495.55,576.98,5.5,0.0,0.0,0.0,0.0,0.21,-7.49,-7.49,-0.35,2.17,1.69,0.8,34.19,0.13,-0.37,-5.96,100.0,0.0,0.0,95.9,0.0,0.0,0.0,0.0,0.0,0.0,0.0,6429.0,0.0,30.0,3.0,123.1,0.0,0.0,0.0,0.0,0.0,0.0,1.0,0.0,14.013,14.013,84.921,21.577,0.0,110.0,435.8,8750.0,0.0,0.0,110.0,110.0,433.0,0.0,0.0,0.0,1.0,166.7,71.7,71.7,67.5,67.5,34.0,2.35,40.17,4.4,51.7,2.0,-176.19,-5.7,100.0,20.8,26.4,31.1,37.2,0.0,1.0,0.0,0.0,0.0,0.0,0.0,1293.0,4590.0,3763.0,4791.0,321.4,312.3,345.7,343.1,25.93,24.03,27.9,26.9,325.0,325.0,355.0,355.0,100.0,99.94,100.0,100.0,0.36,0.38,0.32,0.5,0.1,-0.0,-0.1,-0.4,88.1,76.2,94.2,87.9,101.1,94.7,102.3,97.7,97.3,90.4,100.7,95.4,95.2,88.4,99.4,93.9,-0.37,0.37,0.08,0.05,0.0,104.75,105.32,95.74,96.06,356.7,7.7,0.42860237983473676,36.73037450338033,116.31285265568195,-28.808137088542836,-115.23254721612389,0,3
282,14.05,370.9,44.05361106179796,-78.67974930147595,-113.6,-90.3,35.7,-4.8,3723.8,3724.0,122.9,0.0,1.0,1.0,0.0,1.0,1.0,0.0,0.0,0.0,100.0,1.0,1.186,26.0,0.0,-17.505,74.678,66.0,0.0,26.0,26.0,26.0,26.0,0.24,-0.13,-0.09,384.2,-2.9,-1.4,-1.79,-1.51,-494.09,577.44,5.5,0.0,0.0,0.0,0.0,0.21,-7.49,-7.49,-0.38,-3.24,1.64,-2.5,34.13,0.16,-0.35,-3.68,100.0,0.0,0.0,95.57,0.0,0.0,0.0,0.0,0.0,0.0,0.0,6406.0,0.0,30.0,3.0,122.9,1.0,0.0,0.0,0.0,0.0,0.0,1.0,0.0,14.059,14.059,84.921,21.577,1.0,110.0,435.8,8750.0,0.0,0.0,110.0,110.0,433.0,0.0,0.0,0.0,1.0,333.3,77.1,77.1,67.6,67.6,34.0,-3.39,22.42,4.4,50.7,2.0,-176.24,-0.1,100.0,15.1,21.9,32.9,37.0,0.0,1.0,0.0,0.0,0.0,0.0,0.0,1782.0,4390.0,3635.0,4935.0,320.6,313.9,346.3,343.3,25.94,24.04,27.91,26.9,325.0,325.0,355.0,355.0,100.0,99.94,100.0,100.0,0.17,0.22,0.36,0.53,0.0,-0.0,-0.1,-0.4,88.1,76.2,94.2,87.9,101.0,94.7,102.3,97.6,97.3,90.3,100.7,95.3,95.1,88.3,99.3,93.8,-0.05,0.05,0.07,0.07,0.0,104.45,104.83,95.57,95.57,356.7,7.7,0.28740215726399826,36.010171076166756,112.3517337917817,18.005085822595248,28.808136519518968,0,3
283,14.1,372.6,44.05361591813463,-78.6797343727373,-15.9,0.4,-53.3,-87.6,3725.5,3725.0,122.6,0.0,1.0,1.0,0.0,1.0,1.0,0.0,0.0,0.0,100.0,1.0,1.186,26.0,0.0,-17.499,74.678,66.0,0.0,26.0,26.0,26.0,26.0,0.02,-0.16,-0.35,388.8,-3.37,-2.27,-1.35,-1.26,-492.43,577.98,5.5,0.0,0.0,0.0,0.0,0.21,-7.49,-7.49,-0.62,-5.39,1.16,-12.79,34.06,0.12,-0.44,-0.3,100.0,0.0,0.0,95.18,0.0,0.0,0.0,0.0,0.0,0.0,0.0,6381.0,0.0,30.0,3.0,122.6,0.0,0.0,0.0,0.0,0.0,0.0,1.0,0.0,14.109,14.109,84.921,21.577,0.0,110.0,435.8,8750.0,0.0,0.0,110.0,110.0,433.0,0.0,0.0,0.0,1.0,333.3,78.4,78.4,75.9,75.9,34.0,-21.84,3.45,3.2,14.8,2.0,-176.29,10.9,100.0,14.4,21.9,30.2,32.6,0.0,1.0,0.0,0.0,0.0,0.0,0.0,3122.0,2630.0,2979.0,2205.0,318.2,318.4,348.6,349.7,25.94,24.04,27.91,26.9,325.0,325.0,355.0,355.0,100.0,99.94,100.0,100.0,-0.22,-0.16,0.3,0.42,-0.0,0.0,-0.4,-0.6,88.1,76.3,94.2,87.9,100.9,94.6,102.2,97.6,97.2,90.3,100.6,95.3,95.1,88.3,99.3,93.8,0.53,-0.53,0.08,0.08,0.0,104.31,104.33,95.18,95.18,356.7,7.7,0.38535697735995383,38.53088308563986,119.19366630763385,7.202034556647661,25.207120094731152,0,3
284,14.15,374.3,44.05362068453915,-78.6797195339308,168.9,21.4,-19.6,-151.6,3727.2,3727.0,122.2,0.0,1.0,1.0,0.0,1.0,1.0,0.0,0.0,0.0,100.0,1.0,1.186,26.0,0.0,-17.496,74.678,66.0,24.3,26.0,26.0,26.0,26.0,-0.22,-0.4,0.13,384.4,-2.44,-3.07,-1.26,-1.67,-490.78,578.51,5.5,0.0,0.0,0.0,0.0,0.21,-7.49,-7.49,-0.8,-1.5,0.69,-9.09,33.93,0.12,-0.5,5.28,100.0,0.0,0.0,94.56,0.0,0.0,0.0,0.0,0.0,0.0,0.0,6339.0,0.0,30.0,3.0,122.2,1.0,0.0,0.0,0.0,0.0,0.0,1.0,0.0,14.16,14.16,84.921,21.577,1.0,110.0,435.8,8750.0,0.0,0.0,110.0,110.0,433.0,0.0,0.0,0.0,1.0,333.3,67.1,67.1,79.7,79.7,34.0,-64.47,-12.25,-4.9,20.9,2.0,-176.34,21.5,100.0,22.8,23.0,29.3,25.0,0.0,1.0,0.0,0.0,0.0,0.0,0.0,5318.0,4872.0,3074.0,3211.0,311.9,312.4,347.8,346.8,25.94,24.05,27.91,26.9,325.0,325.0,355.0,355.0,100.0,99.94,100.0,100.0,-0.71,-0.57,0.06,0.24,-0.8,-0.8,-0.8,-0.4,88.1,76.3,94.2,87.9,100.9,94.6,102.1,97.5,97.1,90.2,100.5,95.2,95.0,88.2,99.2,93.7,1.17,-1.18,0.08,0.08,0.0,103.2,102.74,94.74,94.37,356.7,7.7,0.47465777145223276,36.73037453183152,114.87244580125481,-25.20712009473101,-61.21729117089757,0,3
285,14.2,376.0,44.05362509121502,-78.67970568437806,115.8,-47.5,20.8,-126.6,3728.8,3729.0,120.5,1.0,1.0,1.0,0.0,1.0,1.0,0.0,0.0,0.0,100.0,1.0,1.186,26.0,0.0,-17.496,74.678,66.0,100.0,26.0,26.0,26.0,26.0,-0.37,-1.54,-0.05,385.3,-1.2,-6.91,-0.85,-1.91,-489.24,579.0,5.5,0.0,0.0,0.0,0.0,0.21,-7.49,-7.49,-0.77,0.58,0.39,2.87,33.42,0.06,-0.48,7.41,100.0,0.0,0.0,90.5,0.0,0.0,0.0,0.0,0.0,0.0,0.0,6067.0,0.0,30.0,3.0,120.5,0.0,0.0,0.0,0.0,0.0,0.0,0.0,0.0,14.209,14.209,84.921,21.577,0.0,110.0,435.8,8750.0,0.0,0.0,110.0,110.0,433.0,0.0,0.0,0.0,1.0,333.3,68.0,68.0,84.9,84.9,34.0,-36.24,0.19,-22.6,2.1,2.0,-176.39,26.6,100.0,28.6,20.6,30.3,18.7,0.0,1.0,0.0,0.0,0.0,0.0,0.0,6390.0,1831.0,4510.0,2215.0,308.6,319.7,344.0,349.8,25.94,24.05,27.91,26.9,325.0,325.0,355.0,355.0,100.0,99.94,100.0,100.0,-1.13,-1.22,-0.3,-0.08,-5.5,-11.3,-2.0,-5.2,88.2,76.3,94.2,87.9,100.9,94.6,102.0,97.4,97.1,90.2,100.5,95.1,95.0,88.2,99.1,93.6,1.5,-1.53,0.08,0.1,0.0,97.55,92.84,92.0,89.0,356.7,7.7,1.5846135175493108,36.010171076166756,113.07193719054409,-10.803051550459628,-7.20203455664759,0,3
286,14.25,377.6,44.053629677755204,-78.67969129523237,48.6,-6.2,-35.3,184.7,3730.5,3730.0,117.5,1.0,1.0,1.0,0.0,1.0,1.0,0.0,0.0,0.0,100.0,1.0,1.186,26.0,0.0,-17.496,74.678,66.0,100.0,26.0,26.0,26.0,26.0,-0.53,-1.78,0.26,380.2,-2.45,-3.76,-1.37,-1.34,-487.64,579.51,5.5,0.0,0.0,0.0,0.0,0.22,-7.49,-7.49,-0.89,-3.95,0.82,9.34,32.58,0.03,-0.59,9.42,100.0,0.0,0.0,89.28,0.0,0.0,0.0,0.0,0.0,0.0,0.0,5985.0,0.0,30.0,3.0,117.5,1.0,0.0,0.0,0.0,0.0,0.0,0.0,0.0,14.259,14.259,84.921,21.577,1.0,110.0,435.8,8750.0,0.0,0.0,110.0,110.0,433.0,0.0,0.0,0.0,1.0,333.3,62.1,62.1,89.1,89.1,34.0,-68.82,1.08,-19.4,-4.7,2.0,-176.44,28.2,100.0,31.0,20.3,28.5,27.9,0.0,1.0,0.0,0.0,0.0,0.0,0.0,7334.0,4306.0,3031.0,5815.0,306.8,313.8,347.2,341.6,25.95,24.06,27.91,26.91,325.0,325.0,355.0,355.0,100.0,99.94,100.0,100.0,-1.36,-1.28,-0.54,-0.27,-4.6,-14.0,-3.0,-2.0,88.2,76.4,94.2,87.9,100.9,94.6,102.0,97.4,97.2,90.3,100.4,95.1,95.0,88.3,99.1,93.6,1.62,-1.66,0.09,0.07,0.0,95.72,84.59,89.0,89.56,356.7,7.7,1.875339969178922,35.65006937678556,114.15224234559005,-32.409153797842976,-46.81322205760253,0,3
287,14.3,379.2,44.05363399449892,-78.67967717588316,44.1,125.6,-125.6,-169.0,3732.1,3732.0,114.5,1.0,1.0,1.0,0.0,1.0,1.0,0.0,0.0,0.0,100.0,1.0,1.186,26.0,0.0,-17.493,74.678,66.0,100.0,26.0,26.0,26.0,26.0,-0.4,-1.58,-0.23,385.9,-3.06,-3.55,-0.89,0.07,-486.07,579.99,5.5,0.0,0.0,0.0,0.0,0.22,-7.49,-7.49,-1.0,0.61,1.17,6.76,31.76,-0.08,-0.68,13.65,100.0,0.0,0.0,84.09,0.0,0.0,0.0,0.0,0.0,0.0,0.0,5637.0,0.0,30.0,3.0,114.5,0.0,0.0,0.0,0.0,0.0,0.0,0.0,0.0,14.31,14.31,84.921,21.577,0.0,110.0,435.8,8750.0,0.0,0.0,110.0,110.0,433.0,0.0,0.0,0.0,1.0,333.3,60.7,60.7,94.2,94.2,34.0,-25.82,0.83,-6.9,-4.5,2.0,-176.49,25.7,100.0,33.2,26.5,22.2,19.5,0.0,1.0,0.0,0.0,0.0,0.0,0.0,5377.0,3939.0,1920.0,2398.0,311.7,314.5,350.5,349.5,25.95,24.06,27.91,26.91,325.0,325.0,355.0,355.0,100.0,99.94,100.0,100.0,-1.18,-1.12,-0.87,-0.73,-6.1,-14.0,-5.3,-6.4,88.2,76.4,94.2,87.9,100.9,94.7,101.9,97.3,97.2,90.3,100.3,95.0,95.0,88.3,99.0,93.5,1.5,-1.52,0.1,0.09,0.0,91.32,86.89,84.59,83.59,356.7,7.7,1.64599513972551,32.76925569638246,108.39061498478384,-39.611188354490494,-54.01525661425026,0,3
288,14.35,380.8,44.05363786158182,-78.67966422565203,-88.0,5.4,7.2,-8.0,3733.6,3734.0,111.6,0.0,1.0,1.0,0.0,1.0,1.0,0.0,0.0,0.0,100.0,1.0,1.186,26.0,0.0,-17.493,74.678,66.0,100.0,26.0,26.0,26.0,26.0,-0.47,-1.61,-0.08,386.3,-3.3,-2.14,-1.63,-1.31,-484.63,580.42,5.5,0.0,0.0,0.0,0.0,0.22,-7.49,-7.49,-0.99,-0.29,1.29,-0.09,30.93,-0.27,-0.64,13.7,100.0,0.0,0.0,83.21,0.0,0.0,0.0,0.0,0.0,0.0,0.0,5578.0,0.0,30.0,3.0,111.6,1.0,0.0,0.0,0.0,0.0,0.0,0.0,0.0,14.359,14.359,84.921,21.577,1.0,110.0,435.8,8750.0,0.0,0.0,110.0,110.0,433.0,0.0,0.0,0.0,1.0,166.7,64.2,64.2,86.4,86.4,34.0,-35.75,1.13,-37.1,-7.4,2.0,-176.54,22.8,100.0,28.8,26.8,22.6,19.1,0.0,1.0,0.0,0.0,0.0,0.0,0.0,4790.0,3873.0,3904.0,2685.0,313.3,315.1,345.9,348.7,25.95,24.07,27.91,26.91,325.0,325.0,355.0,355.0,100.0,99.94,100.0,100.0,-1.27,-1.16,-1.24,-0.97,-4.9,-13.7,-3.7,-5.6,88.2,76.4,94.2,87.9,101.0,94.7,101.9,97.3,97.2,90.4,100.3,95.0,95.1,88.3,99.0,93.5,1.34,-1.35,0.1,0.09,0.0,89.81,80.13,84.52,81.91,356.7,7.7,1.6791069054708816,31.68895054133651,108.75071668416503,-25.207119810219112,-18.005085538083563,0,3
289,14.4,382.3,44.053641908529045,-78.67965001637066,-90.2,-22.4,15.0,-79.4,3735.1,3735.0,108.7,1.0,1.0,1.0,0.0,1.0,1.0,0.0,0.0,0.0,100.0,1.0,1.186,26.0,0.0,-17.49,74.678,66.0,100.0,26.0,26.0,26.0,26.0,-0.51,-1.35,-0.26,389.0,-2.47,-3.16,-1.38,-1.39,-483.05,580.87,5.5,0.0,0.0,0.0,0.0,0.22,-7.49,-7.49,-1.09,-1.48,1.06,-7.22,30.14,-0.4,-0.64,13.44,100.0,0.0,0.0,79.28,0.0,0.0,0.0,0.0,0.0,0.0,0.0,5315.0,0.0,30.0,3.0,108.7,0.0,0.0,0.0,0.0,0.0,0.0,0.0,0.0,14.411,14.411,84.921,21.577,0.0,110.0,435.8,8750.0,0.0,0.0,110.0,110.0,433.0,0.0,0.0,0.0,1.0,166.7,66.1,66.1,86.6,86.6,34.0,-43.41,0.92,-22.8,-0.6,2.0,-176.59,18.4,100.0,24.3,25.7,23.4,15.1,0.0,1.0,0.0,0.0,0.0,0.0,0.0,5046.0,4203.0,2768.0,1964.0,312.3,313.8,348.7,350.6,25.96,24.07,27.91,26.91,325.0,325.0,355.0,355.0,100.0,99.94,100.0,100.0,-1.2,-1.11,-1.33,-1.11,-4.4,-14.6,-3.9,-8.8,88.2,76.5,94.2,87.9,101.0,94.8,101.9,97.3,97.3,90.4,100.3,95.0,95.1,88.4,99.0,93.4,1.1,-1.12,0.1,0.1,0.0,86.7,82.13,81.66,76.9,356.7,7.7,1.4663560277095056,30.248543715360547,106.59010643097548,-39.6111880699787,-108.03051322850038,0,3
290,14.45,383.8,44.05364541588331,-78.6796376057325,59.6,-28.4,0.1,-78.0,3736.6,3737.0,106.1,1.0,1.0,1.0,0.0,1.0,1.0,0.0,0.0,0.0,100.0,1.0,1.186,26.0,0.0,-17.49,74.678,66.0,100.0,26.0,26.0,26.0,26.0,-0.48,-1.56,-0.06,388.9,-2.24,-3.95,-1.28,-1.36,-481.67,581.26,5.5,0.0,0.0,0.0,0.0,0.22,-7.49,-7.49,-1.17,-0.44,0.75,-2.43,29.41,-0.48,-0.63,10.02,100.0,0.0,0.0,75.6,0.0,0.0,0.0,0.0,0.0,0.0,0.0,5068.0,0.0,30.0,3.0,106.1,1.0,0.0,0.0,0.0,0.0,0.0,0.0,0.0,14.46,14.46,84.921,21.577,1.0,110.0,435.8,8750.0,0.0,0.0,110.0,110.0,433.0,0.0,0.0,0.0,1.0,333.3,64.1,64.1,87.5,87.5,34.0,-0.04,0.97,-45.3,0.2,2.0,-176.64,12.4,100.0,27.3,24.3,23.4,11.2,0.0,1.0,0.0,0.0,0.0,0.0,0.0,5941.0,4214.0,3731.0,860.0,310.2,313.6,346.4,353.2,25.96,24.08,27.91,26.91,325.0,325.0,355.0,355.0,100.0,99.94,100.0,100.0,-1.22,-1.17,-1.48,-1.27,-9.4,-13.1,-2.8,-14.8,88.3,76.5,94.2,87.9,101.1,94.8,101.8,97.2,97.3,90.4,100.2,94.9,95.1,88.4,98.9,93.4,0.77,-0.78,0.1,0.1,0.0,82.31,81.75,80.36,70.84,356.7,7.7,1.633278910657944,27.72783173433864,97.94766536131499,-32.4091540823548,-79.22237670898099,0,3
291,14.5,385.2,44.05364883330541,-78.67962555482298,1.2,-106.4,-86.2,44.2,3738.0,3738.0,103.6,1.0,1.0,1.0,0.0,1.0,1.0,0.0,0.0,0.0,100.0,1.0,1.186,26.0,0.0,-17.487,74.678,66.0,100.0,26.0,26.0,26.0,26.0,-0.31,-1.41,-0.25,392.7,-1.94,-2.24,-0.8,-2.24,-480.33,581.64,5.5,0.0,0.0,0.0,0.0,0.22,-7.49,-7.49,-1.21,-1.1,0.85,5.13,28.72,-0.5,-0.55,6.31,100.0,0.0,0.0,73.77,0.0,0.0,0.0,0.0,0.0,0.0,0.0,4945.0,0.0,30.0,3.0,103.6,0.0,0.0,0.0,0.0,0.0,0.0,0.0,0.0,14.509,14.509,84.921,21.577,0.0,110.0,435.8,8750.0,0.0,0.0,110.0,110.0,433.0,0.0,0.0,0.0,1.0,333.3,70.8,70.8,99.2,99.2,34.0,3.25,0.27,-5.6,0.4,2.0,-176.69,4.3,100.0,27.4,19.0,19.1,13.4,0.0,1.0,0.0,0.0,0.0,0.0,0.0,5259.0,1532.0,2546.0,1827.0,312.0,320.6,348.7,350.4,25.96,24.08,27.92,26.91,325.0,325.0,355.0,355.0,100.0,99.94,100.0,100.0,-1.12,-1.09,-1.51,-1.27,-11.4,-16.9,-7.1,-10.2,88.3,76.5,94.2,88.0,101.1,94.8,101.8,97.2,97.4,90.4,100.2,94.9,95.2,88.4,98.9,93.4,0.32,-0.33,0.1,0.1,0.0,78.03,74.47,75.41,72.13,356.7,7.7,1.465162107072115,27.007628307125067,98.66786876007738,-14.40406825975959,10.803050981436115,0,3
292,14.55,386.6,44.05365216079535,-78.6796129643205,-22.2,10.0,-7.2,127.5,3739.4,3739.0,100.7,1.0,1.0,1.0,0.0,1.0,1.0,0.0,0.0,0.0,100.0,1.0,1.186,26.0,0.0,-17.484,74.678,66.0,100.0,26.0,26.0,26.0,26.0,-0.32,-1.67,-0.11,389.7,-1.82,-1.96,-1.13,-2.41,-478.93,582.01,5.5,0.0,0.0,0.0,0.0,0.22,-7.49,-7.49,-1.34,-4.23,1.13,4.09,27.91,-0.47,-0.54,4.68,100.0,0.0,0.0,73.49,0.0,0.0,0.0,0.0,0.0,0.0,0.0,4927.0,0.0,30.0,3.0,100.7,1.0,0.0,0.0,0.0,0.0,0.0,0.0,0.0,14.559,14.559,84.921,21.577,1.0,110.0,435.8,8750.0,0.0,0.0,110.0,110.0,433.0,0.0,0.0,0.0,1.0,333.3,68.6,68.6,97.3,97.3,34.0,1.36,0.58,-1.7,-10.3,2.0,-176.74,-0.3,100.0,26.2,19.5,18.7,19.8,0.0,1.0,0.0,0.0,0.0,0.0,0.0,5211.0,3586.0,2147.0,2859.0,312.2,315.9,349.8,347.6,25.97,24.09,27.92,26.91,325.0,325.0,355.0,355.0,100.0,99.94,100.0,100.0,-0.84,-0.73,-1.39,-1.13,-10.2,-13.5,-8.2,-4.9,88.3,76.6,94.2,88.0,101.2,94.8,101.7,97.2,97.4,90.5,100.2,94.9,95.2,88.4,98.8,93.3,0.01,-0.01,0.11,0.09,0.0,76.74,77.58,72.14,74.84,356.7,7.7,1.703936618539551,26.28742490836268,99.0279704594586,-25.20711952570725,-54.01525661425012,0,3
293,14.6,388.0,44.053655398353136,-78.67960082347882,78.6,193.3,-16.2,-113.3,3740.8,3741.0,97.6,1.0,1.0,1.0,0.0,1.0,1.0,0.0,0.0,0.0,100.0,1.0,1.186,26.0,0.0,-17.484,74.678,66.0,100.0,26.0,26.0,26.0,26.0,-0.39,-1.69,0.1,386.6,-2.96,-2.71,-0.94,-0.64,-477.58,582.37,5.5,0.0,0.0,0.0,0.0,0.22,-7.49,-7.49,-1.5,0.31,1.25,1.72,27.06,-0.39,-0.62,3.45,100.0,0.0,0.0,69.05,0.0,0.0,0.0,0.0,0.0,0.0,0.0,4629.0,0.0,30.0,3.0,97.6,0.0,0.0,0.0,0.0,0.0,0.0,0.0,0.0,14.61,14.61,84.921,21.577,0.0,110.0,435.8,8750.0,0.0,0.0,110.0,110.0,433.0,0.0,0.0,0.0,1.0,333.3,55.5,55.5,94.0,94.0,34.0,-39.5,-8.72,-8.7,0.0,2.0,-176.79,0.6,100.0,30.2,29.1,17.9,14.1,0.0,1.0,0.0,0.0,0.0,0.0,0.0,7141.0,6636.0,1860.0,255.0,307.6,307.8,350.7,354.1,25.97,24.09,27.92,26.92,325.0,325.0,355.0,355.0,100.0,99.94,100.0,100.0,-0.81,-0.59,-1.16,-0.96,-5.5,-5.5,-5.0,-13.6,88.3,76.6,94.2,88.0,101.2,94.9,101.7,97.1,97.5,90.5,100.1,94.8,95.3,88.5,98.8,93.3,0.02,-0.01,0.11,0.1,0.0,79.84,79.05,71.94,66.15,356.7,7.7,1.7372967507020782,24.486916354554342,93.26634309865237,-32.4091540823548,-86.42441012758141,0,3
294,14.65,389.3,44.053658276182276,-78.67958967189091,85.7,56.3,10.2,-14.5,3742.1,3742.0,94.6,0.0,1.0,1.0,0.0,1.0,1.0,0.0,0.0,0.0,100.0,1.0,1.186,26.0,0.0,-17.481,74.678,66.0,100.0,26.0,26.0,26.0,26.0,-0.42,-1.61,0.22,384.3,-2.61,-3.26,-0.23,-0.62,-476.34,582.69,5.5,0.0,0.0,0.0,0.0,0.22,-7.49,-7.49,-1.31,6.7,1.19,-1.78,26.21,-0.31,-0.62,5.0,100.0,0.0,0.0,68.02,0.0,0.0,0.0,0.0,0.0,0.0,0.0,4560.0,0.0,30.0,3.0,94.6,1.0,0.0,0.0,0.0,0.0,0.0,0.0,0.0,14.659,14.659,84.921,21.577,1.0,110.0,435.8,8750.0,0.0,0.0,110.0,110.0,433.0,0.0,0.0,0.0,1.0,333.3,52.3,52.3,93.4,93.4,34.0,-68.51,-3.62,-15.5,0.1,2.0,-176.84,4.9,100.0,34.5,31.9,18.4,13.4,0.0,1.0,0.0,0.0,0.0,0.0,0.0,7617.0,5793.0,2853.0,605.0,306.1,309.6,348.3,353.8,25.97,24.1,27.92,26.92,325.0,325.0,355.0,355.0,100.0,99.94,100.0,100.0,-0.71,-0.52,-1.05,-0.82,-3.5,-5.6,-4.5,-11.5,88.3,76.6,94.2,88.0,101.2,94.9,101.7,97.1,97.5,90.5,100.1,94.8,95.3,88.5,98.8,93.3,0.26,-0.22,0.11,0.11,0.0,77.92,75.88,71.87,64.17,356.7,7.7,1.6783622970026466,23.0465095001272,90.38552944670046,-14.40406882878328,-3.601016993811754,0,3
295,14.7,390.5,44.053661154011415,-78.67957825050651,-82.3,-97.3,77.0,146.2,3743.4,3743.0,91.4,0.0,1.0,1.0,0.0,1.0,1.0,0.0,0.0,0.0,100.0,1.0,1.186,26.0,0.0,-17.481,74.678,66.0,100.0,26.0,26.0,26.0,26.0,-0.36,-1.54,0.05,385.6,-2.26,-2.55,-1.1,-1.61,-475.07,583.01,5.5,0.0,0.0,0.0,0.0,0.22,-7.49,-7.49,-0.91,6.19,1.21,-0.67,25.35,-0.22,-0.48,4.35,100.0,0.0,0.0,69.53,0.0,0.0,0.0,0.0,0.0,0.0,0.0,4661.0,0.0,30.0,3.0,91.4,0.0,0.0,0.0,0.0,0.0,0.0,1.0,0.0,14.709,14.709,84.921,21.577,0.0,110.0,435.8,8750.0,0.0,0.0,110.0,110.0,433.0,0.0,0.0,0.0,1.0,166.7,64.1,64.1,87.7,87.7,34.0,1.86,-0.74,-31.2,-7.3,2.0,-176.89,12.3,100.0,30.3,27.1,22.2,20.7,0.0,1.0,0.0,0.0,0.0,0.0,0.0,4738.0,3404.0,3661.0,2501.0,313.3,316.4,346.4,348.4,25.98,24.1,27.92,26.92,325.0,325.0,355.0,355.0,100.0,99.94,100.0,100.0,-0.88,-0.83,-0.93,-0.6,-10.4,-9.0,-3.2,-2.9,88.4,76.7,94.2,88.0,101.2,94.9,101.6,97.0,97.5,90.5,100.0,94.7,95.3,88.5,98.7,93.2,0.65,-0.63,0.1,0.1,0.0,69.21,68.26,69.88,69.18,356.7,7.7,1.582308440222702,23.046509471676014,92.9062413992712,-28.808137088542907,-50.414239620438224,0,3
296,14.75,391.8,44.05366403184055,-78.67956646939348,-89.9,-79.5,109.3,39.2,3744.6,3745.0,88.6,1.0,1.0,1.0,0.0,1.0,1.0,0.0,0.0,0.0,100.0,1.0,1.186,26.0,0.0,-17.478,74.678,66.0,100.0,26.0,26.0,26.0,26.0,-0.33,-1.09,-0.08,386.9,-1.84,-2.35,-1.0,-2.01,-473.76,583.33,5.5,0.0,0.0,0.0,0.0,0.22,-7.49,-7.49,-0.75,0.23,1.04,-3.39,24.57,-0.11,-0.42,3.4,100.0,0.0,0.0,67.22,0.0,0.0,0.0,0.0,0.0,0.0,0.0,4506.0,0.0,30.0,3.0,88.6,1.0,0.0,0.0,0.0,0.0,0.0,1.0,0.0,14.763,14.763,84.921,21.577,1.0,110.0,435.8,8750.0,0.0,0.0,110.0,110.0,433.0,0.0,0.0,0.0,1.0,166.7,71.9,71.9,79.6,79.6,34.0,1.55,-14.11,-41.4,-0.2,2.0,-176.94,26.2,100.0,25.8,23.1,27.7,22.7,0.0,1.0,0.0,0.0,0.0,0.0,0.0,3050.0,2212.0,4782.0,2681.0,317.3,319.3,343.7,348.3,25.98,24.11,27.92,26.92,325.0,325.0,355.0,355.0,100.0,99.94,100.0,100.0,-1.33,-1.34,-0.58,-0.32,-13.8,-3.2,-1.7,-3.7,88.4,76.7,94.2,88.0,101.2,94.9,101.6,97.0,97.5,90.5,100.0,94.7,95.3,88.5,98.7,93.2,1.39,-1.41,0.09,0.09,0.0,68.59,68.79,67.67,66.77,356.7,7.7,1.1416654501210064,20.16569579127291,85.34410548465664,-46.81322205760264,-122.4345812037484,0,3
297,14.8,393.0,44.053666190212404,-78.67955693658445,-33.3,-60.2,39.4,-50.6,3745.8,3746.0,86.4,1.0,1.0,1.0,0.0,1.0,1.0,0.0,0.0,0.0,100.0,1.0,1.186,26.0,0.0,-17.475,74.678,66.0,100.0,26.0,26.0,26.0,26.0,-0.31,-1.5,-0.09,387.8,-2.44,-2.22,-0.72,-1.38,-472.7,583.57,5.5,0.0,0.0,0.0,0.0,0.22,-7.49,-7.49,-0.89,-4.38,1.04,3.75,23.94,-0.02,-0.45,4.35,100.0,0.0,0.0,63.12,0.0,0.0,0.0,0.0,0.0,0.0,0.0,5331.0,0.0,30.0,0.0,86.4,0.0,0.0,0.0,0.0,0.0,0.0,1.0,0.0,14.809,14.809,84.921,21.577,0.0,110.0,435.8,8750.0,0.0,0.0,110.0,110.0,433.0,0.0,0.0,0.0,1.0,333.3,68.5,68.5,85.8,85.8,34.0,5.67,1.52,-9.0,-0.1,2.0,-176.99,39.1,100.0,24.2,20.1,29.7,20.2,0.0,1.0,50.0,0.0,0.0,0.0,0.0,5914.0,3829.0,2304.0,1542.0,310.7,315.4,349.5,351.0,25.98,24.11,27.92,26.92,325.0,325.0,355.0,355.0,100.0,99.94,100.0,100.0,-2.04,-1.94,-0.42,-0.25,-12.6,-17.6,-3.3,-7.2,88.4,76.7,94.3,88.0,101.3,94.9,101.5,96.9,97.5,90.5,99.9,94.6,95.3,88.5,98.6,93.1,2.14,-2.19,0.08,0.09,0.0,68.77,63.13,64.45,61.79,356.7,7.7,1.5343402490973115,18.36518726591575,80.66278327889636,-18.005085253571593,-18.00508553808342,0,3
298,14.85,394.1,44.05366861838074,-78.6795463245895,84.6,68.0,-125.7,-49.6,3747.0,3747.0,83.7,0.0,1.0,1.0,0.0,1.0,1.0,0.0,0.0,0.0,100.0,1.0,1.186,26.0,0.0,-17.472,74.678,66.0,100.0,26.0,26.0,26.0,26.0,-0.57,-1.38,-0.01,387.2,-2.72,-2.2,-0.58,-1.28,-471.52,583.84,5.5,0.0,0.0,0.0,0.0,0.23,-7.49,-7.49,-1.02,-1.73,1.14,1.6,23.19,0.09,-0.51,9.67,100.0,0.0,0.0,62.42,0.0,0.0,0.0,0.0,0.0,0.0,0.0,6241.0,0.0,30.0,0.0,83.7,1.0,0.0,0.0,0.0,0.0,0.0,1.0,0.0,14.859,14.859,84.921,21.577,1.0,110.0,435.8,8750.0,0.0,0.0,110.0,110.0,433.0,0.0,0.0,0.0,1.0,333.3,64.0,64.0,93.0,93.0,34.0,7.99,-39.97,-9.8,-0.9,2.0,-177.04,56.3,100.0,28.4,23.5,23.4,17.7,0.0,1.0,13.6,0.0,0.0,0.0,0.0,6504.0,3558.0,2385.0,2345.0,309.2,315.6,349.2,349.3,25.99,24.12,27.92,26.92,325.0,325.0,355.0,355.0,100.0,99.94,100.0,100.0,-2.35,-2.29,-0.48,-0.26,-10.3,-2.9,-3.4,-3.8,88.4,76.7,94.3,88.0,101.3,94.9,101.5,96.9,97.5,90.6,99.9,94.6,95.3,88.5,98.6,93.1,3.05,-3.14,0.11,0.09,0.0,64.12,65.4,62.92,61.91,356.7,7.7,1.4931175439328277,18.36518726591575,83.5435969308483,-21.60610281640711,-18.00508610710679,0,3
299,14.9,395.3,44.0536707767526,-78.67953607232319,-28.5,-57.4,-151.4,-39.8,3748.1,3748.0,81.3,1.0,1.0,1.0,0.0,1.0,1.0,0.0,0.0,0.0,100.0,1.0,1.186,26.0,0.0,-17.472,74.678,66.0,100.0,26.0,26.0,26.0,26.0,-0.47,-1.42,-0.13,392.2,-2.73,-2.26,-0.73,-1.38,-470.38,584.08,5.5,0.0,0.0,0.0,0.0,0.23,-7.49,-7.49,-1.07,-0.2,1.25,1.2,22.54,0.05,-0.41,13.91,100.0,0.0,0.0,60.19,0.0,0.0,0.0,0.0,0.0,0.0,0.0,6083.0,0.0,30.0,0.0,81.3,0.0,0.0,0.0,0.0,0.0,0.0,1.0,0.0,14.91,14.91,84.921,21.577,0.0,110.0,435.8,8750.0,0.0,0.0,110.0,110.0,433.0,0.0,0.0,0.0,1.0,333.3,69.7,69.7,98.0,98.0,34.0,3.91,-27.66,-16.2,-0.9,2.0,-177.09,76.6,100.0,27.0,20.6,15.8,15.7,0.0,1.0,0.0,0.0,0.0,0.0,0.0,3974.0,3110.0,2783.0,1986.0,315.0,316.7,348.4,350.1,25.99,24.12,27.92,26.92,325.0,325.0,355.0,355.0,100.0,99.94,100.0,100.0,-3.23,-3.31,-0.85,-0.59,-16.6,-3.6,-4.0,-7.7,88.4,76.8,94.3,88.0,101.3,95.0,101.4,96.8,97.6,90.6,99.8,94.6,95.4,88.5,98.5,93.0,4.21,-4.37,0.12,0.1,0.0,60.89,64.61,62.24,58.15,356.7,7.7,1.5013993472757339,16.20457698427504,78.86227466818568,-32.40915408235477,-64.8183081647096,0,3
300,14.95,396.4,44.053672665327966,-78.67952662944633,-66.6,-37.5,132.8,60.7,3749.2,3749.0,79.8,1.0,1.0,1.0,0.0,1.0,1.0,0.0,0.0,0.0,100.0,1.0,1.186,26.0,0.0,-17.466,74.678,66.0,100.0,26.0,26.0,26.0,26.0,-0.77,-1.05,-0.01,390.6,-3.57,-2.43,-1.31,-1.92,-469.33,584.29,5.5,0.0,0.0,0.0,0.0,0.23,-7.49,-7.49,-1.15,-2.72,1.17,-3.42,22.12,0.07,-0.39,16.77,100.0,0.0,0.0,59.52,0.0,0.0,0.0,0.0,0.0,0.0,0.0,5116.0,0.0,30.0,2.0,79.8,1.0,0.0,0.0,0.0,0.0,0.0,1.0,0.0,14.959,14.959,84.921,21.577,1.0,110.0,435.8,8750.0,0.0,0.0,110.0,110.0,433.0,0.0,0.0,0.0,1.0,333.3,72.9,72.9,90.8,90.8,34.0,3.2,1.55,-35.1,-4.1,2.0,-177.14,97.5,100.0,23.6,18.7,22.5,18.7,0.0,1.0,0.0,0.0,0.0,0.0,0.0,4695.0,2195.0,3744.0,1856.0,313.4,319.2,346.0,349.9,25.99,24.13,27.92,26.92,325.0,325.0,355.0,355.0,100.0,99.94,100.0,100.0,-4.1,-4.27,-0.94,-0.64,-6.8,-19.4,-3.0,-3.7,88.4,76.8,94.3,88.0,101.4,95.0,101.4,96.8,97.6,90.6,99.8,94.5,95.4,88.5,98.5,93.0,5.37,-5.62,0.09,0.09,0.0,59.51,54.99,60.62,58.43,356.7,7.7,1.3021136663133521,15.124271857680274,77.06176611437733,-21.606102531895317,-14.404068544271524,0,3
301,15.0,397.4,44.05367455390334,-78.67951682684082,16.3,36.9,54.8,-111.2,3750.3,3750.0,77.7,1.0,1.0,1.0,0.0,1.0,1.0,0.0,0.0,0.0,100.0,1.0,1.186,26.0,0.0,-17.466,74.678,66.0,100.0,26.0,26.0,26.0,26.0,-0.88,-1.17,-0.01,389.5,-3.5,-2.15,-1.58,-1.02,-468.24,584.5,5.5,0.0,0.0,0.0,0.0,0.23,-7.49,-7.49,-1.4,-3.98,1.04,-2.7,21.53,0.08,-0.42,20.37,100.0,0.0,0.0,55.45,0.0,0.0,0.0,0.0,0.0,0.0,0.0,4766.0,0.0,30.0,2.0,77.7,0.0,0.0,0.0,0.0,0.0,0.0,1.0,0.0,15.009,15.009,84.921,21.577,0.0,110.0,435.8,8750.0,0.0,0.0,110.0,110.0,433.0,0.0,0.0,0.0,1.0,333.3,66.6,66.6,88.0,88.0,34.0,14.09,6.4,-43.2,0.1,2.0,-177.19,125.1,100.0,24.5,20.6,25.2,13.2,0.0,1.0,0.0,0.0,0.0,0.0,0.0,6605.0,4275.0,3577.0,421.0,309.1,313.8,346.8,354.2,25.99,24.13,27.92,26.93,325.0,325.0,355.0,355.0,100.0,99.94,100.0,100.0,-5.38,-5.53,-1.08,-0.96,-11.3,-13.0,-1.9,-13.5,88.5,76.8,94.3,88.0,101.4,95.0,101.3,96.7,97.7,90.6,99.7,94.5,95.4,88.6,98.4,93.0,6.83,-7.25,0.09,0.11,0.0,57.51,53.9,60.27,50.63,356.7,7.7,1.4640355186948164,14.043966731085508,77.42186781375852,-36.01017107616675,-36.01017107616684,0,3
302,15.05,398.5,44.05367617268223,-78.67950729403181,110.6,71.9,-44.2,-65.8,3751.3,3751.0,75.3,1.0,1.0,1.0,0.0,1.0,1.0,0.0,0.0,0.0,100.0,1.0,1.186,26.0,0.0,-17.466,74.678,66.0,100.0,26.0,26.0,26.0,26.0,-0.82,-1.33,-0.02,388.4,-3.1,-2.61,-0.72,-2.06,-467.18,584.68,5.5,0.0,0.0,0.0,0.0,0.23,-7.49,-7.49,-1.51,1.23,0.89,-3.43,20.87,0.07,-0.47,26.9,100.0,0.0,0.0,53.63,0.0,0.0,0.0,0.0,0.0,0.0,0.0,4610.0,0.0,30.0,2.0,75.3,1.0,0.0,0.0,0.0,0.0,0.0,1.0,0.0,15.06,15.06,84.921,21.577,1.0,110.0,435.8,8750.0,0.0,0.0,110.0,110.0,433.0,0.0,0.0,0.0,1.0,333.3,61.7,61.7,92.5,92.5,34.0,15.04,5.53,-29.6,0.1,2.0,-177.24,144.8,100.0,30.0,24.2,23.0,9.9,0.0,1.0,0.0,0.0,0.0,0.0,0.0,7125.0,4121.0,3492.0,344.0,307.6,314.2,347.2,354.1,26.0,24.14,27.92,26.93,325.0,325.0,355.0,355.0,100.0,99.94,100.0,100.0,-6.08,-6.4,-1.48,-1.38,-13.2,-16.5,-4.0,-13.9,88.5,76.9,94.3,88.0,101.5,95.0,101.3,96.7,97.7,90.7,99.7,94.4,95.5,88.6,98.4,92.9,7.99,-8.56,0.1,0.11,0.0,55.26,54.28,56.98,50.29,356.7,7.7,1.5625939971726501,11.523254750063598,73.46074900676065,-46.81322234211437,-57.61627303903836,0,3
303,15.1,399.5,44.05367743173248,-78.67949848068007,55.9,-7.2,-5.9,-44.0,3752.3,3752.0,73.1,1.0,1.0,1.0,0.0,1.0,1.0,0.0,0.0,0.0,100.0,1.0,1.186,26.0,0.0,-17.457,74.678,66.0,100.0,26.0,26.0,26.0,26.0,-0.78,-1.33,-0.07,389.2,-3.13,-2.41,-0.29,-2.83,-466.2,584.82,5.5,0.0,0.0,0.0,0.0,0.23,-7.49,-7.49,-1.34,6.58,0.82,1.21,20.27,0.0,-0.41,31.21,100.0,0.0,0.0,52.59,0.0,0.0,0.0,0.0,0.0,0.0,0.0,4520.0,0.0,30.0,2.0,73.1,0.0,0.0,0.0,0.0,0.0,0.0,1.0,0.0,15.109,15.109,84.921,21.577,0.0,110.0,435.8,8750.0,0.0,0.0,110.0,110.0,433.0,0.0,0.0,0.0,1.0,333.3,62.1,62.1,97.6,97.6,34.0,15.44,3.38,-2.3,-0.6,2.0,-177.29,159.2,100.0,32.8,23.8,22.7,7.7,0.0,1.0,0.0,0.0,0.0,0.0,0.0,6936.0,2858.0,2639.0,755.0,307.4,317.3,349.2,353.1,26.0,24.14,27.92,26.93,325.0,325.0,355.0,355.0,100.0,99.94,100.0,100.0,-6.75,-7.27,-2.03,-1.95,-13.4,-20.0,-8.0,-7.9,88.5,76.9,94.3,88.0,101.6,95.1,101.2,96.6,97.8,90.7,99.7,94.4,95.6,88.6,98.4,92.9,8.79,-9.5,0.1,0.12,0.0,53.44,49.54,53.69,51.5,356.7,7.7,1.543437721451695,9.36264449687407,71.66024050985469,-36.010171076166735,-18.00508553808328,0,3
