,Time,Distance,GPS Latitude,GPS Longitude,Damper Velocity (Calc) FL,Damper Velocity (Calc) FR,Damper Velocity (Calc) RL,Damper Velocity (Calc) RR,Corr Dist,Corr Dist (Unstretched),Corr Speed,ABS Active,ABS Enabled,AID Allow Tire Blankets,AID Auto Blip,AID Auto Clutch,AID Auto Shift,AID Fuel Rate,AID Ideal Line,AID Mech Damage,AID Stability,AID Tire Wear Rate,Air Density,Air Temp,Ballast,Best Lap Delta,Best Lap Time,Brake Bias,Brake Pos,Brake Temp FL,Brake Temp FR,Brake Temp RL,Brake Temp RR,CG Accel Lateral,CG Accel Longitudinal,CG Accel Vertical,CG Height,Camber FL,Camber FR,Camber RL,Camber RR,Car Coord X,Car Coord Y,Car Coord Z,Car Damage Front,Car Damage Left,Car Damage Rear,Car Damage Right,Car Pos Norm,Caster FL,Caster FR,Chassis Pitch Angle,Chassis Pitch Rate,Chassis Roll Angle,Chassis Roll Rate,Chassis Velocity X,Chassis Velocity Y,Chassis Velocity Z,Chassis Yaw Rate,Clutch Pos,DRS Active,DRS Available,Drive Train Speed,ERS Heat Charging,ERS Is Charging,ERS Max Energy,ERS Power Level,ERS Recovery Level,Engine Brake Setting,Engine Limiter,Engine RPM,Flags,Fuel Level,Gear,Ground Speed,HR Sample Clock,In Pit,KERS Charge,KERS Deployed Energy,KERS Input,KERS Max Energy,LR Sample Clock,Lap Invalidated,Lap Time,Lap Time2,Last Lap Time,Last Sector Time,MR Sample Clock,Max Fuel,Max Power,Max RPM,Max Sus Travel FL,Max Sus Travel FR,Max Sus Travel RL,Max Sus Travel RR,Max Torque,Max Turbo Boost,Num Tires Off Track,Penalties Enabled,Position,Raw Data Sample Rate,Ride Height FL,Ride Height FR,Ride Height RL,Ride Height RR,Road Temp,Self Align Torque FL,Self Align Torque FR,Self Align Torque RL,Self Align Torque RR,Session Lap Count,Session Time Left,Steering Angle,Surface Grip,Suspension Travel FL,Suspension Travel FR,Suspension Travel RL,Suspension Travel RR,TC Active,TC Enabled,Throttle Pos,Tire Dirt Level FL,Tire Dirt Level FR,Tire Dirt Level RL,Tire Dirt Level RR,Tire Load FL,Tire Load FR,Tire Load RL,Tire Load RR,Tire Loaded Radius FL,Tire Loaded Radius FR,Tire Loaded Radius RL,Tire Loaded Radius RR,Tire Pressure FL,Tire Pressure FR,Tire Pressure RL,Tire Pressure RR,Tire Radius FL,Tire Radius FR,Tire Radius RL,Tire Radius RR,Tire Rubber Grip FL,Tire Rubber Grip FR,Tire Rubber Grip RL,Tire Rubber Grip RR,Tire Slip Angle FL,Tire Slip Angle FR,Tire Slip Angle RL,Tire Slip Angle RR,Tire Slip Ratio FL,Tire Slip Ratio FR,Tire Slip Ratio RL,Tire Slip Ratio RR,Tire Temp Core FL,Tire Temp Core FR,Tire Temp Core RL,Tire Temp Core RR,Tire Temp Inner FL,Tire Temp Inner FR,Tire Temp Inner RL,Tire Temp Inner RR,Tire Temp Middle FL,Tire Temp Middle FR,Tire Temp Middle RL,Tire Temp Middle RR,Tire Temp Outer FL,Tire Temp Outer FR,Tire Temp Outer RL,Tire Temp Outer RR,Toe In FL,Toe In FR,Toe In RL,Toe In RR,Turbo Boost,Wheel Angular Speed FL,Wheel Angular Speed FR,Wheel Angular Speed RL,Wheel Angular Speed RR,Wind Direction,Wind Speed,CG Distance,Lateral Velocity,Longitudinal Velocity,Lateral Acceleration,Longitudinal Acceleration,level,curve_number
200,9.95,317.0,44.05350359286606,-78.68018547245482,57.9,69.7,-200.1,-286.5,1888.3,1888.0,126.1,0.0,1.0,1.0,0.0,1.0,1.0,0.0,0.0,0.0,100.0,1.0,1.186,26.0,0.0,-20.271,74.678,66.0,0.0,26.0,26.0,26.0,26.0,-0.13,0.58,-0.18,391.6,-2.49,-2.2,-1.13,-1.52,-542.59,565.49,5.5,0.0,0.0,0.0,0.0,0.18,-7.49,-7.49,-0.97,-5.98,1.35,0.38,35.05,-0.04,-0.33,2.97,100.0,0.0,0.0,102.63,0.0,0.0,0.0,0.0,0.0,0.0,0.0,6880.0,0.0,30.0,3.0,126.1,1.0,0.0,0.0,0.0,0.0,0.0,1.0,0.0,9.981,9.981,74.679,19.926,1.0,110.0,435.8,8750.0,0.0,0.0,110.0,110.0,433.0,0.0,0.0,0.0,1.0,333.3,81.8,81.8,83.1,83.1,34.0,-25.76,5.21,-7.8,3.8,1.0,-87.24,4.3,100.0,12.3,11.9,25.8,24.5,0.0,1.0,100.0,0.0,0.0,0.0,0.0,3504.0,3560.0,2804.0,4032.0,316.1,315.6,347.8,344.4,24.61,23.46,25.31,24.66,325.0,325.0,355.0,355.0,99.71,99.68,99.69,99.67,-0.3,-0.15,-0.28,-0.09,-0.1,-0.1,4.4,4.8,79.8,72.6,77.9,73.8,83.9,85.1,81.0,79.2,81.1,81.8,79.3,77.6,79.2,80.0,78.4,77.1,0.27,-0.27,0.09,0.08,0.0,107.49,107.26,102.63,102.63,356.7,7.7,0.6210475022089695,36.01017110461793,123.51488687091532,-2.845117563765598e-07,18.00508553808342,0,2
201,10.0,318.8,44.053508089474086,-78.6801700041232,133.0,161.4,-16.5,-13.0,1890.0,1890.0,127.1,0.0,1.0,1.0,0.0,1.0,1.0,0.0,0.0,0.0,100.0,1.0,1.186,26.0,0.0,-20.271,74.678,66.0,0.0,26.0,26.0,26.0,26.0,-0.15,0.61,0.14,385.8,-2.28,-2.81,-1.43,-1.3,-540.87,565.99,5.5,0.0,0.0,0.0,0.0,0.18,-7.49,-7.49,-1.09,1.15,1.18,-4.79,35.31,-0.07,-0.37,3.69,100.0,0.0,0.0,102.85,0.0,0.0,0.0,0.0,0.0,0.0,0.0,6894.0,0.0,30.0,3.0,127.1,0.0,0.0,0.0,0.0,0.0,0.0,1.0,0.0,10.031,10.031,74.679,19.926,0.0,110.0,435.8,8750.0,0.0,0.0,110.0,110.0,433.0,0.0,0.0,0.0,1.0,333.3,71.3,71.3,78.9,78.9,34.0,-34.27,15.62,-18.7,2.9,1.0,-87.29,4.1,100.0,19.0,20.0,25.0,23.8,0.0,1.0,100.0,0.0,0.0,0.0,0.0,4783.0,4563.0,4299.0,3502.0,312.8,312.7,344.1,345.7,24.61,23.47,25.31,24.66,325.0,325.0,355.0,355.0,99.71,99.68,99.69,99.67,-0.26,-0.09,-0.31,-0.09,-0.1,-0.1,3.7,3.9,79.8,72.7,77.9,73.9,83.8,85.0,80.9,79.1,81.1,81.7,79.2,77.6,79.1,79.9,78.4,77.1,0.24,-0.24,0.09,0.08,0.0,108.66,108.27,102.84,102.84,356.7,7.7,0.6435837163881635,34.92986594957199,120.99417486144219,-10.803051550459415,-14.404069113295463,0,2
202,10.05,320.6,44.053512316285634,-78.68015525524886,170.8,110.6,154.9,65.2,1891.8,1892.0,128.0,0.0,1.0,1.0,0.0,1.0,1.0,0.0,0.0,0.0,100.0,1.0,1.186,26.0,0.0,-20.271,74.678,66.0,0.0,26.0,26.0,26.0,26.0,-0.24,0.46,0.43,377.8,-2.4,-4.53,-1.6,-0.96,-539.23,566.46,5.5,0.0,0.0,0.0,0.0,0.18,-7.49,-7.49,-0.84,8.92,1.06,-1.28,35.56,-0.09,-0.33,3.83,100.0,0.0,0.0,102.73,0.0,0.0,0.0,0.0,0.0,0.0,0.0,6887.0,0.0,30.0,3.0,128.0,1.0,0.0,0.0,0.0,0.0,0.0,1.0,0.0,10.08,10.08,74.679,19.926,1.0,110.0,435.8,8750.0,0.0,0.0,110.0,110.0,433.0,0.0,0.0,0.0,1.0,166.7,62.7,62.7,72.2,72.2,34.0,-47.24,24.25,-32.2,-1.2,1.0,-87.34,4.1,100.0,27.5,25.5,32.7,27.1,0.0,1.0,100.0,0.0,0.0,0.0,0.0,5888.0,4711.0,4726.0,4712.0,309.9,312.1,342.9,343.2,24.61,23.47,25.31,24.66,325.0,325.0,355.0,355.0,99.71,99.68,99.69,99.67,-0.28,-0.16,-0.37,-0.17,-0.1,-0.1,2.3,2.7,79.8,72.7,77.9,73.9,83.8,85.0,80.9,79.1,81.0,81.7,79.2,77.6,79.1,79.9,78.4,77.0,0.25,-0.23,0.08,0.08,0.0,109.7,109.3,102.73,102.73,356.7,7.7,0.6738694235532577,34.92986594957199,122.07447995958577,10.803051265947659,57.6162736080623,0,2
203,10.1,322.4,44.05351681289366,-78.68013951712076,-7.4,-19.3,198.8,213.9,1893.6,1894.0,128.9,0.0,1.0,1.0,0.0,1.0,1.0,0.0,0.0,0.0,100.0,1.0,1.186,26.0,0.0,-20.268,74.678,66.0,0.0,26.0,26.0,26.0,26.0,-0.23,0.54,0.31,374.2,-2.24,-1.96,-1.4,-2.49,-537.48,566.96,5.5,0.0,0.0,0.0,0.0,0.19,-7.49,-7.49,-0.29,10.29,0.99,-0.75,35.83,-0.08,-0.17,3.48,100.0,0.0,0.0,102.98,0.0,0.0,0.0,0.0,0.0,0.0,0.0,6903.0,0.0,30.0,3.0,128.9,0.0,0.0,0.0,0.0,0.0,0.0,0.0,0.0,10.131,10.131,74.679,19.926,0.0,110.0,435.8,8750.0,0.0,0.0,110.0,110.0,433.0,0.0,0.0,0.0,1.0,333.3,69.4,69.4,58.6,58.6,34.0,-22.82,-0.1,-45.7,15.9,1.0,-87.39,4.1,100.0,27.2,24.6,42.7,37.8,0.0,1.0,100.0,0.0,0.0,0.0,0.0,3610.0,2592.0,6322.0,6075.0,315.8,317.9,338.9,339.2,24.61,23.47,25.31,24.66,325.0,325.0,355.0,355.0,99.71,99.68,99.69,99.67,-0.23,-0.23,-0.35,-0.18,-0.0,-0.0,1.8,2.1,79.8,72.7,77.9,73.9,83.8,84.9,80.9,79.1,81.0,81.7,79.2,77.6,79.1,79.8,78.4,77.0,0.24,-0.24,0.05,0.05,0.0,110.38,110.08,102.98,102.98,356.7,7.7,0.6637770710110437,36.010171076166756,126.75580222224842,7.202034272135691,57.61627417708581,0,2
204,10.15,324.2,44.05352130950169,-78.68012359912834,-204.9,-147.7,173.1,162.6,1895.4,1895.0,129.9,0.0,1.0,1.0,0.0,1.0,1.0,0.0,0.0,0.0,100.0,1.0,1.186,26.0,0.0,-20.268,74.678,66.0,0.0,26.0,26.0,26.0,26.0,-0.29,0.53,0.09,375.3,-2.92,-2.3,-1.65,-1.57,-535.71,567.46,5.5,0.0,0.0,0.0,0.0,0.19,-7.49,-7.49,-0.03,-0.14,1.03,0.46,36.1,-0.07,-0.13,2.74,100.0,0.0,0.0,103.41,0.0,0.0,0.0,0.0,0.0,0.0,0.0,6932.0,0.0,30.0,3.0,129.9,1.0,0.0,0.0,0.0,0.0,0.0,0.0,0.0,10.181,10.181,74.679,19.926,1.0,110.0,435.8,8750.0,0.0,0.0,110.0,110.0,433.0,0.0,0.0,0.0,1.0,333.3,79.9,79.9,48.5,48.5,34.0,-24.24,-1.02,-49.2,1.8,1.0,-87.44,4.7,100.0,16.9,17.2,51.3,45.9,0.0,1.0,100.0,0.0,0.0,0.0,0.0,3207.0,2052.0,6782.0,6143.0,317.1,319.2,337.6,339.2,24.61,23.48,25.31,24.66,325.0,325.0,355.0,355.0,99.71,99.68,99.69,99.67,-0.3,-0.31,-0.28,-0.21,-0.1,-0.0,1.7,2.0,79.8,72.7,78.0,73.9,83.7,84.9,80.9,79.1,81.0,81.6,79.2,77.6,79.0,79.8,78.4,77.0,0.27,-0.29,0.01,0.03,0.0,110.79,110.63,103.41,103.41,356.7,7.7,0.6108191221630181,35.65006937678556,127.83610737729435,-18.005085253571593,-21.60610253189546,0,2
205,10.2,326.0,44.05352571617756,-78.68010759120375,2.7,15.8,-99.6,-105.7,1897.2,1897.0,130.8,0.0,1.0,1.0,0.0,1.0,1.0,0.0,0.0,0.0,100.0,1.0,1.186,26.0,0.0,-20.265,74.678,66.0,0.0,26.0,26.0,26.0,26.0,-0.15,0.47,-0.08,380.7,-2.67,-2.32,-0.75,-1.8,-533.93,567.95,5.5,0.0,0.0,0.0,0.0,0.19,-7.49,-7.49,-0.18,-3.83,0.94,-2.61,36.34,-0.05,-0.28,2.72,100.0,0.0,0.0,104.94,0.0,0.0,0.0,0.0,0.0,0.0,0.0,7035.0,0.0,30.0,3.0,130.8,0.0,0.0,0.0,0.0,0.0,0.0,0.0,0.0,10.233,10.233,74.679,19.926,0.0,110.0,435.8,8750.0,0.0,0.0,110.0,110.0,433.0,0.0,0.0,0.0,1.0,166.7,78.7,78.7,58.0,58.0,34.0,-20.26,0.63,-14.3,4.7,1.0,-87.49,5.3,100.0,17.1,18.0,46.3,40.6,0.0,1.0,100.0,0.0,0.0,0.0,0.0,2907.0,2769.0,4365.0,3305.0,317.7,317.7,343.1,346.4,24.61,23.48,25.31,24.66,325.0,325.0,355.0,355.0,99.71,99.68,99.69,99.67,-0.28,-0.25,-0.19,-0.13,-0.1,-0.0,2.5,2.7,79.8,72.8,78.0,73.9,83.7,84.8,80.9,79.1,80.9,81.6,79.2,77.5,79.0,79.7,78.4,77.0,0.31,-0.32,0.04,0.04,0.0,111.4,111.22,104.94,104.94,356.7,7.7,0.49979995998399196,34.2096625508096,124.59519196905887,-10.803051265947587,-21.606103100919256,0,2
206,10.25,327.8,44.05352985305695,-78.68009248260077,54.2,-106.3,-193.2,-125.3,1899.1,1899.0,131.6,0.0,1.0,1.0,0.0,1.0,1.0,0.0,0.0,0.0,100.0,1.0,1.186,26.0,0.0,-20.265,74.678,66.0,0.0,26.0,26.0,26.0,26.0,-0.19,0.49,-0.09,385.1,-1.6,-3.12,-0.68,-2.28,-532.25,568.41,5.5,0.0,0.0,0.0,0.0,0.19,-7.49,-7.49,-0.34,-3.21,0.91,3.73,36.58,-0.06,-0.31,3.57,100.0,0.0,0.0,105.54,0.0,0.0,0.0,0.0,0.0,0.0,0.0,7075.0,0.0,30.0,3.0,131.6,1.0,0.0,0.0,0.0,0.0,0.0,0.0,0.0,10.281,10.281,74.679,19.926,1.0,110.0,435.8,8750.0,0.0,0.0,110.0,110.0,433.0,0.0,0.0,0.0,1.0,166.7,80.5,80.5,76.4,76.4,34.0,-27.95,0.01,-19.4,7.8,1.0,-87.54,5.9,100.0,19.8,12.7,36.7,34.4,0.0,1.0,100.0,0.0,0.0,0.0,0.0,3941.0,800.0,4443.0,4320.0,314.4,322.6,343.9,343.5,24.61,23.48,25.31,24.66,325.0,325.0,355.0,355.0,99.71,99.68,99.69,99.67,-0.35,-0.36,-0.32,-0.17,-0.1,-0.1,2.6,2.9,79.8,72.8,78.0,73.9,83.6,84.8,80.9,79.1,80.9,81.5,79.2,77.5,78.9,79.7,78.4,77.0,0.33,-0.35,0.08,0.05,0.0,112.32,111.81,105.53,105.53,356.7,7.7,0.5331978994707313,34.5697642501908,125.67549706720243,3.601016709300211,21.60610253189546,0,2
207,10.3,329.7,44.05353434966498,-78.68007620487971,-4.7,6.6,-110.4,-0.4,1900.9,1901.0,132.5,0.0,1.0,1.0,0.0,1.0,1.0,0.0,0.0,0.0,100.0,1.0,1.186,26.0,0.0,-20.265,74.678,66.0,0.0,26.0,26.0,26.0,26.0,-0.25,0.45,-0.22,387.1,-3.3,-2.08,-0.55,-1.14,-530.44,568.91,5.5,0.0,0.0,0.0,0.0,0.19,-7.49,-7.49,-0.51,-3.05,1.19,3.59,36.82,-0.06,-0.36,3.62,100.0,0.0,0.0,106.65,0.0,0.0,0.0,0.0,0.0,0.0,0.0,7149.0,0.0,30.0,3.0,132.5,0.0,0.0,0.0,0.0,0.0,0.0,0.0,0.0,10.331,10.331,74.679,19.926,0.0,110.0,435.8,8750.0,0.0,0.0,110.0,110.0,433.0,0.0,0.0,0.0,1.0,333.3,79.4,79.4,79.6,79.6,34.0,-28.19,-2.88,-15.1,-1.6,1.0,-87.59,6.3,100.0,19.5,13.0,31.1,34.3,0.0,1.0,100.0,0.0,0.0,0.0,0.0,3126.0,2764.0,3629.0,3077.0,316.9,318.3,345.3,346.6,24.61,23.49,25.31,24.67,325.0,325.0,355.0,355.0,99.71,99.68,99.69,99.67,-0.38,-0.34,-0.36,-0.24,-0.1,-0.1,2.8,3.1,79.8,72.8,78.0,73.9,83.6,84.7,80.9,79.1,80.8,81.4,79.2,77.5,78.9,79.6,78.3,77.0,0.36,-0.37,0.09,0.06,0.0,112.92,112.66,106.65,106.65,356.7,7.7,0.5598214000911362,34.56976422173962,126.75580222224842,-7.202034272135833,21.606103100919256,0,2
208,10.35,331.5,44.05353848654436,-78.68006082648024,-87.3,59.0,19.1,-137.8,1902.7,1903.0,133.4,0.0,1.0,1.0,0.0,1.0,1.0,0.0,0.0,0.0,100.0,1.0,1.186,26.0,0.0,-20.262,74.678,66.0,0.0,26.0,26.0,26.0,26.0,-0.3,0.56,0.0,385.6,-2.86,-2.69,-0.53,-2.45,-528.73,569.37,5.5,0.0,0.0,0.0,0.0,0.19,-7.49,-7.49,-0.62,-1.84,1.38,3.42,37.06,-0.08,-0.34,4.73,100.0,0.0,0.0,107.03,0.0,0.0,0.0,0.0,0.0,0.0,0.0,7175.0,0.0,30.0,3.0,133.4,1.0,0.0,0.0,0.0,0.0,0.0,0.0,0.0,10.38,10.38,74.679,19.926,1.0,110.0,435.8,8750.0,0.0,0.0,110.0,110.0,433.0,0.0,0.0,0.0,1.0,333.3,77.6,77.6,69.4,69.4,34.0,-40.43,0.23,-29.0,3.7,1.0,-87.64,6.4,100.0,15.2,15.9,32.1,27.5,0.0,1.0,100.0,0.0,0.0,0.0,0.0,4200.0,4015.0,5377.0,3798.0,314.7,314.5,340.7,345.1,24.61,23.49,25.31,24.67,325.0,325.0,355.0,355.0,99.71,99.68,99.69,99.67,-0.46,-0.3,-0.44,-0.27,-0.2,-0.1,2.9,3.2,79.8,72.8,78.0,73.9,83.5,84.6,80.9,79.1,80.8,81.4,79.2,77.5,78.9,79.6,78.3,77.0,0.37,-0.38,0.08,0.07,0.0,113.81,113.51,107.03,107.03,356.7,7.7,0.6352952069707437,33.84956082297722,127.83610737729435,2.8451182743083336e-07,57.616273608062016,0,2
209,10.4,333.4,44.053542803288074,-78.6800442789627,77.2,98.6,-23.1,38.7,1904.6,1905.0,134.2,0.0,1.0,1.0,0.0,1.0,1.0,0.0,0.0,0.0,100.0,1.0,1.186,26.0,0.0,-20.262,74.678,66.0,0.0,26.0,26.0,26.0,26.0,-0.22,0.5,-0.04,385.8,-2.93,-2.35,-1.32,-1.29,-526.89,569.85,5.5,0.0,0.0,0.0,0.0,0.19,-7.49,-7.49,-0.6,2.35,1.33,-5.71,37.3,-0.11,-0.34,4.63,100.0,0.0,0.0,108.01,0.0,0.0,0.0,0.0,0.0,0.0,0.0,7241.0,0.0,30.0,3.0,134.2,0.0,0.0,0.0,0.0,0.0,0.0,0.0,0.0,10.431,10.431,74.679,19.926,0.0,110.0,435.8,8750.0,0.0,0.0,110.0,110.0,433.0,0.0,0.0,0.0,1.0,333.3,75.7,75.7,74.2,74.2,34.0,-26.77,-0.15,-21.6,-0.3,1.0,-87.69,5.3,100.0,19.0,20.9,30.9,29.4,0.0,1.0,100.0,0.0,0.0,0.0,0.0,3340.0,2469.0,3846.0,3389.0,316.4,318.3,344.5,345.9,24.61,23.49,25.31,24.67,325.0,325.0,355.0,355.0,99.71,99.68,99.69,99.67,-0.32,-0.28,-0.36,-0.21,-0.1,-0.0,2.6,3.1,79.8,72.8,78.0,73.9,83.5,84.6,80.9,79.1,80.7,81.3,79.2,77.5,78.8,79.5,78.3,77.0,0.33,-0.33,0.07,0.07,0.0,114.69,114.25,108.01,108.01,356.7,7.7,0.5477225575051661,34.5697642501908,132.51742958305462,10.80305126594773,54.01525661425012,0,2
210,10.45,335.3,44.05354712003178,-78.68002773144515,-21.8,-53.4,179.3,40.7,1906.5,1906.0,135.2,0.0,1.0,1.0,0.0,1.0,1.0,0.0,0.0,0.0,100.0,1.0,1.186,26.0,0.0,-20.262,74.678,66.0,0.0,26.0,26.0,26.0,26.0,-0.26,0.52,0.2,380.8,-1.81,-1.47,-1.29,-1.6,-525.05,570.33,5.5,0.0,0.0,0.0,0.0,0.19,-7.49,-7.49,-0.5,0.83,0.95,-6.95,37.56,-0.14,-0.26,4.19,100.0,0.0,0.0,107.76,0.0,0.0,0.0,0.0,0.0,0.0,0.0,7224.0,0.0,30.0,3.0,135.2,1.0,0.0,0.0,0.0,0.0,0.0,0.0,0.0,10.481,10.481,74.679,19.926,1.0,110.0,435.8,8750.0,0.0,0.0,110.0,110.0,433.0,0.0,0.0,0.0,1.0,333.3,75.9,75.9,61.8,61.8,34.0,-22.52,0.63,-42.0,2.3,1.0,-87.74,2.5,100.0,17.9,18.2,39.9,31.4,0.0,1.0,100.0,0.0,0.0,0.0,0.0,3916.0,3296.0,5716.0,5157.0,314.5,316.2,340.2,341.6,24.61,23.49,25.32,24.67,325.0,325.0,355.0,355.0,99.71,99.68,99.69,99.67,-0.22,-0.15,-0.4,-0.21,-0.1,-0.0,2.0,2.2,79.8,72.8,78.0,73.9,83.4,84.5,80.9,79.1,80.7,81.3,79.1,77.5,78.8,79.5,78.3,77.0,0.18,-0.18,0.05,0.07,0.0,115.49,115.09,107.76,107.76,356.7,7.7,0.6148170459575759,34.92986594957199,133.23763303871937,-10.80305126594773,-18.005084969059908,0,2
211,10.5,337.1,44.05355152670765,-78.68001100406327,130.1,-13.6,-7.0,-9.4,1908.4,1908.0,136.0,0.0,1.0,1.0,0.0,1.0,1.0,0.0,0.0,0.0,100.0,1.0,1.186,26.0,0.0,-20.259,74.678,66.0,0.0,26.0,26.0,26.0,26.0,-0.25,0.34,-0.14,382.5,-2.22,-2.69,-1.86,-0.76,-523.19,570.82,5.5,0.0,0.0,0.0,0.0,0.19,-7.49,-7.49,-0.46,1.74,0.81,3.56,37.79,-0.15,-0.28,3.79,100.0,0.0,0.0,109.53,0.0,0.0,0.0,0.0,0.0,0.0,0.0,7342.0,0.0,30.0,3.0,136.0,0.0,0.0,0.0,0.0,0.0,0.0,0.0,0.0,10.533,10.533,74.679,19.926,0.0,110.0,435.8,8750.0,0.0,0.0,110.0,110.0,433.0,0.0,0.0,0.0,1.0,166.7,73.4,73.4,74.3,74.3,34.0,-38.62,0.91,-31.2,-6.2,1.0,-87.79,1.2,100.0,24.4,17.5,39.6,31.0,0.0,1.0,100.0,0.0,0.0,0.0,0.0,5529.0,925.0,4405.0,3555.0,311.1,321.9,344.3,347.0,24.61,23.5,25.32,24.67,325.0,325.0,355.0,355.0,99.71,99.68,99.69,99.67,-0.24,-0.22,-0.45,-0.33,-0.1,-0.1,2.7,3.0,79.8,72.9,78.0,73.9,83.4,84.5,80.8,79.1,80.6,81.2,79.1,77.5,78.7,79.4,78.3,76.9,0.07,-0.09,0.07,0.07,0.0,116.13,115.74,109.52,109.52,356.7,7.7,0.44463468150831426,33.48945912359603,130.71692108614863,-18.00508553808335,-14.404068544271524,0,2
212,10.55,339.1,44.05355548372272,-78.67999508607085,23.5,10.1,-32.1,155.7,1910.3,1910.0,136.9,0.0,1.0,1.0,0.0,1.0,1.0,0.0,0.0,0.0,100.0,1.0,1.186,26.0,0.0,-20.259,74.678,66.0,0.0,26.0,26.0,26.0,26.0,-0.33,0.55,0.43,375.6,-2.66,-2.6,-1.98,-1.52,-521.42,571.26,5.5,0.0,0.0,0.0,0.0,0.19,-7.49,-7.49,-0.37,2.03,1.07,4.15,38.04,-0.11,-0.28,1.86,100.0,0.0,0.0,109.07,0.0,0.0,0.0,0.0,0.0,0.0,0.0,7311.0,0.0,30.0,3.0,136.9,1.0,0.0,0.0,0.0,0.0,0.0,0.0,0.0,10.581,10.581,74.679,19.926,1.0,110.0,435.8,8750.0,0.0,0.0,110.0,110.0,433.0,0.0,0.0,0.0,1.0,166.7,68.4,68.4,67.2,67.2,34.0,-43.1,10.02,-60.6,-0.7,1.0,-87.84,-0.5,100.0,25.6,18.0,38.0,38.7,0.0,1.0,100.0,0.0,0.0,0.0,0.0,5899.0,3753.0,6722.0,4984.0,309.3,315.3,337.7,341.7,24.61,23.5,25.32,24.67,325.0,325.0,355.0,355.0,99.71,99.68,99.69,99.67,-0.18,-0.11,-0.41,-0.24,-0.1,-0.1,2.0,2.2,79.8,72.9,78.0,74.0,83.4,84.4,80.8,79.1,80.6,81.2,79.1,77.5,78.7,79.4,78.3,76.9,-0.0,-0.0,0.06,0.04,0.0,116.99,116.71,109.07,109.07,356.7,7.7,0.7722046360907192,33.129357395763655,131.7972261842922,-2.8451182743083336e-07,14.40406797524787,0,2
213,10.6,341.0,44.053559800466424,-78.6799780888925,-195.2,5.6,48.5,-38.2,1912.2,1912.0,137.7,0.0,1.0,1.0,0.0,1.0,1.0,0.0,0.0,0.0,100.0,1.0,1.186,26.0,0.0,-20.259,74.678,66.0,0.0,26.0,26.0,26.0,26.0,-0.1,0.48,-0.16,382.5,-2.65,-1.99,-1.71,-1.42,-519.53,571.74,5.5,0.0,0.0,0.0,0.0,0.2,-7.49,-7.49,-0.28,-0.12,1.38,5.21,38.28,-0.06,-0.24,0.07,100.0,0.0,0.0,110.11,0.0,0.0,0.0,0.0,0.0,0.0,0.0,7381.0,0.0,30.0,3.0,137.7,0.0,0.0,0.0,0.0,0.0,0.0,1.0,0.0,10.631,10.631,74.679,19.926,0.0,110.0,435.8,8750.0,0.0,0.0,110.0,110.0,433.0,0.0,0.0,0.0,1.0,333.3,80.2,80.2,62.8,62.8,34.0,-9.77,6.12,-24.0,5.9,1.0,-87.89,-2.7,100.0,15.9,18.3,40.4,36.8,0.0,1.0,100.0,0.0,0.0,0.0,0.0,2651.0,2401.0,4351.0,5397.0,318.7,318.6,343.5,341.3,24.61,23.5,25.32,24.67,325.0,325.0,355.0,355.0,99.71,99.68,99.69,99.67,-0.0,-0.02,-0.24,-0.12,-0.1,-0.1,2.3,2.4,79.8,72.9,78.0,74.0,83.3,84.4,80.8,79.0,80.5,81.1,79.1,77.5,78.6,79.3,78.3,76.9,-0.15,0.14,0.06,0.06,0.0,117.24,117.37,110.11,110.11,356.7,7.7,0.5157518783291051,33.489459095144845,132.15732788367342,0.0,10.803050981435831,0,2
214,10.65,342.9,44.05356384741365,-78.67996208096791,-20.6,9.6,-10.3,80.9,1914.1,1914.0,138.6,0.0,1.0,1.0,0.0,1.0,1.0,0.0,0.0,0.0,100.0,1.0,1.186,26.0,0.0,-20.259,74.678,66.0,0.0,26.0,26.0,26.0,26.0,0.04,0.36,-0.04,382.1,-2.46,-2.25,-1.77,-1.16,-517.75,572.19,5.5,0.0,0.0,0.0,0.0,0.2,-7.49,-7.49,-0.39,-3.96,1.42,-3.04,38.5,-0.03,-0.34,-1.63,100.0,0.0,0.0,110.91,0.0,0.0,0.0,0.0,0.0,0.0,0.0,7435.0,0.0,30.0,3.0,138.6,1.0,0.0,0.0,0.0,0.0,0.0,1.0,0.0,10.68,10.68,74.679,19.926,1.0,110.0,435.8,8750.0,0.0,0.0,110.0,110.0,433.0,0.0,0.0,0.0,1.0,333.3,78.0,78.0,62.6,62.6,34.0,-4.4,27.1,-10.4,10.3,1.0,-87.94,-4.5,100.0,14.8,18.8,39.9,40.9,0.0,1.0,100.0,0.0,0.0,0.0,0.0,2344.0,4444.0,3429.0,3947.0,319.0,313.4,346.0,344.6,24.61,23.51,25.32,24.68,325.0,325.0,355.0,355.0,99.71,99.68,99.7,99.67,0.13,0.19,-0.02,0.06,-0.1,-0.1,2.3,2.3,79.8,72.9,78.0,74.0,83.2,84.3,80.8,79.0,80.5,81.1,79.1,77.4,78.6,79.3,78.3,76.9,-0.24,0.23,0.06,0.04,0.0,117.89,118.05,110.91,110.91,356.7,7.7,0.3644173431657719,33.129357395763655,132.8775312824358,10.803051550459557,61.21729060187391,0,2
215,10.7,344.8,44.0535680742252,-78.67994490392525,7.9,-44.9,-157.1,-165.3,1916.0,1916.0,139.4,0.0,1.0,1.0,0.0,1.0,1.0,0.0,0.0,0.0,100.0,1.0,1.186,26.0,0.0,-20.259,74.678,66.0,0.0,26.0,26.0,26.0,26.0,0.09,0.44,-0.28,387.7,-2.7,-2.4,-1.37,-1.61,-515.84,572.66,5.5,0.0,0.0,0.0,0.0,0.2,-7.49,-7.49,-0.5,-2.08,1.17,-3.73,38.73,0.02,-0.32,-2.3,100.0,0.0,0.0,111.87,0.0,0.0,0.0,0.0,0.0,0.0,0.0,7499.0,0.0,30.0,3.0,139.4,0.0,0.0,0.0,0.0,0.0,0.0,1.0,0.0,10.731,10.731,74.679,19.926,0.0,110.0,435.8,8750.0,0.0,0.0,110.0,110.0,433.0,0.0,0.0,0.0,1.0,333.3,82.0,82.0,72.7,72.7,34.0,-0.16,13.71,-6.0,19.1,1.0,-87.99,-5.8,100.0,15.2,16.5,32.0,32.6,0.0,1.0,100.0,0.0,0.0,0.0,0.0,1915.0,2085.0,4182.0,4112.0,320.0,318.9,344.9,344.6,24.61,23.51,25.32,24.68,325.0,325.0,355.0,355.0,99.71,99.68,99.7,99.67,0.3,0.29,0.06,0.22,-0.0,-0.1,2.9,2.6,79.8,72.9,78.0,74.0,83.2,84.3,80.8,79.0,80.4,81.0,79.1,77.4,78.5,79.2,78.3,76.9,-0.34,0.33,0.08,0.06,0.0,118.6,118.74,111.87,111.87,356.7,7.7,0.5292447448959696,34.5697642501908,138.2790569438608,10.803051550459415,21.606103100919256,0,2
216,10.75,346.8,44.05357248090107,-78.67992754701825,96.8,89.6,13.5,9.2,1918.0,1918.0,140.3,0.0,1.0,1.0,0.0,1.0,1.0,0.0,0.0,0.0,100.0,1.0,1.186,26.0,0.0,-20.256,74.678,66.0,0.0,26.0,26.0,26.0,26.0,0.17,0.44,0.19,383.1,-2.4,-3.04,-1.78,-1.86,-513.91,573.15,5.5,0.0,0.0,0.0,0.0,0.2,-7.49,-7.49,-0.56,0.28,1.13,0.71,38.97,0.04,-0.39,-3.24,100.0,0.0,0.0,112.35,0.0,0.0,0.0,0.0,0.0,0.0,0.0,7531.0,0.0,30.0,3.0,140.3,1.0,0.0,0.0,0.0,0.0,0.0,1.0,0.0,10.781,10.781,74.679,19.926,1.0,110.0,435.8,8750.0,0.0,0.0,110.0,110.0,433.0,0.0,0.0,0.0,1.0,333.3,73.1,73.1,72.5,72.5,34.0,-1.42,29.88,-7.3,21.3,1.0,-88.04,-6.1,100.0,20.1,21.0,32.7,33.1,0.0,1.0,100.0,0.0,0.0,0.0,0.0,3436.0,3576.0,3491.0,3931.0,315.9,314.9,345.6,344.1,24.61,23.51,25.32,24.68,325.0,325.0,355.0,355.0,99.71,99.68,99.7,99.67,0.25,0.3,0.07,0.21,-0.1,-0.1,2.6,2.3,79.8,72.9,78.0,74.0,83.1,84.2,80.8,79.0,80.4,81.0,79.1,77.4,78.5,79.2,78.2,76.9,-0.35,0.34,0.09,0.06,0.0,119.43,119.68,112.34,112.34,356.7,7.7,0.5085272854036448,34.2096625508096,135.03814159252772,0.0,-28.808136519519394,0,2
217,10.8,348.7,44.05357661778046,-78.67991117936502,39.8,9.1,-19.0,8.9,1920.0,1920.0,141.1,0.0,1.0,1.0,0.0,1.0,1.0,0.0,0.0,0.0,100.0,1.0,1.186,26.0,0.0,-20.256,74.678,66.0,0.0,26.0,26.0,26.0,26.0,0.15,0.63,0.29,378.1,-3.04,-1.6,-0.84,-1.63,-512.09,573.61,5.5,0.0,0.0,0.0,0.0,0.2,-7.49,-7.49,-0.46,3.79,1.3,5.92,39.2,0.1,-0.3,-4.13,100.0,0.0,0.0,112.3,0.0,0.0,0.0,0.0,0.0,0.0,0.0,7528.0,0.0,30.0,3.0,141.1,0.0,0.0,0.0,0.0,0.0,0.0,1.0,0.0,10.83,10.83,74.679,19.926,0.0,110.0,435.8,8750.0,0.0,0.0,110.0,110.0,433.0,0.0,0.0,0.0,1.0,333.3,68.8,68.8,68.5,68.5,34.0,-7.77,37.02,-0.8,49.3,1.0,-88.09,-5.8,100.0,22.1,21.5,31.7,33.5,0.0,1.0,100.0,0.0,0.0,0.0,0.0,4402.0,5180.0,5355.0,6879.0,313.8,311.2,341.0,336.9,24.61,23.51,25.32,24.68,325.0,325.0,355.0,355.0,99.71,99.68,99.7,99.67,0.23,0.33,0.12,0.31,-0.1,-0.1,2.4,2.2,79.8,73.0,78.0,74.0,83.1,84.2,80.8,79.0,80.3,80.9,79.1,77.4,78.4,79.1,78.2,76.9,-0.33,0.33,0.08,0.06,0.0,120.23,120.67,112.3,112.3,356.7,7.7,0.7095773389842717,34.5697642501908,135.39824329190887,32.409153797842976,93.62644468422872,0,2
218,10.85,350.7,44.053581114388486,-78.67989373252587,-75.1,31.7,54.9,120.8,1921.9,1922.0,141.9,0.0,1.0,1.0,0.0,1.0,1.0,0.0,0.0,0.0,100.0,1.0,1.186,26.0,0.0,-20.256,74.678,66.0,0.0,26.0,26.0,26.0,26.0,0.26,0.55,0.05,379.8,-2.21,-2.38,-0.8,-1.15,-510.15,574.11,5.5,0.0,0.0,0.0,0.0,0.2,-7.49,-7.49,-0.29,2.85,1.49,1.25,39.43,0.13,-0.25,-4.06,100.0,0.0,0.0,113.32,0.0,0.0,0.0,0.0,0.0,0.0,0.0,7597.0,0.0,30.0,3.0,141.9,1.0,0.0,0.0,0.0,0.0,0.0,1.0,0.0,10.881,10.881,74.679,19.926,1.0,110.0,435.8,8750.0,0.0,0.0,110.0,110.0,433.0,0.0,0.0,0.0,1.0,333.3,75.1,75.1,60.5,60.5,34.0,1.05,33.9,5.7,34.0,1.0,-88.14,-4.9,100.0,18.3,23.1,34.5,39.5,0.0,1.0,100.0,0.0,0.0,0.0,0.0,1469.0,4230.0,5696.0,5396.0,321.0,313.3,340.7,341.1,24.61,23.52,25.32,24.68,325.0,325.0,355.0,355.0,99.71,99.68,99.7,99.67,0.33,0.33,0.21,0.37,-0.1,-0.1,2.5,2.2,79.8,73.0,78.0,74.0,83.0,84.1,80.8,79.0,80.3,80.9,79.1,77.4,78.4,79.1,78.2,76.9,-0.28,0.29,0.07,0.06,0.0,120.78,121.24,113.32,113.32,356.7,7.7,0.6104096984812741,37.450577930593894,144.4007860609506,10.803051265947587,14.404068544271809,0,2
219,10.9,352.7,44.05358597072516,-78.67987511656862,-21.6,-37.7,61.7,58.2,1923.9,1924.0,142.8,0.0,1.0,1.0,0.0,1.0,1.0,0.0,0.0,0.0,100.0,1.0,1.186,26.0,0.0,-20.256,74.678,66.0,0.0,26.0,26.0,26.0,26.0,0.22,0.46,-0.03,381.4,-3.4,-3.54,-2.27,-1.49,-508.08,574.65,5.5,0.0,0.0,0.0,0.0,0.2,-7.49,-7.49,-0.26,-0.97,1.48,-1.51,39.68,0.16,-0.28,-3.54,100.0,0.0,0.0,114.13,0.0,0.0,0.0,0.0,0.0,0.0,0.0,7651.0,0.0,30.0,3.0,142.8,0.0,0.0,0.0,0.0,0.0,0.0,1.0,0.0,10.934,10.934,74.679,19.926,0.0,110.0,435.8,8750.0,0.0,0.0,110.0,110.0,433.0,0.0,0.0,0.0,1.0,166.7,79.4,79.4,65.2,65.2,34.0,-1.33,13.5,-2.5,43.6,1.0,-88.19,-3.5,100.0,17.2,21.2,37.6,42.5,0.0,1.0,100.0,0.0,0.0,0.0,0.0,1748.0,1769.0,4199.0,5715.0,320.7,319.3,344.5,340.4,24.61,23.52,25.32,24.68,325.0,325.0,355.0,355.0,99.71,99.68,99.7,99.67,0.32,0.26,0.29,0.42,-0.0,-0.0,2.5,2.2,79.8,73.0,78.0,74.0,83.0,84.1,80.7,79.0,80.2,80.9,79.0,77.4,78.3,79.0,78.2,76.9,-0.22,0.21,0.08,0.05,0.0,121.45,121.75,114.13,114.13,356.7,7.7,0.5107837115648853,35.65006937678556,136.83865014633605,-25.20711981021904,-111.63153022231228,0,2
220,10.95,354.7,44.053590017672384,-78.67985955830484,-62.5,-73.3,-34.3,-46.6,1925.9,1926.0,143.6,0.0,1.0,1.0,0.0,1.0,1.0,0.0,0.0,0.0,100.0,1.0,1.186,26.0,0.0,-20.256,74.678,66.0,0.0,26.0,26.0,26.0,26.0,0.2,0.47,-0.25,384.3,-3.49,-1.99,-1.69,-2.22,-506.35,575.1,5.5,0.0,0.0,0.0,0.0,0.2,-7.49,-7.49,-0.38,-4.24,1.38,-2.66,39.89,0.16,-0.3,-2.63,100.0,0.0,0.0,114.66,0.0,0.0,0.0,0.0,0.0,0.0,0.0,7687.0,0.0,30.0,3.0,143.6,1.0,0.0,0.0,0.0,0.0,0.0,1.0,0.0,10.98,10.98,74.679,19.926,1.0,110.0,435.8,8750.0,0.0,0.0,110.0,110.0,433.0,0.0,0.0,0.0,1.0,166.7,82.5,82.5,67.7,67.7,34.0,-2.01,12.7,1.5,44.1,1.0,-88.24,-2.6,100.0,14.1,17.5,35.9,40.1,0.0,1.0,100.0,0.0,0.0,0.0,0.0,1798.0,2032.0,4032.0,5164.0,320.5,319.1,344.7,341.2,24.61,23.52,25.32,24.69,325.0,325.0,355.0,355.0,99.71,99.68,99.7,99.67,0.31,0.32,0.29,0.41,-0.1,-0.1,2.4,2.2,79.8,73.0,78.0,74.0,82.9,84.0,80.7,79.0,80.2,80.8,79.0,77.4,78.3,79.0,78.2,76.9,-0.16,0.15,0.05,0.05,0.0,121.99,122.28,114.66,114.66,356.7,7.7,0.5686826883245173,34.92986594957199,133.23763303871937,21.606102531895317,54.01525661425012,0,2
221,11.0,356.7,44.053594694144735,-78.6798418416692,66.3,85.8,-62.3,-153.4,1927.9,1928.0,144.3,0.0,1.0,1.0,0.0,1.0,1.0,0.0,0.0,0.0,100.0,1.0,1.186,26.0,0.0,-20.256,74.678,66.0,0.0,26.0,26.0,26.0,26.0,0.2,0.47,-0.04,382.8,-2.56,-2.74,-1.26,-1.69,-504.38,575.62,5.5,0.0,0.0,0.0,0.0,0.21,-7.49,-7.49,-0.57,-0.95,1.33,-0.07,40.1,0.16,-0.39,-2.54,100.0,0.0,0.0,115.44,0.0,0.0,0.0,0.0,0.0,0.0,0.0,7739.0,0.0,30.0,3.0,144.3,0.0,0.0,0.0,0.0,0.0,0.0,1.0,0.0,11.031,11.031,74.679,19.926,0.0,110.0,435.8,8750.0,0.0,0.0,110.0,110.0,433.0,0.0,0.0,0.0,1.0,333.3,73.6,73.6,69.0,69.0,34.0,-4.21,32.72,1.8,31.9,1.0,-88.29,-1.8,100.0,17.4,21.8,32.7,32.5,0.0,1.0,83.6,0.0,0.0,0.0,0.0,3615.0,4112.0,4136.0,4814.0,316.0,313.6,344.3,343.0,24.61,23.53,25.32,24.69,325.0,325.0,355.0,355.0,99.71,99.68,99.7,99.67,0.21,0.28,0.24,0.39,-0.1,-0.1,2.8,2.6,79.8,73.0,78.0,74.0,82.9,84.0,80.7,79.0,80.1,80.8,79.0,77.4,78.2,79.0,78.2,76.8,-0.1,0.11,0.07,0.05,0.0,122.82,123.07,115.44,115.44,356.7,7.7,0.51234753829798,37.81067962997509,142.24017580776106,21.606102816407144,50.41423905141443,0,2
247,12.3,317.3,44.05348326819776,-78.68021182257787,-187.7,-171.9,138.3,-19.1,3670.1,3670.0,90.2,0.0,1.0,1.0,0.0,1.0,1.0,0.0,0.0,0.0,100.0,1.0,1.186,26.0,0.0,-17.865,74.678,66.0,0.0,26.0,26.0,26.0,26.0,-0.14,0.76,-0.14,391.1,-2.39,-1.87,-0.72,-1.22,-545.52,563.23,5.5,0.0,0.0,0.0,0.0,0.18,-7.49,-7.49,-0.53,-3.59,1.25,0.06,25.09,0.0,-0.11,3.3,100.0,0.0,0.0,72.53,0.0,0.0,0.0,0.0,0.0,0.0,0.0,6233.0,0.0,30.0,2.0,90.2,0.0,0.0,0.0,0.0,0.0,0.0,0.0,0.0,12.309,12.309,84.921,21.577,0.0,110.0,435.8,8750.0,0.0,0.0,110.0,110.0,433.0,0.0,0.0,0.0,1.0,166.7,92.6,92.6,68.9,68.9,34.0,-7.45,-0.03,-18.3,5.8,2.0,-174.49,6.8,100.0,8.3,8.3,35.9,30.4,0.0,1.0,100.0,0.0,0.0,0.0,0.0,1531.0,695.0,5192.0,5184.0,321.3,323.4,342.6,342.4,25.82,23.84,27.84,26.81,325.0,325.0,355.0,355.0,100.0,99.94,100.0,100.0,-0.2,-0.22,-0.27,-0.06,-0.1,-0.2,3.3,3.5,87.4,75.0,93.7,87.3,103.5,96.7,103.7,98.7,99.6,92.2,102.1,96.4,97.4,90.2,100.8,94.8,0.42,-0.4,0.07,0.07,0.0,77.02,76.53,72.53,72.53,356.7,7.7,0.7853661566428743,21.96620437353243,89.6653259910357,10.80305155045945,50.414239620438224,0,2
248,12.35,318.6,44.05348605609474,-78.6802005810578,75.9,99.7,9.4,35.0,3671.4,3671.0,91.5,0.0,1.0,1.0,0.0,1.0,1.0,0.0,0.0,0.0,100.0,1.0,1.186,26.0,0.0,-17.844,74.678,66.0,0.0,26.0,26.0,26.0,26.0,-0.15,0.58,0.01,388.1,-2.5,-2.28,-0.95,-0.99,-544.27,563.54,5.5,0.0,0.0,0.0,0.0,0.18,-7.49,-7.49,-0.86,-6.87,1.29,0.25,25.42,0.01,-0.26,3.43,100.0,0.0,0.0,74.22,0.0,0.0,0.0,0.0,0.0,0.0,0.0,6378.0,0.0,30.0,2.0,91.5,1.0,0.0,0.0,0.0,0.0,0.0,0.0,0.0,12.36,12.36,84.921,21.577,1.0,110.0,435.8,8750.0,0.0,0.0,110.0,110.0,433.0,0.0,0.0,0.0,1.0,333.3,83.6,83.6,71.9,71.9,34.0,-17.03,4.45,-7.9,1.7,2.0,-174.54,6.8,100.0,12.1,13.3,36.4,32.1,0.0,1.0,100.0,0.0,0.0,0.0,0.0,2727.0,2649.0,2872.0,4130.0,318.3,317.9,347.5,345.3,25.83,23.85,27.84,26.81,325.0,325.0,355.0,355.0,100.0,99.94,100.0,100.0,-0.24,-0.13,-0.21,-0.1,-0.1,-0.1,3.5,3.9,87.4,75.1,93.7,87.3,103.4,96.6,103.7,98.7,99.6,92.2,102.0,96.3,97.4,90.1,100.7,94.8,0.4,-0.41,0.05,0.07,0.0,77.9,77.7,74.22,74.22,356.7,7.7,0.5991660871578097,21.96620437353243,90.74563114608164,-7.202034272135727,-3.6010169938120384,0,2
249,12.4,319.9,44.05348875405956,-78.6801891596734,85.7,27.7,-253.2,-169.4,3672.7,3673.0,92.4,0.0,1.0,1.0,0.0,1.0,1.0,0.0,0.0,0.0,100.0,1.0,1.186,26.0,0.0,-17.823,74.678,66.0,0.0,26.0,26.0,26.0,26.0,-0.11,0.55,-0.35,392.9,-2.52,-2.17,-1.41,-1.47,-543.0,563.84,5.5,0.0,0.0,0.0,0.0,0.18,-7.49,-7.49,-1.11,-1.6,1.12,-3.35,25.69,-0.01,-0.28,4.04,100.0,0.0,0.0,77.96,0.0,0.0,0.0,0.0,0.0,0.0,0.0,6700.0,0.0,30.0,2.0,92.4,0.0,0.0,0.0,0.0,0.0,0.0,0.0,0.0,12.411,12.411,84.921,21.577,0.0,110.0,435.8,8750.0,0.0,0.0,110.0,110.0,433.0,0.0,0.0,0.0,1.0,166.7,80.3,80.3,84.8,84.8,34.0,-16.26,4.78,-4.2,0.3,2.0,-174.59,6.8,100.0,16.4,14.7,23.7,23.6,0.0,1.0,100.0,0.0,0.0,0.0,0.0,2801.0,2977.0,3443.0,1898.0,317.9,317.6,347.1,350.5,25.83,23.85,27.84,26.81,325.0,325.0,355.0,355.0,100.0,99.94,100.0,100.0,-0.18,-0.12,-0.25,-0.15,-0.1,-0.1,7.3,7.6,87.4,75.1,93.8,87.3,103.4,96.6,103.6,98.6,99.5,92.1,102.0,96.3,97.3,90.1,100.7,94.8,0.39,-0.4,0.1,0.08,0.0,78.91,78.56,77.96,77.96,356.7,7.7,0.6611353870426239,21.24600094631886,89.3052242916545,0.0,25.207119525707355,0,2
250,12.45,321.2,44.05349136209222,-78.68017827788198,52.2,201.1,118.1,-4.0,3674.0,3674.0,93.7,0.0,1.0,1.0,0.0,1.0,1.0,0.0,0.0,0.0,100.0,1.0,1.186,26.0,0.0,-17.805,74.678,66.0,0.0,26.0,26.0,26.0,26.0,-0.12,0.89,0.34,384.6,-2.25,-2.58,-1.33,-1.77,-541.79,564.13,5.5,0.0,0.0,0.0,0.0,0.18,-7.49,-7.49,-1.0,5.78,0.98,-5.1,26.06,-0.05,-0.28,4.77,100.0,0.0,0.0,76.9,0.0,0.0,0.0,0.0,0.0,0.0,0.0,6609.0,0.0,30.0,2.0,93.7,1.0,0.0,0.0,0.0,0.0,0.0,0.0,0.0,12.459,12.459,84.921,21.577,1.0,110.0,435.8,8750.0,0.0,0.0,110.0,110.0,433.0,0.0,0.0,0.0,1.0,333.3,72.3,72.3,69.3,69.3,34.0,-16.7,11.75,-16.8,3.0,2.0,-174.64,6.6,100.0,19.0,24.7,29.6,23.4,0.0,1.0,100.0,0.0,0.0,0.0,0.0,2821.0,4097.0,4712.0,4804.0,317.8,313.6,343.9,343.6,25.83,23.86,27.84,26.82,325.0,325.0,355.0,355.0,100.0,99.94,100.0,100.0,-0.22,-0.1,-0.43,-0.15,-0.1,-0.0,5.2,5.7,87.5,75.1,93.8,87.4,103.3,96.5,103.6,98.6,99.5,92.1,102.0,96.3,97.3,90.0,100.7,94.8,0.39,-0.38,0.08,0.09,0.0,80.42,80.0,76.9,76.9,356.7,7.7,0.9602603813549739,21.96620437353243,93.26634309865237,-2.8451182743083336e-07,21.606102531895175,0,2
251,12.5,322.5,44.053494239921356,-78.68016586724382,-10.9,-97.2,157.4,41.7,3675.3,3675.0,95.2,0.0,1.0,1.0,0.0,1.0,1.0,0.0,0.0,0.0,100.0,1.0,1.186,26.0,0.0,-17.805,74.678,66.0,0.0,26.0,26.0,26.0,26.0,-0.23,0.65,0.01,385.3,-2.14,-1.64,-1.22,-2.04,-540.41,564.45,5.5,0.0,0.0,0.0,0.0,0.18,-7.49,-7.49,-0.64,6.5,0.7,-1.69,26.45,-0.07,-0.17,5.36,100.0,0.0,0.0,77.34,0.0,0.0,0.0,0.0,0.0,0.0,0.0,6647.0,0.0,30.0,2.0,95.2,0.0,0.0,0.0,0.0,0.0,0.0,0.0,0.0,12.513,12.513,84.921,21.577,0.0,110.0,435.8,8750.0,0.0,0.0,110.0,110.0,433.0,0.0,0.0,0.0,1.0,166.7,77.7,77.7,63.7,63.7,34.0,-13.32,-0.9,-30.7,0.3,2.0,-174.69,6.7,100.0,18.5,19.9,37.5,25.5,0.0,1.0,100.0,0.0,0.0,0.0,0.0,2335.0,2838.0,5194.0,3390.0,319.1,317.4,342.5,346.9,25.84,23.87,27.85,26.82,325.0,325.0,355.0,355.0,100.0,99.94,100.0,100.0,-0.24,-0.21,-0.46,-0.3,-0.1,-0.1,3.3,3.8,87.5,75.2,93.8,87.4,103.2,96.5,103.6,98.6,99.4,92.0,102.0,96.2,97.2,90.0,100.7,94.7,0.39,-0.4,0.06,0.09,0.0,81.66,81.2,77.34,77.34,356.7,7.7,0.6895650803223725,21.246000917867676,91.46583454484401,-14.404068544271453,-28.80813651951911,0,2
252,12.55,323.8,44.053496668089686,-78.68015543511319,-30.1,-88.1,55.3,242.7,3676.7,3677.0,96.4,0.0,1.0,1.0,0.0,1.0,1.0,0.0,0.0,0.0,100.0,1.0,1.186,26.0,0.0,-17.787,74.678,66.0,0.0,26.0,26.0,26.0,26.0,-0.24,0.73,0.24,381.6,-2.13,-1.81,-0.94,-1.88,-539.25,564.72,5.5,0.0,0.0,0.0,0.0,0.18,-7.49,-7.49,-0.42,2.22,0.56,-3.72,26.79,-0.07,-0.11,3.86,100.0,0.0,0.0,77.1,0.0,0.0,0.0,0.0,0.0,0.0,0.0,6627.0,0.0,30.0,2.0,96.4,1.0,0.0,0.0,0.0,0.0,0.0,0.0,0.0,12.559,12.559,84.921,21.577,1.0,110.0,435.8,8750.0,0.0,0.0,110.0,110.0,433.0,0.0,0.0,0.0,1.0,333.3,81.8,81.8,62.1,62.1,34.0,-18.28,-1.9,-42.9,6.6,2.0,-174.74,6.7,100.0,16.9,15.5,40.3,37.7,0.0,1.0,100.0,0.0,0.0,0.0,0.0,2773.0,1630.0,6550.0,5617.0,318.1,321.0,339.6,340.8,25.84,23.87,27.85,26.82,325.0,325.0,355.0,355.0,100.0,99.94,100.0,100.0,-0.31,-0.33,-0.41,-0.18,-0.1,-0.1,2.3,2.9,87.5,75.2,93.8,87.4,103.2,96.4,103.5,98.6,99.3,91.9,101.9,96.2,97.1,89.9,100.6,94.7,0.39,-0.4,0.06,0.05,0.0,82.52,82.0,77.1,77.1,356.7,7.7,0.8050465825031492,20.525797519105286,90.38552944670046,3.6010175628356222,61.217291170897994,0,2
253,12.6,325.2,44.05349936605451,-78.6801432942715,69.2,-55.3,3.6,-2.8,3678.0,3678.0,97.5,0.0,1.0,1.0,0.0,1.0,1.0,0.0,0.0,0.0,100.0,1.0,1.186,26.0,0.0,-17.772,74.678,66.0,0.0,26.0,26.0,26.0,26.0,-0.31,0.7,0.07,381.4,-1.98,-2.84,-0.62,-0.77,-537.9,565.02,5.5,0.0,0.0,0.0,0.0,0.18,-7.49,-7.49,-0.47,-1.69,0.54,4.69,27.12,-0.04,-0.18,4.02,100.0,0.0,0.0,78.84,0.0,0.0,0.0,0.0,0.0,0.0,0.0,6776.0,0.0,30.0,2.0,97.5,0.0,0.0,0.0,0.0,0.0,0.0,0.0,0.0,12.609,12.609,84.921,21.577,0.0,110.0,435.8,8750.0,0.0,0.0,110.0,110.0,433.0,0.0,0.0,0.0,1.0,333.3,77.8,77.8,71.0,71.0,34.0,-42.75,0.73,-24.5,-6.7,2.0,-174.79,6.2,100.0,20.4,12.7,40.4,37.5,0.0,1.0,100.0,0.0,0.0,0.0,0.0,5268.0,1779.0,5302.0,4689.0,312.3,320.5,342.4,344.0,25.85,23.88,27.85,26.82,325.0,325.0,355.0,355.0,100.0,99.94,100.0,100.0,-0.37,-0.29,-0.39,-0.29,-0.1,-0.2,3.2,3.6,87.5,75.2,93.8,87.4,103.1,96.3,103.5,98.5,99.3,91.9,101.9,96.2,97.1,89.8,100.6,94.7,0.37,-0.36,0.05,0.05,0.0,83.4,82.97,78.84,78.84,356.7,7.7,0.7687652437513027,21.606102674151238,97.58756366193381,3.601016993812003,50.41423905141443,0,2
254,12.65,326.5,44.05350206401933,-78.68013106349767,13.5,81.8,-101.3,-24.9,3679.4,3679.0,98.8,0.0,1.0,1.0,0.0,1.0,1.0,0.0,0.0,0.0,100.0,1.0,1.186,26.0,0.0,-17.754,74.678,66.0,0.0,26.0,26.0,26.0,26.0,-0.15,0.61,0.03,383.3,-2.17,-2.36,0.62,-0.81,-536.54,565.32,5.5,0.0,0.0,0.0,0.0,0.19,-7.49,-7.49,-0.5,0.29,0.79,3.19,27.45,-0.02,-0.25,3.29,100.0,0.0,0.0,80.16,0.0,0.0,0.0,0.0,0.0,0.0,0.0,6889.0,0.0,30.0,2.0,98.8,1.0,0.0,0.0,0.0,0.0,0.0,0.0,0.0,12.66,12.66,84.921,21.577,1.0,110.0,435.8,8750.0,0.0,0.0,110.0,110.0,433.0,0.0,0.0,0.0,1.0,333.3,76.7,76.7,71.7,71.7,34.0,-13.81,5.89,-9.5,-3.6,2.0,-174.84,3.7,100.0,21.1,16.8,35.4,36.3,0.0,1.0,100.0,0.0,0.0,0.0,0.0,2571.0,3186.0,4334.0,4095.0,318.5,316.6,344.6,345.3,25.85,23.88,27.85,26.83,325.0,325.0,355.0,355.0,100.0,99.94,100.0,100.0,-0.19,-0.13,-0.36,-0.24,-0.1,-0.1,3.5,3.9,87.6,75.3,93.8,87.4,103.0,96.3,103.5,98.5,99.2,91.8,101.8,96.2,97.0,89.8,100.5,94.6,0.24,-0.23,0.08,0.06,0.0,84.31,84.15,80.16,80.16,356.7,7.7,0.628887907341205,20.885899218486486,95.4269533518419,-2.8451182743083336e-07,21.606102531895175,0,2
255,12.7,327.9,44.05350458211982,-78.68011946224895,-66.4,17.1,-14.5,-85.8,3680.8,3681.0,99.9,0.0,1.0,1.0,0.0,1.0,1.0,0.0,0.0,0.0,100.0,1.0,1.186,26.0,0.0,-17.739,74.678,66.0,0.0,26.0,26.0,26.0,26.0,-0.06,0.73,0.1,384.2,-1.95,-4.4,-1.46,-1.73,-535.25,565.6,5.5,0.0,0.0,0.0,0.0,0.19,-7.49,-7.49,-0.45,1.41,0.86,1.81,27.77,-0.04,-0.22,2.42,100.0,0.0,0.0,80.98,0.0,0.0,0.0,0.0,0.0,0.0,0.0,6959.0,0.0,30.0,2.0,99.9,0.0,0.0,0.0,0.0,0.0,0.0,1.0,0.0,12.709,12.709,84.921,21.577,0.0,110.0,435.8,8750.0,0.0,0.0,110.0,110.0,433.0,0.0,0.0,0.0,1.0,333.3,78.0,78.0,67.1,67.1,34.0,-9.51,21.15,-26.7,3.3,2.0,-174.89,-0.1,100.0,17.8,17.6,34.7,32.0,0.0,1.0,100.0,0.0,0.0,0.0,0.0,2848.0,3305.0,5739.0,4151.0,318.0,316.3,341.8,345.1,25.85,23.89,27.85,26.83,325.0,325.0,355.0,355.0,100.0,99.94,100.0,100.0,-0.04,0.0,-0.32,-0.16,-0.1,-0.1,3.7,3.9,87.6,75.3,93.8,87.4,103.0,96.2,103.4,98.5,99.1,91.8,101.8,96.1,96.9,89.7,100.5,94.6,0.03,-0.04,0.08,0.05,0.0,85.38,85.15,80.98,80.98,356.7,7.7,0.7392563831310488,21.606102645700055,99.74817391512333,10.80305155045945,57.61627417708581,0,2
256,12.75,329.3,44.05350745994896,-78.68010615228918,13.7,-17.6,-0.2,55.0,3682.2,3682.0,101.2,0.0,1.0,1.0,0.0,1.0,1.0,0.0,0.0,0.0,100.0,1.0,1.186,26.0,0.0,-17.739,74.678,66.0,0.0,26.0,26.0,26.0,26.0,-0.01,0.63,-0.03,384.6,-2.61,-3.02,-1.37,-1.27,-533.77,565.92,5.5,0.0,0.0,0.0,0.0,0.19,-7.49,-7.49,-0.39,0.9,1.03,2.87,28.13,-0.04,-0.25,-0.09,100.0,0.0,0.0,81.98,0.0,0.0,0.0,0.0,0.0,0.0,0.0,7046.0,0.0,30.0,2.0,101.2,1.0,0.0,0.0,0.0,0.0,0.0,1.0,0.0,12.761,12.761,84.921,21.577,1.0,110.0,435.8,8750.0,0.0,0.0,110.0,110.0,433.0,0.0,0.0,0.0,1.0,166.7,77.9,77.9,73.4,73.4,34.0,-8.23,20.01,-11.4,5.8,2.0,-174.94,-5.6,100.0,18.4,16.8,34.6,34.7,0.0,1.0,100.0,0.0,0.0,0.0,0.0,3009.0,3189.0,3367.0,5048.0,317.6,316.9,347.0,342.7,25.86,23.89,27.86,26.83,325.0,325.0,355.0,355.0,100.0,99.94,100.0,100.0,0.09,0.16,-0.2,-0.07,-0.1,-0.1,3.3,3.4,87.6,75.3,93.9,87.4,102.9,96.1,103.4,98.4,99.1,91.7,101.8,96.1,96.9,89.7,100.5,94.6,-0.28,0.28,0.08,0.05,0.0,86.39,86.34,81.98,81.98,356.7,7.7,0.6307931515164064,21.96620437353243,101.18858076955048,-7.202034272135691,-36.0101710761667,0,2
257,12.8,330.8,44.05351006798162,-78.68009419131182,-99.0,-16.9,-74.4,10.3,3683.6,3684.0,102.3,0.0,1.0,1.0,0.0,1.0,1.0,0.0,0.0,0.0,100.0,1.0,1.186,26.0,0.0,-17.721,74.678,66.0,0.0,26.0,26.0,26.0,26.0,0.13,0.7,-0.24,388.4,-2.05,-2.67,-1.18,-3.3,-532.44,566.21,5.5,0.0,0.0,0.0,0.0,0.19,-7.49,-7.49,-0.31,0.74,1.05,-1.51,28.45,-0.04,-0.19,-2.4,100.0,0.0,0.0,82.98,0.0,0.0,0.0,0.0,0.0,0.0,0.0,7132.0,0.0,30.0,2.0,102.3,0.0,0.0,0.0,0.0,0.0,0.0,1.0,0.0,12.81,12.81,84.921,21.577,0.0,110.0,435.8,8750.0,0.0,0.0,110.0,110.0,433.0,0.0,0.0,0.0,1.0,333.3,85.2,85.2,72.6,72.6,34.0,3.16,12.44,-7.6,26.3,2.0,-174.99,-12.6,100.0,13.5,15.9,30.9,35.2,0.0,1.0,100.0,0.0,0.0,0.0,0.0,1202.0,1665.0,4228.0,4933.0,322.2,320.5,345.2,343.1,25.86,23.9,27.86,26.83,325.0,325.0,355.0,355.0,100.0,99.94,100.0,100.0,0.54,0.44,-0.05,0.1,-0.1,-0.1,3.8,3.6,87.6,75.4,93.9,87.5,102.8,96.1,103.3,98.4,99.0,91.6,101.7,96.1,96.8,89.6,100.4,94.6,-0.68,0.66,0.09,0.05,0.0,87.0,87.33,82.98,82.98,356.7,7.7,0.7513321502504734,20.885899218486486,96.14715680750666,-2.8451182743083336e-07,-10.803051550459486,0,2
258,12.85,332.2,44.05351267601427,-78.6800821404023,-80.8,-97.8,72.2,-51.7,3685.0,3685.0,103.5,0.0,1.0,1.0,0.0,1.0,1.0,0.0,0.0,0.0,100.0,1.0,1.186,26.0,0.0,-17.709,74.678,66.0,0.0,26.0,26.0,26.0,26.0,0.14,0.65,-0.13,390.3,-1.61,-1.48,-1.69,-2.09,-531.1,566.5,5.5,0.0,0.0,0.0,0.0,0.19,-7.49,-7.49,-0.45,-5.67,1.01,3.46,28.78,-0.03,-0.16,-3.07,100.0,0.0,0.0,83.56,0.0,0.0,0.0,0.0,0.0,0.0,0.0,7181.0,0.0,30.0,2.0,103.5,1.0,0.0,0.0,0.0,0.0,0.0,1.0,0.0,12.859,12.859,84.921,21.577,1.0,110.0,435.8,8750.0,0.0,0.0,110.0,110.0,433.0,0.0,0.0,0.0,1.0,333.3,89.5,89.5,68.5,68.5,34.0,4.95,18.69,-12.7,17.8,2.0,-175.04,-20.1,100.0,9.5,11.0,34.5,32.7,0.0,1.0,100.0,0.0,0.0,0.0,0.0,869.0,2019.0,4686.0,4641.0,322.2,320.2,344.0,344.2,25.86,23.91,27.86,26.84,325.0,325.0,355.0,355.0,100.0,99.94,100.0,100.0,0.83,0.85,-0.06,0.11,-0.1,-0.2,3.7,3.3,87.6,75.4,93.9,87.5,102.7,96.0,103.3,98.4,98.9,91.6,101.7,96.0,96.7,89.5,100.4,94.5,-1.11,1.1,0.07,0.06,0.0,87.92,88.14,83.56,83.56,356.7,7.7,0.677495387438173,21.96620434508125,100.10827561450454,25.207120094730904,79.22237613995762,0,2
259,12.9,333.7,44.05351555384341,-78.68006919017118,55.8,46.9,-126.7,4.6,3686.5,3686.0,104.6,0.0,1.0,1.0,0.0,1.0,1.0,0.0,0.0,0.0,100.0,1.0,1.186,26.0,0.0,-17.694,74.678,66.0,0.0,26.0,26.0,26.0,26.0,0.4,0.48,-0.17,389.4,-1.9,-1.66,-1.31,-1.54,-529.66,566.82,5.5,0.0,0.0,0.0,0.0,0.19,-7.49,-7.49,-0.87,-8.27,1.22,4.29,29.07,-0.04,-0.31,-7.95,100.0,0.0,0.0,85.56,0.0,0.0,0.0,0.0,0.0,0.0,0.0,7353.0,0.0,30.0,2.0,104.6,0.0,0.0,0.0,0.0,0.0,0.0,1.0,0.0,12.909,12.909,84.921,21.577,0.0,110.0,435.8,8750.0,0.0,0.0,110.0,110.0,433.0,0.0,0.0,0.0,1.0,166.7,80.1,80.1,80.7,80.7,34.0,27.26,62.63,-0.2,13.2,2.0,-175.09,-27.4,100.0,12.2,13.4,28.2,32.9,0.0,1.0,100.0,0.0,0.0,0.0,0.0,3564.0,4465.0,2111.0,3696.0,316.5,313.5,350.2,346.0,25.87,23.91,27.86,26.84,325.0,325.0,355.0,355.0,100.0,99.94,100.0,100.0,0.94,1.11,0.18,0.26,-0.1,-0.1,4.7,4.1,87.7,75.4,93.9,87.5,102.7,96.0,103.3,98.3,98.8,91.5,101.7,96.0,96.7,89.5,100.4,94.5,-1.54,1.52,0.09,0.07,0.0,88.67,89.3,85.56,85.56,356.7,7.7,0.647533782902483,23.406611227959576,104.06939442150242,18.005085822595177,18.00508553808328,0,2
260,12.95,335.1,44.053518521604715,-78.6800561500079,141.1,211.7,-172.1,-78.1,3687.9,3688.0,105.6,0.0,1.0,1.0,0.0,1.0,1.0,0.0,0.0,0.0,100.0,1.0,1.186,26.0,0.0,-17.679,74.678,66.0,0.0,26.0,26.0,26.0,26.0,0.55,0.5,0.05,387.0,-2.86,-2.4,-1.58,-2.27,-528.21,567.15,5.5,0.0,0.0,0.0,0.0,0.19,-7.49,-7.49,-0.98,2.17,1.36,1.55,29.34,0.04,-0.36,-16.11,100.0,0.0,0.0,87.94,0.0,0.0,0.0,0.0,0.0,0.0,0.0,7558.0,0.0,30.0,2.0,105.6,1.0,0.0,0.0,0.0,0.0,0.0,1.0,0.0,12.96,12.96,84.921,21.577,1.0,110.0,435.8,8750.0,0.0,0.0,110.0,110.0,433.0,0.0,0.0,0.0,1.0,333.3,69.3,69.3,87.7,87.7,34.0,31.44,78.7,1.2,22.1,2.0,-175.14,-31.3,100.0,19.3,24.0,19.6,29.0,0.0,1.0,100.0,0.0,0.0,0.0,0.0,4261.0,5088.0,1362.0,3984.0,314.7,311.7,351.5,345.2,25.87,23.92,27.86,26.84,325.0,325.0,355.0,355.0,100.0,99.94,100.0,100.0,1.01,1.14,0.68,0.81,-0.1,-0.2,7.1,5.5,87.7,75.5,93.9,87.5,102.6,95.9,103.2,98.3,98.8,91.5,101.6,96.0,96.6,89.5,100.3,94.5,-1.8,1.79,0.11,0.06,0.0,89.51,90.81,87.94,87.94,356.7,7.7,0.744983221287567,23.766712927340766,101.90878416831286,21.60610224738349,-10.803050981436115,0,2
261,13.0,336.6,44.05352148936601,-78.68004373936974,21.8,157.0,79.4,54.1,3689.4,3689.0,106.7,0.0,1.0,1.0,0.0,1.0,1.0,0.0,0.0,0.0,100.0,1.0,1.186,26.0,0.0,-17.667,74.678,66.0,0.0,26.0,26.0,26.0,26.0,0.87,0.88,0.34,379.8,-2.44,-2.83,-1.43,-0.38,-526.83,567.48,5.4,0.0,0.0,0.0,0.0,0.19,-7.49,-7.49,-0.57,11.85,1.48,0.37,29.68,0.19,-0.27,-21.4,100.0,0.0,0.0,87.0,0.0,0.0,0.0,0.0,0.0,0.0,0.0,7477.0,0.0,30.0,2.0,106.7,0.0,0.0,0.0,0.0,0.0,0.0,1.0,0.0,13.009,13.009,84.921,21.577,0.0,110.0,435.8,8750.0,0.0,0.0,110.0,110.0,433.0,0.0,0.0,0.0,1.0,333.3,66.4,66.4,65.8,65.8,34.0,13.44,116.55,21.1,76.0,2.0,-175.19,-32.2,100.0,20.4,31.8,23.6,31.7,0.0,1.0,100.0,0.0,0.0,0.0,0.0,1729.0,6659.0,5243.0,6782.0,320.5,307.3,342.9,338.7,25.87,23.92,27.87,26.84,325.0,325.0,355.0,355.0,100.0,99.94,100.0,100.0,1.19,1.22,1.14,1.38,-0.2,-0.1,5.8,3.7,87.7,75.5,93.9,87.5,102.5,95.9,103.2,98.3,98.7,91.5,101.6,96.0,96.6,89.4,100.3,94.5,-1.88,1.84,0.09,0.06,0.0,90.38,92.39,86.99,86.99,356.7,7.7,1.283316017199193,25.567221452697925,102.98908932335881,39.61118806997874,46.813222626626185,0,2
262,13.05,338.1,44.05352490678811,-78.68003042940997,-137.6,-212.8,198.8,237.4,3690.9,3691.0,108.0,0.0,1.0,1.0,0.0,1.0,1.0,0.0,0.0,0.0,100.0,1.0,1.186,26.0,0.0,-17.667,74.678,66.0,0.0,26.0,26.0,26.0,26.0,0.78,0.77,0.05,381.4,-2.87,-2.23,-2.23,-0.88,-525.35,567.86,5.4,0.0,0.0,0.0,0.0,0.19,-7.49,-7.49,-0.02,7.43,1.49,2.49,30.01,0.29,-0.09,-17.15,100.0,0.0,0.0,87.13,0.0,0.0,0.0,0.0,0.0,0.0,0.0,7488.0,0.0,30.0,2.0,108.0,1.0,0.0,0.0,0.0,0.0,0.0,1.0,0.0,13.059,13.059,84.921,21.577,1.0,110.0,435.8,8750.0,0.0,0.0,110.0,110.0,433.0,0.0,0.0,0.0,1.0,166.7,81.5,81.5,58.5,58.5,34.0,2.25,52.34,38.4,103.7,2.0,-175.24,-30.5,100.0,13.5,21.2,33.5,43.6,0.0,1.0,100.0,0.0,0.0,0.0,0.0,349.0,3399.0,6231.0,6965.0,324.0,315.9,340.5,338.7,25.88,23.93,27.87,26.85,325.0,325.0,355.0,355.0,100.0,99.94,100.0,100.0,1.56,1.44,1.25,1.38,-0.2,-0.1,4.2,2.3,87.7,75.6,93.9,87.5,102.5,95.9,103.2,98.3,98.7,91.4,101.6,96.0,96.5,89.4,100.3,94.5,-1.8,1.77,0.06,0.04,0.0,91.27,93.03,87.12,87.12,356.7,7.7,1.09717819883554,27.72783173433864,106.59010643097548,28.80813708854287,10.803051550459628,0,2
263,13.1,339.6,44.05352841414238,-78.6800171194502,-112.7,-130.0,46.8,232.1,3692.4,3692.0,109.2,0.0,1.0,1.0,0.0,1.0,1.0,0.0,0.0,0.0,100.0,1.0,1.186,26.0,0.0,-17.655,74.678,66.0,0.0,26.0,26.0,26.0,26.0,0.63,0.66,-0.08,383.7,-2.83,-1.96,-2.38,-1.53,-523.87,568.25,5.5,0.0,0.0,0.0,0.0,0.19,-7.49,-7.49,0.03,-5.19,1.54,-4.93,30.34,0.28,-0.11,-10.65,100.0,0.0,0.0,87.84,0.0,0.0,0.0,0.0,0.0,0.0,0.0,7550.0,0.0,30.0,2.0,109.2,0.0,0.0,0.0,0.0,0.0,0.0,1.0,0.0,13.11,13.11,84.921,21.577,0.0,110.0,435.8,8750.0,0.0,0.0,110.0,110.0,433.0,0.0,0.0,0.0,1.0,333.3,90.6,90.6,63.4,63.4,34.0,0.0,32.29,16.9,115.0,2.0,-175.29,-26.9,100.0,7.9,14.7,35.8,55.2,0.0,1.0,100.0,0.0,0.0,0.0,0.0,0.0,2272.0,3787.0,7981.0,325.0,319.0,346.5,335.6,25.88,23.94,27.87,26.85,325.0,325.0,355.0,355.0,100.0,99.94,100.0,100.0,0.0,1.65,1.03,1.12,0.0,-0.1,3.6,2.5,87.7,75.6,93.9,87.6,102.4,95.8,103.1,98.3,98.6,91.4,101.5,96.0,96.4,89.4,100.2,94.5,-1.6,1.59,0.07,0.01,0.0,91.67,93.25,87.84,87.84,356.7,7.7,0.9159148432032314,28.448035161552212,104.06939447840477,32.40915408235477,18.005085538083563,0,2
264,13.15,341.1,44.0535320114288,-78.68000443901555,-10.0,-22.0,-66.2,-293.4,3694.0,3694.0,110.2,0.0,1.0,1.0,0.0,1.0,1.0,0.0,0.0,0.0,100.0,1.0,1.186,26.0,0.0,-17.643,74.678,66.0,0.0,26.0,26.0,26.0,26.0,0.54,0.51,-0.24,389.1,-2.93,-2.01,-1.82,-0.93,-522.46,568.65,5.5,0.0,0.0,0.0,0.0,0.19,-7.49,-7.49,-0.37,-9.8,1.3,-3.58,30.61,0.26,-0.25,-9.9,100.0,0.0,0.0,89.41,0.0,0.0,0.0,0.0,0.0,0.0,0.0,7684.0,0.0,30.0,2.0,110.2,1.0,0.0,0.0,0.0,0.0,0.0,1.0,0.0,13.159,13.159,84.921,21.577,1.0,110.0,435.8,8750.0,0.0,0.0,110.0,110.0,433.0,0.0,0.0,0.0,1.0,333.3,87.1,87.1,70.9,70.9,34.0,9.08,48.32,9.6,41.9,2.0,-175.34,-20.7,100.0,7.4,13.6,32.5,40.5,0.0,1.0,100.0,0.0,0.0,0.0,0.0,1278.0,3220.0,2887.0,4639.0,322.2,316.4,348.4,343.8,25.88,23.94,27.87,26.85,325.0,325.0,355.0,355.0,100.0,99.94,100.0,100.0,1.37,1.43,0.92,1.0,-0.1,-0.1,4.5,3.5,87.8,75.6,93.9,87.6,102.3,95.8,103.1,98.3,98.5,91.3,101.5,95.9,96.3,89.3,100.2,94.4,-1.26,1.25,0.08,0.05,0.0,93.0,93.91,89.41,89.41,356.7,7.7,0.7805767098754612,30.968747142574117,108.39061498478384,32.40915408235477,50.41423905141443,0,2
265,13.2,342.7,44.05353614830819,-78.67999004986986,179.4,116.3,-184.0,-237.7,3695.5,3696.0,111.1,0.0,1.0,1.0,0.0,1.0,1.0,0.0,0.0,0.0,100.0,1.0,1.186,26.0,0.0,-17.631,74.678,66.0,0.0,26.0,26.0,26.0,26.0,0.51,0.52,-0.1,388.3,-2.39,-1.79,-1.93,-1.21,-520.86,569.11,5.5,0.0,0.0,0.0,0.0,0.19,-7.49,-7.49,-0.75,-3.02,1.26,1.94,30.88,0.32,-0.37,-13.25,100.0,0.0,0.0,92.06,0.0,0.0,0.0,0.0,0.0,0.0,0.0,7912.0,0.0,30.0,2.0,111.1,0.0,0.0,0.0,0.0,0.0,0.0,0.0,0.0,13.211,13.211,84.921,21.577,0.0,110.0,435.8,8750.0,0.0,0.0,110.0,110.0,433.0,0.0,0.0,0.0,1.0,166.7,73.3,73.3,83.4,83.4,34.0,19.04,63.98,4.7,23.3,2.0,-175.39,-11.2,100.0,16.3,19.4,23.3,28.6,0.0,1.0,100.0,0.0,0.0,0.0,0.0,4193.0,5175.0,2490.0,3777.0,314.9,311.8,349.5,346.2,25.88,23.95,27.87,26.86,325.0,325.0,355.0,355.0,100.0,99.94,100.0,100.0,0.66,0.82,1.05,1.2,-0.1,-0.1,6.7,5.4,87.8,75.7,94.0,87.6,102.2,95.7,103.1,98.2,98.4,91.3,101.5,95.9,96.3,89.3,100.1,94.4,-0.71,0.71,0.1,0.07,0.0,94.13,95.27,92.06,92.06,356.7,7.7,0.735187051028512,31.68895056978769,109.11081838354622,0.0,-50.414239620438224,0,2
266,13.25,344.2,44.053539925458935,-78.67997718957089,71.8,144.1,-52.2,1.0,3697.1,3697.0,112.1,0.0,1.0,1.0,0.0,1.0,1.0,0.0,0.0,0.0,100.0,1.0,1.186,26.0,0.0,-17.622,74.678,66.0,0.0,26.0,26.0,26.0,26.0,0.43,0.62,-0.05,386.6,-3.13,-2.3,-2.33,-0.47,-519.43,569.53,5.5,0.0,0.0,0.0,0.0,0.2,-7.49,-7.49,-0.64,6.04,1.37,-1.09,31.16,0.45,-0.35,-13.78,100.0,0.0,0.0,92.8,0.0,0.0,0.0,0.0,0.0,0.0,0.0,7976.0,0.0,30.0,2.0,112.1,1.0,0.0,0.0,0.0,0.0,0.0,0.0,0.0,13.26,13.26,84.921,21.577,1.0,110.0,435.8,8750.0,0.0,0.0,110.0,110.0,433.0,0.0,0.0,0.0,1.0,166.7,70.8,70.8,80.2,80.2,34.0,1.6,44.4,8.3,34.4,2.0,-175.44,-3.2,100.0,19.9,26.6,20.7,28.7,0.0,1.0,100.0,0.0,0.0,0.0,0.0,2478.0,4592.0,3137.0,4711.0,319.1,312.7,347.9,344.4,25.89,23.95,27.87,26.86,325.0,325.0,355.0,355.0,100.0,99.94,100.0,100.0,0.42,0.48,1.3,1.48,-0.1,-0.0,6.5,5.2,87.8,75.7,94.0,87.6,102.2,95.7,103.0,98.2,98.4,91.3,101.4,95.9,96.2,89.2,100.1,94.4,-0.25,0.24,0.1,0.08,0.0,95.12,96.38,92.8,92.8,356.7,7.7,0.7561745830163825,30.968747142574117,103.34919102274002,14.404068259759661,-18.00508553808342,0,2
267,13.3,345.8,44.053543882474,-78.67996423933977,-60.5,-122.6,170.4,157.2,3698.7,3699.0,113.4,0.0,1.0,1.0,0.0,1.0,1.0,0.0,0.0,0.0,100.0,1.0,1.186,26.0,0.0,-17.613,74.678,66.0,0.0,26.0,26.0,26.0,26.0,0.61,0.78,0.16,383.2,-3.13,-2.21,-1.7,-1.05,-517.99,569.97,5.5,0.0,0.0,0.0,0.0,0.2,-7.49,-7.49,-0.3,5.65,1.43,4.12,31.51,0.48,-0.2,-7.38,100.0,0.0,0.0,91.25,0.0,0.0,0.0,0.0,0.0,0.0,0.0,7842.0,0.0,30.0,2.0,113.4,0.0,0.0,0.0,0.0,0.0,0.0,0.0,0.0,13.309,13.309,84.921,21.577,0.0,110.0,435.8,8750.0,0.0,0.0,110.0,110.0,433.0,0.0,0.0,0.0,1.0,166.7,78.3,78.3,68.3,68.3,34.0,0.67,29.97,33.5,91.5,2.0,-175.49,2.8,100.0,16.9,20.4,29.2,36.5,0.0,1.0,100.0,0.0,0.0,0.0,0.0,1432.0,3687.0,5448.0,6710.0,321.5,315.4,342.3,338.4,25.89,23.96,27.88,26.86,325.0,325.0,355.0,355.0,100.0,99.94,100.0,100.0,0.41,0.4,1.07,1.32,-0.1,-0.1,3.7,2.9,87.8,75.7,94.0,87.6,102.1,95.6,103.0,98.2,98.3,91.2,101.4,95.9,96.1,89.2,100.1,94.4,0.11,-0.12,0.09,0.06,0.0,96.36,97.29,91.24,91.24,356.7,7.7,1.0030453628824572,33.129357395763655,107.31030982973788,43.212205063790634,79.22237613995719,0,2
268,13.35,347.4,44.05354819921771,-78.67995038978704,-77.1,-31.6,88.0,160.3,3700.2,3700.0,114.5,0.0,1.0,1.0,0.0,1.0,1.0,0.0,0.0,0.0,100.0,1.0,1.186,26.0,0.0,-17.601,74.678,66.0,0.0,26.0,26.0,26.0,26.0,0.35,0.64,-0.09,383.2,-2.68,-2.32,-2.22,-1.19,-516.45,570.45,5.5,0.0,0.0,0.0,0.0,0.2,-7.49,-7.49,-0.15,0.49,1.42,-3.19,31.82,0.36,-0.19,-1.73,100.0,0.0,0.0,92.12,0.0,0.0,0.0,0.0,0.0,0.0,0.0,7917.0,0.0,30.0,2.0,114.5,1.0,0.0,0.0,0.0,0.0,0.0,0.0,0.0,13.359,13.359,84.921,21.577,1.0,110.0,435.8,8750.0,0.0,0.0,110.0,110.0,433.0,0.0,0.0,0.0,1.0,333.3,81.8,81.8,65.2,65.2,34.0,-1.51,19.69,18.2,55.0,2.0,-175.54,7.1,100.0,13.1,18.9,33.6,44.5,0.0,1.0,100.0,0.0,0.0,0.0,0.0,1625.0,3248.0,5023.0,5333.0,321.1,317.3,343.1,342.1,25.89,23.96,27.88,26.86,325.0,325.0,355.0,355.0,100.0,99.94,100.0,100.0,0.23,0.24,0.75,0.88,-0.1,-0.0,3.0,2.7,87.8,75.8,94.0,87.7,102.0,95.6,103.0,98.2,98.2,91.2,101.4,95.9,96.1,89.1,100.1,94.4,0.38,-0.38,0.06,0.03,0.0,97.5,97.59,92.12,92.12,356.7,7.7,0.7349829930005184,35.28996764895318,111.27142863673573,21.606102816407144,18.00508553808342,0,2
269,13.4,349.0,44.053552695825736,-78.67993645030215,-40.8,-20.5,11.7,-109.9,3701.8,3702.0,115.6,0.0,1.0,1.0,0.0,1.0,1.0,0.0,0.0,0.0,100.0,1.0,1.186,26.0,0.0,-17.592,74.678,66.0,0.0,26.0,26.0,26.0,26.0,0.17,0.66,0.03,384.4,-2.77,-2.1,-2.04,-0.99,-514.9,570.95,5.5,0.0,0.0,0.0,0.0,0.2,-7.49,-7.49,-0.23,-3.21,1.23,-7.35,32.13,0.23,-0.2,1.67,100.0,0.0,0.0,92.89,0.0,0.0,0.0,0.0,0.0,0.0,0.0,7983.0,0.0,30.0,2.0,115.6,0.0,0.0,0.0,0.0,0.0,0.0,0.0,0.0,13.41,13.41,84.921,21.577,0.0,110.0,435.8,8750.0,0.0,0.0,110.0,110.0,433.0,0.0,0.0,0.0,1.0,333.3,81.6,81.6,66.0,66.0,34.0,-8.59,13.98,2.8,40.8,2.0,-175.59,10.1,100.0,11.0,17.8,34.2,39.0,0.0,1.0,100.0,0.0,0.0,0.0,0.0,2155.0,3781.0,4229.0,6122.0,320.0,315.3,345.3,340.1,25.9,23.97,27.88,26.87,325.0,325.0,355.0,355.0,100.0,99.94,100.0,100.0,-0.03,0.04,0.39,0.52,-0.2,-0.1,3.0,3.1,87.8,75.8,94.0,87.7,101.9,95.5,102.9,98.2,98.2,91.1,101.3,95.9,96.0,89.1,100.0,94.4,0.58,-0.57,0.07,0.04,0.0,98.53,98.37,92.89,92.89,356.7,7.7,0.6822023160324217,35.28996767740437,109.11081838354622,2.8451189848510694e-07,-10.803050981435831,0,2
270,13.45,350.6,44.05355701256945,-78.67992314034238,137.7,15.0,12.3,-129.0,3703.5,3703.0,116.6,0.0,1.0,1.0,0.0,1.0,1.0,0.0,0.0,0.0,100.0,1.0,1.186,26.0,0.0,-17.58,74.678,66.0,0.0,26.0,26.0,26.0,26.0,-0.02,0.61,-0.04,385.7,-1.8,-1.28,-0.86,-1.97,-513.42,571.43,5.5,0.0,0.0,0.0,0.0,0.2,-7.49,-7.49,-0.36,-1.55,0.87,-3.26,32.4,0.11,-0.3,4.88,100.0,0.0,0.0,94.12,0.0,0.0,0.0,0.0,0.0,0.0,0.0,8089.0,0.0,30.0,2.0,116.6,1.0,0.0,0.0,0.0,0.0,0.0,0.0,0.0,13.459,13.459,84.921,21.577,1.0,110.0,435.8,8750.0,0.0,0.0,110.0,110.0,433.0,0.0,0.0,0.0,1.0,333.3,78.3,78.3,72.7,72.7,34.0,-14.69,-0.17,-3.9,15.0,2.0,-175.64,10.6,100.0,17.9,18.6,34.8,32.6,0.0,1.0,100.0,0.0,0.0,0.0,0.0,3052.0,2298.0,3723.0,3954.0,317.1,319.5,345.7,345.1,25.9,23.97,27.88,26.87,325.0,325.0,355.0,355.0,100.0,99.94,100.0,100.0,-0.17,-0.15,0.02,0.14,-0.1,-0.1,3.1,3.5,87.9,75.8,94.0,87.7,101.9,95.4,102.9,98.2,98.1,91.0,101.3,95.8,95.9,89.0,100.0,94.3,0.62,-0.63,0.08,0.06,0.0,99.62,99.08,94.12,94.12,356.7,7.7,0.6116371473349211,35.28996767740437,110.19112353859215,10.803050981435902,50.414239620438366,0,2
271,13.5,352.3,44.05356150917748,-78.67990893106101,7.5,-20.6,-44.2,-41.0,3705.1,3705.0,117.7,0.0,1.0,1.0,0.0,1.0,1.0,0.0,0.0,0.0,100.0,1.0,1.186,26.0,0.0,-17.574,74.678,66.0,0.0,26.0,26.0,26.0,26.0,-0.2,0.68,0.18,383.2,-2.92,-2.39,-2.01,-1.75,-511.84,571.93,5.5,0.0,0.0,0.0,0.0,0.2,-7.49,-7.49,-0.41,-0.15,0.7,-3.53,32.7,0.01,-0.29,6.21,100.0,0.0,0.0,94.64,0.0,0.0,0.0,0.0,0.0,0.0,0.0,8134.0,0.0,30.0,2.0,117.7,0.0,0.0,0.0,0.0,0.0,0.0,0.0,0.0,13.509,13.509,84.921,21.577,0.0,110.0,435.8,8750.0,0.0,0.0,110.0,110.0,433.0,0.0,0.0,0.0,1.0,333.3,74.8,74.8,71.5,71.5,34.0,-44.86,2.46,-35.7,9.2,2.0,-175.69,9.7,100.0,18.3,17.6,32.6,30.5,0.0,1.0,100.0,0.0,0.0,0.0,0.0,5079.0,3436.0,6294.0,5192.0,312.8,316.1,341.3,342.6,25.9,23.98,27.89,26.87,325.0,325.0,355.0,355.0,100.0,99.94,100.0,100.0,-0.33,-0.22,-0.27,-0.07,-0.1,-0.1,3.1,3.6,87.9,75.9,94.0,87.7,101.8,95.4,102.9,98.1,98.0,91.0,101.2,95.8,95.9,89.0,99.9,94.3,0.57,-0.59,0.08,0.08,0.0,100.68,100.05,94.64,94.64,356.7,7.7,0.7313002119512889,36.37027277554796,114.15224234559005,3.6010169938118963,18.00508553808342,0,2
272,13.55,353.9,44.05356609571766,-78.67989463184747,49.7,-2.0,38.9,2.9,3706.8,3707.0,118.7,0.0,1.0,1.0,0.0,1.0,1.0,0.0,0.0,0.0,100.0,1.0,1.186,26.0,0.0,-17.562,74.678,66.0,0.0,26.0,26.0,26.0,26.0,-0.22,0.52,-0.08,385.3,-1.92,-2.7,-1.34,-1.5,-510.25,572.44,5.5,0.0,0.0,0.0,0.0,0.2,-7.49,-7.49,-0.39,0.79,0.66,1.14,32.99,-0.07,-0.31,6.45,100.0,0.0,0.0,95.96,0.0,0.0,0.0,0.0,0.0,0.0,0.0,8247.0,0.0,30.0,2.0,118.7,1.0,0.0,0.0,0.0,0.0,0.0,0.0,0.0,13.56,13.56,84.921,21.577,1.0,110.0,435.8,8750.0,0.0,0.0,110.0,110.0,433.0,0.0,0.0,0.0,1.0,333.3,75.9,75.9,76.8,76.8,34.0,-32.02,0.49,-20.4,-2.8,2.0,-175.74,7.6,100.0,20.8,17.5,34.6,30.7,0.0,1.0,100.0,0.0,0.0,0.0,0.0,4267.0,2349.0,3629.0,3949.0,314.6,319.2,346.7,345.1,25.91,23.99,27.89,26.87,325.0,325.0,355.0,355.0,100.0,99.94,100.0,100.0,-0.35,-0.29,-0.45,-0.32,-0.1,-0.1,3.0,3.6,87.9,75.9,94.0,87.7,101.7,95.3,102.8,98.1,98.0,90.9,101.2,95.8,95.8,88.9,99.9,94.2,0.46,-0.46,0.07,0.08,0.0,101.55,100.88,95.96,95.96,356.7,7.7,0.5702630971753302,35.65006937678556,111.9916320924005,3.6010175628356222,25.207120094730442,0,2
273,13.6,355.6,44.053570412461376,-78.67988096215906,-17.9,-99.5,26.6,48.9,3708.4,3708.0,119.8,0.0,1.0,1.0,0.0,1.0,1.0,0.0,0.0,0.0,100.0,1.0,1.186,26.0,0.0,-17.556,74.678,66.0,0.0,26.0,26.0,26.0,26.0,-0.37,0.65,0.06,384.8,-2.11,-1.92,-0.78,-1.41,-508.73,572.92,5.5,0.0,0.0,0.0,0.0,0.2,-7.49,-7.49,-0.33,-0.45,0.77,4.03,33.29,-0.1,-0.25,4.93,100.0,0.0,0.0,95.81,0.0,0.0,0.0,0.0,0.0,0.0,0.0,8234.0,0.0,30.0,2.0,119.8,0.0,0.0,0.0,0.0,0.0,0.0,0.0,0.0,13.609,13.609,84.921,21.577,0.0,110.0,435.8,8750.0,0.0,0.0,110.0,110.0,433.0,0.0,0.0,0.0,1.0,333.3,80.8,80.8,73.8,73.8,34.0,-28.4,-1.37,-37.7,-6.4,2.0,-175.79,4.8,100.0,19.9,12.5,35.9,33.1,0.0,1.0,100.0,0.0,0.0,0.0,0.0,3803.0,1290.0,5277.0,5327.0,315.8,321.6,341.9,342.0,25.91,23.99,27.89,26.88,325.0,325.0,355.0,355.0,100.0,99.94,100.0,100.0,-0.35,-0.34,-0.53,-0.34,-0.1,-0.2,2.4,2.8,87.9,75.9,94.1,87.7,101.7,95.2,102.8,98.1,97.9,90.8,101.2,95.7,95.7,88.8,99.9,94.2,0.3,-0.32,0.07,0.05,0.0,102.35,101.75,95.81,95.81,356.7,7.7,0.7503332592921629,36.73037453183152,116.6729543550631,7.202034272135762,57.61627360806216,0,2
274,13.65,357.3,44.05357526879805,-78.67986549382744,-62.6,20.9,-19.5,26.2,3710.1,3710.0,120.8,0.0,1.0,1.0,0.0,1.0,1.0,0.0,0.0,0.0,100.0,1.0,1.186,26.0,0.0,-17.547,74.678,66.0,0.0,26.0,26.0,26.0,26.0,-0.2,0.58,-0.06,385.9,-2.1,-1.44,-1.29,-2.17,-507.01,573.46,5.5,0.0,0.0,0.0,0.0,0.2,-7.49,-7.49,-0.42,-2.81,1.0,2.75,33.58,-0.1,-0.28,3.27,100.0,0.0,0.0,96.94,0.0,0.0,0.0,0.0,0.0,0.0,0.0,8331.0,0.0,30.0,2.0,120.8,1.0,0.0,0.0,0.0,0.0,0.0,0.0,0.0,13.661,13.661,84.921,21.577,1.0,110.0,435.8,8750.0,0.0,0.0,110.0,110.0,433.0,0.0,0.0,0.0,1.0,166.7,81.3,81.3,71.3,71.3,34.0,-13.03,0.33,-27.8,1.0,2.0,-175.84,1.5,100.0,16.7,13.5,34.9,34.4,0.0,1.0,100.0,0.0,0.0,0.0,0.0,2419.0,3160.0,4336.0,4797.0,319.2,317.0,344.6,343.4,25.91,24.0,27.89,26.88,325.0,325.0,355.0,355.0,100.0,99.94,100.0,100.0,-0.22,-0.16,-0.45,-0.31,-0.1,-0.1,2.6,2.9,87.9,76.0,94.1,87.7,101.6,95.2,102.7,98.0,97.8,90.8,101.1,95.7,95.7,88.8,99.8,94.2,0.12,-0.11,0.07,0.06,0.0,103.01,102.83,96.94,96.94,356.7,7.7,0.6164414002968976,36.370272803999136,117.75325945320671,-25.20712009473101,-46.81322262662604,0,2
206,10.25,317.7,44.053504222391176,-78.68013025410822,-22.7,6.2,62.7,28.1,5405.0,5405.0,126.5,0.0,1.0,1.0,0.0,1.0,1.0,0.0,0.0,0.0,100.0,1.0,1.186,26.0,0.0,-2.37,66.767,66.0,0.0,26.0,26.0,26.0,26.0,0.28,0.53,0.2,376.9,-2.41,-3.5,-0.84,-0.57,-536.45,565.56,5.5,0.0,0.0,0.0,0.0,0.19,-7.49,-7.49,-0.24,1.67,1.17,1.18,35.15,0.14,-0.19,-3.8,100.0,0.0,0.0,100.93,0.0,0.0,0.0,0.0,0.0,0.0,0.0,6766.0,0.0,30.0,3.0,126.5,1.0,0.0,0.0,0.0,0.0,0.0,1.0,0.0,10.29,10.29,66.769,22.059,1.0,110.0,435.8,8750.0,0.0,0.0,110.0,110.0,433.0,0.0,0.0,0.0,1.0,333.3,75.2,75.2,58.8,58.8,34.0,2.95,35.59,10.5,34.0,3.0,-239.24,-6.4,100.0,19.5,21.7,38.7,46.2,0.0,1.0,100.0,0.0,0.0,0.0,0.0,1887.0,3622.0,5813.0,5768.0,319.9,314.7,340.5,340.5,24.83,23.7,25.89,25.28,325.0,325.0,355.0,355.0,100.0,100.0,99.98,100.0,0.42,0.39,0.28,0.39,-0.1,-0.1,2.3,1.9,81.2,74.2,81.5,77.7,84.3,85.8,79.8,78.4,81.2,81.8,78.4,76.6,78.9,79.4,77.2,75.4,-0.37,0.35,0.06,0.03,0.0,107.66,108.06,100.93,100.93,356.7,7.7,0.6319018911191833,33.129357395763655,117.0330560544443,21.606102816407144,50.414239620438224,0,2
207,10.3,319.4,44.053508629067046,-78.68011469584444,-43.3,5.2,15.2,-58.5,5406.8,5407.0,127.4,0.0,1.0,1.0,0.0,1.0,1.0,0.0,0.0,0.0,100.0,1.0,1.186,26.0,0.0,-2.382,66.767,66.0,0.0,26.0,26.0,26.0,26.0,0.29,0.52,0.26,377.1,-2.04,-2.0,-2.71,-1.5,-534.72,566.05,5.5,0.0,0.0,0.0,0.0,0.19,-7.49,-7.49,-0.26,-1.09,1.29,1.83,35.4,0.11,-0.26,-3.75,100.0,0.0,0.0,101.71,0.0,0.0,0.0,0.0,0.0,0.0,0.0,6818.0,0.0,30.0,3.0,127.4,0.0,0.0,0.0,0.0,0.0,0.0,1.0,0.0,10.341,10.341,66.769,22.059,0.0,110.0,435.8,8750.0,0.0,0.0,110.0,110.0,433.0,0.0,0.0,0.0,1.0,333.3,72.4,72.4,59.4,59.4,34.0,6.29,47.64,-9.5,39.4,3.0,-239.29,-7.3,100.0,17.3,22.0,39.5,43.3,0.0,1.0,100.0,0.0,0.0,0.0,0.0,3447.0,5204.0,4671.0,5709.0,316.2,311.3,343.1,340.5,24.83,23.71,25.88,25.28,325.0,325.0,355.0,355.0,100.0,100.0,99.98,100.0,0.39,0.46,0.24,0.35,-0.1,-0.1,2.4,2.1,81.2,74.2,81.5,77.7,84.3,85.8,79.8,78.4,81.2,81.7,78.4,76.6,78.8,79.3,77.2,75.4,-0.4,0.4,0.06,0.03,0.0,108.48,108.75,101.71,101.71,356.7,7.7,0.6496922348312315,35.65006937678556,124.95529366844008,21.606102816407144,50.41423905141471,0,2
208,10.35,321.2,44.053513125675074,-78.6800990476485,26.8,18.8,-117.6,-59.8,5408.6,5409.0,128.3,0.0,1.0,1.0,0.0,1.0,1.0,0.0,0.0,0.0,100.0,1.0,1.186,26.0,0.0,-2.397,66.767,66.0,0.0,26.0,26.0,26.0,26.0,0.24,0.51,-0.12,382.3,-3.02,-2.6,-1.82,-1.42,-532.98,566.55,5.5,0.0,0.0,0.0,0.0,0.19,-7.49,-7.49,-0.25,0.87,1.21,-3.19,35.64,0.12,-0.3,-4.93,100.0,0.0,0.0,103.25,0.0,0.0,0.0,0.0,0.0,0.0,0.0,6921.0,0.0,30.0,3.0,128.3,1.0,0.0,0.0,0.0,0.0,0.0,1.0,0.0,10.391,10.391,66.769,22.059,1.0,110.0,435.8,8750.0,0.0,0.0,110.0,110.0,433.0,0.0,0.0,0.0,1.0,333.3,75.5,75.5,66.9,66.9,34.0,2.44,28.24,2.5,23.0,3.0,-239.34,-7.2,100.0,18.7,22.9,33.6,40.3,0.0,1.0,100.0,0.0,0.0,0.0,0.0,1872.0,3169.0,4765.0,3648.0,319.5,316.4,343.6,345.5,24.83,23.71,25.88,25.28,325.0,325.0,355.0,355.0,100.0,100.0,99.98,100.0,0.47,0.46,0.34,0.45,-0.1,-0.1,3.2,2.7,81.2,74.2,81.5,77.7,84.2,85.7,79.8,78.4,81.1,81.7,78.4,76.6,78.8,79.3,77.1,75.4,-0.41,0.42,0.08,0.05,0.0,109.1,109.52,103.24,103.24,356.7,7.7,0.5762811813689563,35.28996767740437,122.07447995958577,18.00508553808335,14.404068544271382,0,2
