,Time,Distance,GPS Latitude,GPS Longitude,Damper Velocity (Calc) FL,Damper Velocity (Calc) FR,Damper Velocity (Calc) RL,Damper Velocity (Calc) RR,Corr Dist,Corr Dist (Unstretched),Corr Speed,ABS Active,ABS Enabled,AID Allow Tire Blankets,AID Auto Blip,AID Auto Clutch,AID Auto Shift,AID Fuel Rate,AID Ideal Line,AID Mech Damage,AID Stability,AID Tire Wear Rate,Air Density,Air Temp,Ballast,Best Lap Delta,Best Lap Time,Brake Bias,Brake Pos,Brake Temp FL,Brake Temp FR,Brake Temp RL,Brake Temp RR,CG Accel Lateral,CG Accel Longitudinal,CG Accel Vertical,CG Height,Camber FL,Camber FR,Camber RL,Camber RR,Car Coord X,Car Coord Y,Car Coord Z,Car Damage Front,Car Damage Left,Car Damage Rear,Car Damage Right,Car Pos Norm,Caster FL,Caster FR,Chassis Pitch Angle,Chassis Pitch Rate,Chassis Roll Angle,Chassis Roll Rate,Chassis Velocity X,Chassis Velocity Y,Chassis Velocity Z,Chassis Yaw Rate,Clutch Pos,DRS Active,DRS Available,Drive Train Speed,ERS Heat Charging,ERS Is Charging,ERS Max Energy,ERS Power Level,ERS Recovery Level,Engine Brake Setting,Engine Limiter,Engine RPM,Flags,Fuel Level,Gear,Ground Speed,HR Sample Clock,In Pit,KERS Charge,KERS Deployed Energy,KERS Input,KERS Max Energy,LR Sample Clock,Lap Invalidated,Lap Time,Lap Time2,Last Lap Time,Last Sector Time,MR Sample Clock,Max Fuel,Max Power,Max RPM,Max Sus Travel FL,Max Sus Travel FR,Max Sus Travel RL,Max Sus Travel RR,Max Torque,Max Turbo Boost,Num Tires Off Track,Penalties Enabled,Position,Raw Data Sample Rate,Ride Height FL,Ride Height FR,Ride Height RL,Ride Height RR,Road Temp,Self Align Torque FL,Self Align Torque FR,Self Align Torque RL,Self Align Torque RR,Session Lap Count,Session Time Left,Steering Angle,Surface Grip,Suspension Travel FL,Suspension Travel FR,Suspension Travel RL,Suspension Travel RR,TC Active,TC Enabled,Throttle Pos,Tire Dirt Level FL,Tire Dirt Level FR,Tire Dirt Level RL,Tire Dirt Level RR,Tire Load FL,Tire Load FR,Tire Load RL,Tire Load RR,Tire Loaded Radius FL,Tire Loaded Radius FR,Tire Loaded Radius RL,Tire Loaded Radius RR,Tire Pressure FL,Tire Pressure FR,Tire Pressure RL,Tire Pressure RR,Tire Radius FL,Tire Radius FR,Tire Radius RL,Tire Radius RR,Tire Rubber Grip FL,Tire Rubber Grip FR,Tire Rubber Grip RL,Tire Rubber Grip RR,Tire Slip Angle FL,Tire Slip Angle FR,Tire Slip Angle RL,Tire Slip Angle RR,Tire Slip Ratio FL,Tire Slip Ratio FR,Tire Slip Ratio RL,Tire Slip Ratio RR,Tire Temp Core FL,Tire Temp Core FR,Tire Temp Core RL,Tire Temp Core RR,Tire Temp Inner FL,Tire Temp Inner FR,Tire Temp Inner RL,Tire Temp Inner RR,Tire Temp Middle FL,Tire Temp Middle FR,Tire Temp Middle RL,Tire Temp Middle RR,Tire Temp Outer FL,Tire Temp Outer FR,Tire Temp Outer RL,Tire Temp Outer RR,Toe In FL,Toe In FR,Toe In RL,Toe In RR,Turbo Boost,Wheel Angular Speed FL,Wheel Angular Speed FR,Wheel Angular Speed RL,Wheel Angular Speed RR,Wind Direction,Wind Speed,CG Distance,Lateral Velocity,Longitudinal Velocity,Lateral Acceleration,Longitudinal Acceleration,level,curve_number
417,20.8,674.8,44.05227538934885,-78.68045122198937,5.1,-7.5,7.4,-7.2,5782.9,5783.0,143.9,0.0,1.0,1.0,0.0,1.0,1.0,0.0,0.0,0.0,100.0,1.0,1.186,26.0,0.0,-1.299,50.194,66.0,0.0,26.0,26.0,26.0,26.0,0.09,0.44,-0.08,386.0,-2.5,-2.34,-1.69,-1.39,-572.14,428.92,5.6,0.0,0.0,0.0,0.0,0.39,-7.49,-7.49,1.07,-0.81,0.31,0.94,39.99,0.1,-0.31,-0.55,100.0,0.0,0.0,114.97,0.0,0.0,0.0,0.0,0.0,0.0,0.0,7707.0,0.0,30.0,3.0,143.9,1.0,0.0,0.0,0.0,0.0,0.0,1.0,0.0,20.836,20.836,50.194,13.681,1.0,110.0,435.8,8750.0,0.0,0.0,110.0,110.0,433.0,0.0,0.0,0.0,1.0,166.7,77.5,77.5,70.9,70.9,34.0,-6.9,17.23,-7.9,24.3,3.0,-205.165,-0.2,100.0,17.1,18.4,33.0,36.7,0.0,1.0,100.0,0.0,0.0,0.0,0.0,3028.0,3150.0,4324.0,4818.0,317.3,316.4,344.2,342.5,25.09,23.0,26.0,24.7,325.0,325.0,355.0,355.0,100.0,99.92,100.0,100.0,0.12,0.16,0.09,0.23,-0.0,-0.1,2.3,2.3,82.8,69.8,82.2,74.1,87.1,72.6,85.8,77.9,83.7,69.5,84.1,75.5,81.1,68.0,83.0,74.4,-0.02,0.01,0.07,0.05,0.0,122.59,122.62,114.97,114.97,174.7,27.6,0.4561797891182817,82.46329177580235,115.95275089939837,32.40915379784283,43.21220506379092,1,7
418,20.85,676.8,44.052264777353905,-78.68046615072804,4.1,-6.0,6.5,-5.2,5785.0,5785.0,144.7,0.0,1.0,1.0,0.0,1.0,1.0,0.0,0.0,0.0,100.0,1.0,1.186,26.0,0.0,-1.296,50.194,66.0,0.0,26.0,26.0,26.0,26.0,0.05,0.44,-0.04,385.9,-2.52,-2.42,-1.69,-1.43,-573.8,427.74,5.6,0.0,0.0,0.0,0.0,0.39,-7.49,-7.49,1.03,-0.74,0.36,0.95,40.21,0.09,-0.31,-0.35,100.0,0.0,0.0,115.57,0.0,0.0,0.0,0.0,0.0,0.0,0.0,7747.0,0.0,30.0,3.0,144.7,0.0,0.0,0.0,0.0,0.0,0.0,0.0,0.0,20.886,20.886,50.194,13.681,0.0,110.0,435.8,8750.0,0.0,0.0,110.0,110.0,433.0,0.0,0.0,0.0,1.0,333.3,77.5,77.5,70.7,70.7,34.0,-9.3,15.32,-11.3,22.5,3.0,-205.215,0.0,100.0,17.3,18.1,33.3,36.5,0.0,1.0,100.0,0.0,0.0,0.0,0.0,3090.0,3147.0,4427.0,4771.0,317.2,316.4,344.0,342.6,25.08,23.0,26.0,24.7,325.0,325.0,355.0,355.0,100.0,99.92,100.0,100.0,0.06,0.1,0.03,0.19,-0.1,-0.1,2.3,2.3,82.8,69.8,82.2,74.1,87.0,72.6,85.8,77.9,83.7,69.5,84.0,75.5,81.0,68.0,83.0,74.4,0.01,-0.02,0.09,0.05,0.0,123.28,123.29,115.57,115.57,174.7,27.6,0.4446346815083142,85.70420718403781,119.91386970639626,14.404068828783352,10.803050981435831,1,7
419,20.9,678.8,44.05225398549463,-78.68048116939885,3.3,-4.7,7.3,-2.8,5787.0,5787.0,145.5,0.0,1.0,1.0,0.0,1.0,1.0,0.0,0.0,0.0,100.0,1.0,1.186,26.0,0.0,-1.296,50.194,66.0,0.0,26.0,26.0,26.0,26.0,0.03,0.42,-0.07,385.8,-2.44,-2.4,-1.61,-1.42,-575.47,426.54,5.7,0.0,0.0,0.0,0.0,0.39,-7.49,-7.49,1.0,-0.74,0.41,1.16,40.42,0.07,-0.31,-0.14,100.0,0.0,0.0,116.17,0.0,0.0,0.0,0.0,0.0,0.0,0.0,7788.0,0.0,30.0,3.0,145.5,1.0,0.0,0.0,0.0,0.0,0.0,0.0,0.0,20.937,20.937,50.194,13.681,1.0,110.0,435.8,8750.0,0.0,0.0,110.0,110.0,433.0,0.0,0.0,0.0,1.0,333.3,77.6,77.6,70.7,70.7,34.0,-11.1,13.85,-11.5,20.5,3.0,-205.265,0.9,100.0,17.4,17.8,33.7,36.3,0.0,1.0,100.0,0.0,0.0,0.0,0.0,3130.0,3041.0,4454.0,4744.0,317.0,316.7,343.9,342.7,25.08,23.0,26.0,24.7,325.0,325.0,355.0,355.0,100.0,99.92,100.0,100.0,0.01,0.08,0.02,0.16,-0.1,-0.1,2.3,2.3,82.8,69.8,82.2,74.1,87.0,72.5,85.8,77.9,83.6,69.5,84.0,75.5,81.0,68.0,83.0,74.4,0.05,-0.04,0.08,0.05,0.0,123.92,123.94,116.17,116.17,174.7,27.6,0.42684891940826086,83.90369865868068,117.03305599754195,-14.404068544271382,-21.60610253189546,1,7
420,20.95,680.9,44.05224382316048,-78.68049537868022,0.3,-3.4,6.1,-2.7,5789.0,5789.0,146.2,0.0,1.0,1.0,0.0,1.0,1.0,0.0,0.0,0.0,100.0,1.0,1.186,26.0,0.0,-1.293,50.194,66.0,0.0,26.0,26.0,26.0,26.0,-0.03,0.44,-0.07,385.8,-2.46,-2.42,-1.62,-1.46,-577.05,425.41,5.7,0.0,0.0,0.0,0.0,0.39,-7.49,-7.49,0.96,-0.82,0.47,0.81,40.62,0.07,-0.31,0.47,100.0,0.0,0.0,116.74,0.0,0.0,0.0,0.0,0.0,0.0,0.0,7826.0,0.0,30.0,3.0,146.2,0.0,0.0,0.0,0.0,0.0,0.0,0.0,0.0,20.984,20.984,50.194,13.681,0.0,110.0,435.8,8750.0,0.0,0.0,110.0,110.0,433.0,0.0,0.0,0.0,1.0,333.3,77.7,77.7,70.5,70.5,34.0,-15.8,8.16,-13.4,19.7,3.0,-205.315,4.0,100.0,17.5,17.7,34.0,36.2,0.0,1.0,100.0,0.0,0.0,0.0,0.0,3148.0,2987.0,4503.0,4709.0,317.0,316.8,343.8,342.8,25.08,23.0,26.0,24.7,325.0,325.0,355.0,355.0,100.0,99.92,100.0,100.0,-0.1,-0.07,-0.01,0.14,-0.1,-0.1,2.3,2.3,82.8,69.8,82.2,74.1,86.9,72.5,85.7,77.8,83.5,69.4,84.0,75.5,80.9,67.9,83.0,74.4,0.2,-0.2,0.07,0.05,0.0,124.57,124.54,116.74,116.74,174.7,27.6,0.44654227123532214,84.26380032961067,117.75325945320671,32.409153513331006,50.41424018946174,1,7
421,21.0,682.9,44.052232941369056,-78.68051057721536,4.0,-6.4,9.1,-8.7,5791.1,5791.0,147.0,0.0,1.0,1.0,0.0,1.0,1.0,0.0,0.0,0.0,100.0,1.0,1.186,26.0,0.0,-1.29,50.194,66.0,0.0,26.0,26.0,26.0,26.0,-0.12,0.43,-0.05,385.8,-2.44,-2.39,-1.56,-1.48,-578.74,424.2,5.8,0.0,0.0,0.0,0.0,0.4,-7.49,-7.49,0.91,-1.0,0.49,0.1,40.84,0.06,-0.31,2.3,100.0,0.0,0.0,117.35,0.0,0.0,0.0,0.0,0.0,0.0,0.0,7866.0,0.0,30.0,3.0,147.0,1.0,0.0,0.0,0.0,0.0,0.0,0.0,0.0,21.036,21.036,50.194,13.681,1.0,110.0,435.8,8750.0,0.0,0.0,110.0,110.0,433.0,0.0,0.0,0.0,1.0,333.3,77.8,77.8,70.6,70.6,34.0,-26.1,-1.65,-16.4,16.3,3.0,-205.365,9.7,100.0,17.7,17.3,34.4,35.8,0.0,1.0,100.0,0.0,0.0,0.0,0.0,3301.0,2818.0,4615.0,4588.0,316.6,317.3,343.5,343.1,25.08,23.0,26.0,24.7,325.0,325.0,355.0,355.0,100.0,99.92,100.0,100.0,-0.35,-0.32,-0.07,0.09,-0.1,-0.0,2.2,2.3,82.8,69.8,82.3,74.1,86.8,72.5,85.7,77.8,83.5,69.4,84.0,75.5,80.9,67.9,82.9,74.4,0.51,-0.52,0.07,0.06,0.0,125.29,125.12,117.34,117.34,174.7,27.6,0.44922154890432403,87.14461401001378,122.07448001648812,3.601017278323866,18.005086107106933,1,7
422,21.05,685.0,44.05222205957762,-78.68052586568267,10.3,-8.0,13.0,-19.2,5793.1,5793.0,147.7,0.0,1.0,1.0,0.0,1.0,1.0,0.0,0.0,0.0,100.0,1.0,1.186,26.0,0.0,-1.284,50.194,66.0,0.0,26.0,26.0,26.0,26.0,-0.26,0.44,-0.1,385.9,-2.43,-2.45,-1.51,-1.57,-580.44,422.99,5.8,0.0,0.0,0.0,0.0,0.4,-7.49,-7.49,0.86,-1.15,0.48,-0.51,41.05,0.03,-0.32,5.11,100.0,0.0,0.0,117.94,0.0,0.0,0.0,0.0,0.0,0.0,0.0,7907.0,0.0,30.0,3.0,147.7,0.0,0.0,0.0,0.0,0.0,0.0,0.0,0.0,21.087,21.087,50.194,13.681,0.0,110.0,435.8,8750.0,0.0,0.0,110.0,110.0,433.0,0.0,0.0,0.0,1.0,333.3,77.8,77.8,70.7,70.7,34.0,-36.7,-7.47,-24.3,9.2,3.0,-205.415,13.7,100.0,18.2,16.9,35.1,34.8,0.0,1.0,100.0,0.0,0.0,0.0,0.0,3554.0,2535.0,4818.0,4355.0,316.0,318.1,343.0,343.7,25.08,23.0,26.0,24.7,325.0,325.0,355.0,355.0,100.0,99.92,100.0,100.0,-0.58,-0.55,-0.19,-0.05,-0.1,-0.1,2.1,2.4,82.8,69.8,82.3,74.1,86.8,72.4,85.7,77.8,83.4,69.4,83.9,75.5,80.8,67.9,82.9,74.4,0.77,-0.79,0.07,0.06,0.0,126.02,125.61,117.94,117.94,174.7,27.6,0.5207686626516614,84.62390205744306,119.5537680639174,-25.207119525707213,-18.00508610710665,1,7
423,21.1,687.0,44.052211807311316,-78.68054043469269,14.8,-9.2,13.6,-21.6,5795.2,5795.0,148.4,0.0,1.0,1.0,0.0,1.0,1.0,0.0,0.0,0.0,100.0,1.0,1.186,26.0,0.0,-1.281,50.194,66.0,0.0,26.0,26.0,26.0,26.0,-0.37,0.41,-0.11,385.9,-2.37,-2.48,-1.41,-1.61,-582.06,421.85,5.9,0.0,0.0,0.0,0.0,0.4,-7.49,-7.49,0.79,-1.28,0.47,-0.16,41.25,-0.05,-0.32,7.53,100.0,0.0,0.0,118.54,0.0,0.0,0.0,0.0,0.0,0.0,0.0,7947.0,0.0,30.0,3.0,148.4,1.0,0.0,0.0,0.0,0.0,0.0,0.0,0.0,21.134,21.134,50.194,13.681,1.0,110.0,435.8,8750.0,0.0,0.0,110.0,110.0,433.0,0.0,0.0,0.0,1.0,333.3,77.7,77.7,71.0,71.0,34.0,-42.8,-8.9,-34.2,0.9,3.0,-205.465,14.8,100.0,18.9,16.5,35.8,33.7,0.0,1.0,100.0,0.0,0.0,0.0,0.0,3737.0,2350.0,4909.0,4213.0,315.5,318.6,342.8,344.1,25.08,23.0,26.0,24.7,325.0,325.0,355.0,355.0,100.0,99.92,100.0,100.0,-0.69,-0.65,-0.37,-0.23,-0.1,-0.1,2.0,2.6,82.8,69.8,82.3,74.1,86.7,72.4,85.7,77.8,83.4,69.3,83.9,75.5,80.8,67.8,82.9,74.4,0.86,-0.86,0.07,0.06,0.0,126.74,126.09,118.54,118.54,174.7,27.6,0.5631163290120434,84.62390205744306,120.27397140577746,25.207119810219183,54.01525604522675,1,7
424,21.15,689.1,44.052200925519884,-78.6805559030243,13.8,-10.9,12.0,-20.2,5797.2,5797.0,149.2,0.0,1.0,1.0,0.0,1.0,1.0,0.0,0.0,0.0,100.0,1.0,1.186,26.0,0.0,-1.281,50.194,66.0,0.0,26.0,26.0,26.0,26.0,-0.45,0.42,-0.05,385.8,-2.31,-2.59,-1.38,-1.73,-583.78,420.64,5.9,0.0,0.0,0.0,0.0,0.4,-7.49,-7.49,0.72,-1.3,0.47,0.13,41.45,-0.15,-0.33,9.11,100.0,0.0,0.0,119.19,0.0,0.0,0.0,0.0,0.0,0.0,0.0,7990.0,0.0,30.0,3.0,149.2,0.0,0.0,0.0,0.0,0.0,0.0,0.0,0.0,21.186,21.186,50.194,13.681,0.0,110.0,435.8,8750.0,0.0,0.0,110.0,110.0,433.0,0.0,0.0,0.0,1.0,333.3,77.5,77.5,71.2,71.2,34.0,-48.8,-10.11,-45.9,-6.2,3.0,-205.515,14.7,100.0,19.6,15.9,36.4,32.7,0.0,1.0,100.0,0.0,0.0,0.0,0.0,3959.0,2267.0,5043.0,4032.0,315.0,318.9,342.5,344.5,25.08,23.0,26.0,24.7,325.0,325.0,355.0,355.0,100.0,99.92,100.0,100.0,-0.78,-0.74,-0.57,-0.42,-0.1,-0.1,2.0,2.7,82.8,69.8,82.3,74.1,86.7,72.4,85.7,77.8,83.4,69.3,83.9,75.5,80.7,67.8,82.9,74.4,0.86,-0.86,0.07,0.06,0.0,127.46,126.64,119.19,119.19,174.7,27.6,0.6175759062657804,87.14461403846498,124.95529366844008,-3.6010169938118963,21.606103100918688,1,7
425,21.2,691.2,44.05219004372845,-78.68057164115241,10.5,-7.6,11.2,-16.7,5799.3,5799.0,149.9,0.0,1.0,1.0,0.0,1.0,1.0,0.0,0.0,0.0,100.0,1.0,1.186,26.0,0.0,-1.275,50.194,66.0,0.0,26.0,26.0,26.0,26.0,-0.56,0.43,-0.11,385.8,-2.25,-2.64,-1.31,-1.75,-585.53,419.43,5.9,0.0,0.0,0.0,0.0,0.4,-7.49,-7.49,0.66,-1.09,0.48,-0.11,41.66,-0.25,-0.34,9.94,100.0,0.0,0.0,119.82,0.0,0.0,0.0,0.0,0.0,0.0,0.0,8032.0,0.0,30.0,3.0,149.9,1.0,0.0,0.0,0.0,0.0,0.0,0.0,0.0,21.237,21.237,50.194,13.681,1.0,110.0,435.8,8750.0,0.0,0.0,110.0,110.0,433.0,0.0,0.0,0.0,1.0,333.3,77.5,77.5,71.2,71.2,34.0,-53.7,-11.04,-55.0,-11.6,3.0,-205.565,14.7,100.0,20.1,15.5,36.9,31.9,0.0,1.0,100.0,0.0,0.0,0.0,0.0,4096.0,2085.0,5172.0,3922.0,314.6,319.3,342.1,344.8,25.08,23.0,26.0,24.7,325.0,325.0,355.0,355.0,100.0,99.92,100.0,100.0,-0.87,-0.85,-0.73,-0.58,-0.1,-0.1,2.0,2.7,82.8,69.8,82.3,74.1,86.7,72.3,85.6,77.8,83.3,69.3,83.9,75.5,80.7,67.8,82.9,74.4,0.85,-0.86,0.07,0.07,0.0,128.14,127.23,119.82,119.82,174.7,27.6,0.7145628033979938,84.26380035806187,122.43458171586933,-36.01017107616684,-14.404068544271382,1,7
426,21.25,693.3,44.0521798813943,-78.6805864799589,7.3,-10.2,12.9,-12.0,5801.4,5801.0,150.6,0.0,1.0,1.0,0.0,1.0,1.0,0.0,0.0,0.0,100.0,1.0,1.186,26.0,0.0,-1.272,50.194,66.0,0.0,26.0,26.0,26.0,26.0,-0.62,0.42,-0.11,385.8,-2.21,-2.65,-1.25,-1.78,-587.18,418.3,6.0,0.0,0.0,0.0,0.0,0.4,-7.49,-7.49,0.6,-1.1,0.49,0.01,41.84,-0.33,-0.34,10.41,100.0,0.0,0.0,120.38,0.0,0.0,0.0,0.0,0.0,0.0,0.0,8070.0,0.0,30.0,3.0,150.6,0.0,0.0,0.0,0.0,0.0,0.0,0.0,0.0,21.284,21.284,50.194,13.681,0.0,110.0,435.8,8750.0,0.0,0.0,110.0,110.0,433.0,0.0,0.0,0.0,1.0,166.7,77.7,77.7,71.0,71.0,34.0,-58.9,-12.07,-62.4,-15.4,3.0,-205.615,15.4,100.0,20.5,15.0,37.6,31.3,0.0,1.0,100.0,0.0,0.0,0.0,0.0,4173.0,1931.0,5291.0,3840.0,314.4,319.7,341.8,345.0,25.08,23.0,26.0,24.7,325.0,325.0,355.0,355.0,100.0,99.92,100.0,100.0,-1.0,-0.98,-0.86,-0.71,-0.1,-0.1,2.0,2.8,82.8,69.8,82.3,74.1,86.6,72.3,85.6,77.8,83.3,69.2,83.9,75.4,80.7,67.7,82.9,74.4,0.88,-0.9,0.07,0.06,0.0,128.71,127.76,120.38,120.38,174.7,27.6,0.7569015788066503,83.5435969308483,123.51488681401294,14.404068259759413,61.21729060187434,1,7
427,21.3,695.4,44.05216917946719,-78.68060248788349,3.5,-10.5,12.3,-12.6,5803.5,5804.0,151.3,0.0,1.0,1.0,0.0,1.0,1.0,0.0,0.0,0.0,100.0,1.0,1.186,26.0,0.0,-1.269,50.194,66.0,0.0,26.0,26.0,26.0,26.0,-0.69,0.4,-0.06,385.8,-2.19,-2.7,-1.2,-1.87,-588.96,417.11,6.0,0.0,0.0,0.0,0.0,0.4,-7.49,-7.49,0.53,-1.22,0.5,0.04,42.04,-0.4,-0.34,11.01,100.0,0.0,0.0,120.98,0.0,0.0,0.0,0.0,0.0,0.0,0.0,8110.0,0.0,30.0,3.0,151.3,1.0,0.0,0.0,0.0,0.0,0.0,0.0,0.0,21.336,21.336,50.194,13.681,1.0,110.0,435.8,8750.0,0.0,0.0,110.0,110.0,433.0,0.0,0.0,0.0,1.0,333.3,77.8,77.8,70.8,70.8,34.0,-65.6,-14.08,-67.9,-17.4,3.0,-205.665,17.5,100.0,20.7,14.5,38.2,30.6,0.0,1.0,100.0,0.0,0.0,0.0,0.0,4268.0,1892.0,5379.0,3738.0,314.2,319.9,341.6,345.3,25.08,23.0,26.01,24.7,325.0,325.0,355.0,355.0,100.0,99.92,100.0,100.0,-1.19,-1.16,-0.96,-0.81,-0.1,-0.1,2.0,2.8,82.8,69.8,82.3,74.2,86.6,72.3,85.6,77.8,83.3,69.2,83.9,75.4,80.7,67.7,82.8,74.4,1.0,-1.0,0.06,0.06,0.0,129.26,128.34,120.98,120.98,174.7,27.6,0.7998124780221924,85.70420718403781,128.55631077605676,-10.803051550459486,21.60610253189489,1,7
428,21.35,697.5,44.05215847754008,-78.68061858574023,4.4,-8.0,11.4,-13.3,5805.6,5806.0,152.0,0.0,1.0,1.0,0.0,1.0,1.0,0.0,0.0,0.0,100.0,1.0,1.186,26.0,0.0,-1.266,50.194,66.0,0.0,26.0,26.0,26.0,26.0,-0.79,0.42,-0.12,385.8,-2.17,-2.71,-1.14,-1.9,-590.75,415.92,6.1,0.0,0.0,0.0,0.0,0.4,-7.49,-7.49,0.47,-1.22,0.49,-0.57,42.24,-0.46,-0.34,11.97,100.0,0.0,0.0,121.58,0.0,0.0,0.0,0.0,0.0,0.0,0.0,8150.0,0.0,30.0,3.0,152.0,0.0,0.0,0.0,0.0,0.0,0.0,1.0,0.0,21.387,21.387,50.194,13.681,0.0,110.0,435.8,8750.0,0.0,0.0,110.0,110.0,433.0,0.0,0.0,0.0,1.0,333.3,78.0,78.0,70.7,70.7,34.0,-73.4,-15.2,-74.0,-19.4,3.0,-205.715,20.8,100.0,20.9,14.1,38.8,30.0,0.0,1.0,100.0,0.0,0.0,0.0,0.0,4406.0,1740.0,5487.0,3601.0,313.8,320.2,341.3,345.7,25.09,23.0,26.01,24.7,325.0,325.0,355.0,355.0,100.0,99.92,100.0,100.0,-1.41,-1.39,-1.07,-0.92,-0.1,-0.1,2.1,2.8,82.8,69.7,82.3,74.2,86.6,72.2,85.6,77.8,83.2,69.2,83.9,75.4,80.6,67.7,82.8,74.3,1.18,-1.2,0.06,0.07,0.0,129.92,128.9,121.58,121.58,174.7,27.6,0.9027181176868004,82.46329177580235,125.67549706720243,-43.21220534830232,-10.803050981436115,1,7
429,21.4,699.6,44.05214858500242,-78.68063387420753,6.7,-7.5,12.0,-15.3,5807.7,5808.0,152.7,0.0,1.0,1.0,0.0,1.0,1.0,0.0,0.0,0.0,100.0,1.0,1.186,26.0,0.0,-1.266,50.194,66.0,0.0,26.0,26.0,26.0,26.0,-0.86,0.39,-0.12,385.7,-2.15,-2.72,-1.08,-1.99,-592.45,414.82,6.1,0.0,0.0,0.0,0.0,0.41,-7.49,-7.49,0.4,-1.22,0.46,-0.86,42.42,-0.52,-0.34,13.36,100.0,0.0,0.0,122.14,0.0,0.0,0.0,0.0,0.0,0.0,0.0,8188.0,0.0,30.0,3.0,152.7,1.0,0.0,0.0,0.0,0.0,0.0,1.0,0.0,21.434,21.434,50.194,13.681,1.0,110.0,435.8,8750.0,0.0,0.0,110.0,110.0,433.0,0.0,0.0,0.0,1.0,333.3,77.9,77.9,70.5,70.5,34.0,-80.6,-15.87,-80.4,-20.8,3.0,-205.765,23.9,100.0,21.2,13.7,39.4,29.2,0.0,1.0,100.0,0.0,0.0,0.0,0.0,4578.0,1638.0,5636.0,3471.0,313.4,320.5,341.0,346.0,25.09,23.0,26.01,24.71,325.0,325.0,355.0,355.0,100.0,99.92,100.0,100.0,-1.62,-1.6,-1.16,-1.04,-0.1,-0.1,2.0,3.0,82.8,69.7,82.3,74.2,86.6,72.2,85.6,77.8,83.2,69.1,83.9,75.4,80.6,67.6,82.8,74.3,1.36,-1.38,0.06,0.07,0.0,130.53,129.35,122.14,122.14,174.7,27.6,0.951892851112981,81.38298664920758,127.47600567791315,7.2020345566474475,72.02034272135762,1,7
430,21.45,701.7,44.05213815287179,-78.68065042172509,9.7,-8.4,14.0,-15.4,5809.9,5810.0,153.4,0.0,1.0,1.0,0.0,1.0,1.0,0.0,0.0,0.0,100.0,1.0,1.186,26.0,0.0,-1.263,50.194,66.0,0.0,26.0,26.0,26.0,26.0,-0.93,0.38,-0.06,385.5,-2.12,-2.76,-1.01,-2.04,-594.29,413.66,6.1,0.0,0.0,0.0,0.0,0.41,-7.49,-7.49,0.34,-1.21,0.42,-0.84,42.6,-0.6,-0.34,14.91,100.0,0.0,0.0,122.73,0.0,0.0,0.0,0.0,0.0,0.0,0.0,8227.0,0.0,30.0,3.0,153.4,0.0,0.0,0.0,0.0,0.0,0.0,1.0,0.0,21.486,21.486,50.194,13.681,0.0,110.0,435.8,8750.0,0.0,0.0,110.0,110.0,433.0,0.0,0.0,0.0,1.0,333.3,77.8,77.8,70.4,70.4,34.0,-85.7,-16.15,-88.3,-23.0,3.0,-205.815,24.9,100.0,21.7,13.3,40.1,28.4,0.0,1.0,100.0,0.0,0.0,0.0,0.0,4719.0,1594.0,5753.0,3355.0,313.0,320.7,340.7,346.3,25.09,23.0,26.01,24.71,325.0,325.0,355.0,355.0,100.0,99.92,100.0,100.0,-1.78,-1.74,-1.33,-1.19,-0.1,-0.1,2.0,3.1,82.8,69.7,82.3,74.2,86.6,72.2,85.6,77.8,83.2,69.1,83.9,75.4,80.6,67.6,82.8,74.3,1.44,-1.46,0.05,0.07,0.0,131.14,129.83,122.73,122.73,174.7,27.6,1.0064293318460071,83.18349523146709,132.8775313393382,3.601017278323866,64.81830759568595,1,7
431,21.5,703.9,44.05212781067332,-78.6806670591748,9.4,-5.9,13.3,-11.7,5812.0,5812.0,154.0,0.0,1.0,1.0,0.0,1.0,1.0,0.0,0.0,0.0,100.0,1.0,1.186,26.0,0.0,-1.26,50.194,66.0,0.0,26.0,26.0,26.0,26.0,-1.0,0.39,-0.11,385.3,-2.08,-2.8,-0.97,-2.1,-596.14,412.51,6.2,0.0,0.0,0.0,0.0,0.41,-7.49,-7.49,0.27,-1.09,0.38,-0.97,42.79,-0.7,-0.35,15.96,100.0,0.0,0.0,123.31,0.0,0.0,0.0,0.0,0.0,0.0,0.0,8266.0,0.0,30.0,3.0,154.0,1.0,0.0,0.0,0.0,0.0,0.0,1.0,0.0,21.537,21.537,50.194,13.681,1.0,110.0,435.8,8750.0,0.0,0.0,110.0,110.0,433.0,0.0,0.0,0.0,1.0,333.3,77.7,77.7,70.1,70.1,34.0,-89.1,-15.53,-95.9,-25.0,3.0,-205.865,24.6,100.0,22.2,13.0,40.7,27.9,0.0,1.0,98.4,0.0,0.0,0.0,0.0,4837.0,1499.0,5877.0,3264.0,312.7,320.9,340.4,346.5,25.09,23.0,26.01,24.71,325.0,325.0,355.0,355.0,100.0,99.92,100.0,100.0,-1.86,-1.84,-1.49,-1.36,-0.1,-0.1,2.0,3.1,82.8,69.7,82.3,74.2,86.6,72.1,85.6,77.8,83.2,69.1,83.9,75.4,80.6,67.6,82.8,74.3,1.42,-1.45,0.05,0.07,0.0,131.74,130.32,123.31,123.31,174.7,27.6,1.0789810007595129,81.74308837703997,133.95783643748175,-50.41423990495005,-10.80305155045977,1,7
432,21.55,706.0,44.052117738271335,-78.68068387648883,7.6,-7.6,13.6,-8.9,5814.2,5814.0,154.6,0.0,1.0,1.0,0.0,1.0,1.0,0.0,0.0,0.0,100.0,1.0,1.186,26.0,0.0,-1.26,50.194,66.0,0.0,26.0,26.0,26.0,26.0,-1.08,0.34,-0.06,385.1,-2.05,-2.83,-0.92,-2.15,-598.01,411.39,6.2,0.0,0.0,0.0,0.0,0.41,-7.49,-7.49,0.21,-1.19,0.33,-1.09,42.95,-0.8,-0.35,16.34,100.0,0.0,0.0,123.4,0.0,0.0,0.0,0.0,0.0,0.0,0.0,8272.0,0.0,30.0,3.0,154.6,0.0,0.0,0.0,0.0,0.0,0.0,1.0,0.0,21.588,21.588,50.194,13.681,0.0,110.0,435.8,8750.0,0.0,0.0,110.0,110.0,433.0,0.0,0.0,0.0,1.0,166.7,77.6,77.6,69.8,69.8,34.0,-92.6,-15.43,-105.2,-27.8,3.0,-205.915,24.4,100.0,22.5,12.6,41.4,27.4,0.0,1.0,86.7,0.0,0.0,0.0,0.0,4954.0,1460.0,5983.0,3178.0,312.4,321.0,340.1,346.8,25.09,23.0,26.01,24.71,325.0,325.0,355.0,355.0,100.0,99.92,100.0,100.0,-1.96,-1.95,-1.63,-1.5,-0.1,-0.1,1.7,2.9,82.8,69.7,82.3,74.2,86.6,72.1,85.6,77.8,83.2,69.0,83.9,75.4,80.6,67.6,82.9,74.3,1.42,-1.44,0.06,0.07,0.0,132.27,130.8,123.4,123.4,174.7,27.6,1.1338430226446694,78.14207124097209,131.7972261842922,-50.41423962043808,-7.202033987623793,1,7
433,21.6,708.2,44.052108295394476,-78.68069997434557,9.4,-5.1,11.1,-10.4,5816.3,5816.0,155.1,0.0,1.0,1.0,0.0,1.0,1.0,0.0,0.0,0.0,100.0,1.0,1.186,26.0,0.0,-1.257,50.194,66.0,0.0,26.0,26.0,26.0,26.0,-1.1,0.29,-0.06,385.0,-2.02,-2.88,-0.88,-2.19,-599.8,410.34,6.2,0.0,0.0,0.0,0.0,0.41,-7.49,-7.49,0.15,-1.33,0.27,-1.09,43.08,-0.87,-0.36,16.32,100.0,0.0,0.0,123.72,0.0,0.0,0.0,0.0,0.0,0.0,0.0,8294.0,0.0,30.0,3.0,155.1,1.0,0.0,0.0,0.0,0.0,0.0,1.0,0.0,21.636,21.636,50.194,13.681,1.0,110.0,435.8,8750.0,0.0,0.0,110.0,110.0,433.0,0.0,0.0,0.0,1.0,333.3,77.4,77.4,69.8,69.8,34.0,-96.3,-14.96,-108.5,-28.0,3.0,-205.965,23.6,100.0,23.0,12.4,42.0,26.9,0.0,1.0,84.0,0.0,0.0,0.0,0.0,5102.0,1411.0,6001.0,3044.0,312.1,321.2,340.1,347.1,25.09,23.0,26.01,24.71,325.0,325.0,355.0,355.0,100.0,99.92,100.0,100.0,-2.01,-2.01,-1.72,-1.59,-0.1,-0.1,1.7,2.8,82.8,69.7,82.3,74.2,86.6,72.1,85.7,77.8,83.2,69.0,83.9,75.4,80.6,67.5,82.9,74.3,1.37,-1.4,0.06,0.07,0.0,132.68,131.18,123.73,123.73,174.7,27.6,1.1391663618629195,76.70166441499616,133.23763303871937,-28.80813651951911,25.207119525707355,1,7
434,21.65,710.3,44.05209858272113,-78.68071715138825,10.1,-2.6,7.3,-10.2,5818.5,5818.0,155.6,0.0,1.0,1.0,0.0,1.0,1.0,0.0,0.0,0.0,100.0,1.0,1.186,26.0,0.0,-1.257,50.194,66.0,0.0,26.0,26.0,26.0,26.0,-1.14,0.34,-0.09,384.8,-1.98,-2.92,-0.85,-2.22,-601.71,409.26,6.2,0.0,0.0,0.0,0.0,0.41,-7.49,-7.49,0.08,-1.14,0.23,-0.61,43.22,-0.94,-0.37,16.19,100.0,0.0,0.0,124.25,0.0,0.0,0.0,0.0,0.0,0.0,0.0,8329.0,0.0,30.0,3.0,155.6,0.0,0.0,0.0,0.0,0.0,0.0,1.0,0.0,21.687,21.687,50.194,13.681,0.0,110.0,435.8,8750.0,0.0,0.0,110.0,110.0,433.0,0.0,0.0,0.0,1.0,333.3,77.1,77.1,69.9,69.9,34.0,-98.1,-14.53,-109.4,-28.2,3.0,-206.015,21.0,100.0,23.5,12.3,42.3,26.4,0.0,1.0,89.8,0.0,0.0,0.0,0.0,5187.0,1387.0,6013.0,3010.0,311.8,321.2,340.1,347.2,25.09,22.99,26.01,24.71,325.0,325.0,355.0,355.0,100.0,99.92,100.0,100.0,-1.98,-1.98,-1.81,-1.67,-0.1,-0.1,1.8,2.9,82.8,69.7,82.3,74.2,86.6,72.0,85.7,77.7,83.2,69.0,83.9,75.4,80.6,67.5,82.9,74.3,1.24,-1.26,0.06,0.08,0.0,133.07,131.61,124.25,124.25,174.7,27.6,1.1930213744941873,75.26125758902018,134.31793813686295,-28.80813680403122,25.20711952570707,1,7
435,21.7,712.5,44.05208949957291,-78.68073351904147,2.5,-2.4,3.2,-1.3,5820.6,5821.0,156.1,0.0,1.0,1.0,0.0,1.0,1.0,0.0,0.0,0.0,100.0,1.0,1.186,26.0,0.0,-1.257,50.194,66.0,0.0,26.0,26.0,26.0,26.0,-1.11,0.38,-0.09,384.7,-1.96,-2.95,-0.86,-2.22,-603.53,408.25,6.2,0.0,0.0,0.0,0.0,0.41,-7.49,-7.49,0.03,-0.81,0.22,-0.05,43.36,-1.0,-0.37,15.74,100.0,0.0,0.0,125.06,0.0,0.0,0.0,0.0,0.0,0.0,0.0,8383.0,0.0,30.0,3.0,156.1,1.0,0.0,0.0,0.0,0.0,0.0,1.0,0.0,21.734,21.734,50.194,13.681,1.0,110.0,435.8,8750.0,0.0,0.0,110.0,110.0,433.0,0.0,0.0,0.0,1.0,333.3,77.2,77.2,69.8,69.8,34.0,-95.9,-13.73,-106.6,-28.5,3.0,-206.065,17.3,100.0,23.6,12.1,42.5,26.3,0.0,1.0,98.4,0.0,0.0,0.0,0.0,5133.0,1375.0,6014.0,3082.0,312.0,321.2,340.1,347.0,25.09,22.99,26.02,24.71,325.0,325.0,355.0,355.0,100.0,99.92,100.0,100.0,-1.87,-1.84,-1.87,-1.73,-0.1,-0.1,2.1,3.2,82.8,69.7,82.3,74.2,86.6,72.0,85.7,77.7,83.3,69.0,83.9,75.4,80.6,67.5,82.9,74.3,1.04,-1.05,0.05,0.08,0.0,133.53,132.08,125.06,125.06,174.7,27.6,1.1766902736064406,73.82085073459304,135.75834499129007,-7.202034272135762,72.02034272135734,1,7
436,21.75,714.7,44.05208014662821,-78.68075105581279,-3.4,-4.6,2.5,6.6,5822.8,5823.0,156.7,0.0,1.0,1.0,0.0,1.0,1.0,0.0,0.0,0.0,100.0,1.0,1.186,26.0,0.0,-1.254,50.194,66.0,0.0,26.0,26.0,26.0,26.0,-1.07,0.39,-0.09,384.7,-1.93,-2.95,-0.87,-2.21,-605.48,407.21,6.3,0.0,0.0,0.0,0.0,0.41,-7.49,-7.49,-0.01,-0.8,0.23,0.27,43.54,-1.04,-0.35,14.33,100.0,0.0,0.0,125.56,0.0,0.0,0.0,0.0,0.0,0.0,0.0,8417.0,0.0,30.0,3.0,156.7,0.0,0.0,0.0,0.0,0.0,0.0,1.0,0.0,21.786,21.786,50.194,13.681,0.0,110.0,435.8,8750.0,0.0,0.0,110.0,110.0,433.0,0.0,0.0,0.0,1.0,333.3,77.8,77.8,69.3,69.3,34.0,-87.7,-12.4,-106.5,-31.0,3.0,-206.115,12.7,100.0,23.5,11.9,42.6,26.6,0.0,1.0,100.0,0.0,0.0,0.0,0.0,4857.0,1340.0,6042.0,3249.0,312.7,321.4,340.0,346.6,25.09,22.99,26.02,24.71,325.0,325.0,355.0,355.0,100.0,99.92,100.0,100.0,-1.71,-1.68,-1.88,-1.74,-0.1,-0.1,2.2,3.2,82.8,69.7,82.4,74.2,86.6,72.0,85.7,77.7,83.3,68.9,84.0,75.4,80.6,67.4,82.9,74.3,0.78,-0.78,0.05,0.08,0.0,134.03,132.69,125.56,125.56,174.7,27.6,1.1424097338520887,74.5410541618066,141.51997240899868,-25.207119810219183,32.4091540823548,1,7
437,21.8,716.9,44.05207088361566,-78.68076886238059,-7.4,-2.1,0.5,9.2,5825.0,5825.0,157.4,0.0,1.0,1.0,0.0,1.0,1.0,0.0,0.0,0.0,100.0,1.0,1.186,26.0,0.0,-1.254,50.194,66.0,0.0,26.0,26.0,26.0,26.0,-1.02,0.37,-0.08,384.6,-1.93,-2.94,-0.9,-2.19,-607.46,406.18,6.3,0.0,0.0,0.0,0.0,0.42,-7.49,-7.49,-0.07,-1.28,0.23,0.09,43.72,-1.03,-0.35,12.08,100.0,0.0,0.0,125.99,0.0,0.0,0.0,0.0,0.0,0.0,0.0,8446.0,0.0,30.0,3.0,157.4,1.0,0.0,0.0,0.0,0.0,0.0,1.0,0.0,21.837,21.837,50.194,13.681,1.0,110.0,435.8,8750.0,0.0,0.0,110.0,110.0,433.0,0.0,0.0,0.0,1.0,333.3,78.2,78.2,69.1,69.1,34.0,-82.5,-12.05,-103.6,-30.7,3.0,-206.165,9.2,100.0,23.1,11.8,42.6,27.1,0.0,1.0,100.0,0.0,0.0,0.0,0.0,4749.0,1392.0,5971.0,3267.0,313.0,321.2,340.2,346.5,25.09,22.99,26.02,24.71,325.0,325.0,355.0,355.0,100.0,99.92,100.0,100.0,-1.55,-1.52,-1.8,-1.66,-0.1,-0.1,2.2,3.0,82.8,69.7,82.4,74.2,86.6,71.9,85.8,77.7,83.2,68.9,84.0,75.4,80.6,67.4,83.0,74.3,0.56,-0.58,0.05,0.08,0.0,134.49,133.33,125.98,125.98,174.7,27.6,1.0879797792238604,71.30013875357112,138.99926039952555,-46.81322262662604,-14.404069113295463,1,7
438,21.85,719.1,44.05206234006041,-78.68078576962678,-5.0,3.4,-6.3,5.5,5827.2,5827.0,158.0,0.0,1.0,1.0,0.0,1.0,1.0,0.0,0.0,0.0,100.0,1.0,1.186,26.0,0.0,-1.254,50.194,66.0,0.0,26.0,26.0,26.0,26.0,-0.94,0.38,-0.08,384.6,-1.95,-2.93,-0.92,-2.16,-609.34,405.23,6.3,0.0,0.0,0.0,0.0,0.42,-7.49,-7.49,-0.14,-1.43,0.25,0.44,43.89,-0.97,-0.35,10.01,100.0,0.0,0.0,126.41,0.0,0.0,0.0,0.0,0.0,0.0,0.0,8474.0,0.0,30.0,3.0,158.0,0.0,0.0,0.0,0.0,0.0,0.0,0.0,0.0,21.886,21.886,50.194,13.681,0.0,110.0,435.8,8750.0,0.0,0.0,110.0,110.0,433.0,0.0,0.0,0.0,1.0,333.3,78.0,78.0,69.1,69.1,34.0,-76.4,-12.34,-97.7,-29.3,3.0,-206.215,5.3,100.0,22.9,12.0,42.3,27.4,0.0,1.0,100.0,0.0,0.0,0.0,0.0,4668.0,1592.0,5838.0,3274.0,313.2,320.7,340.5,346.5,25.09,22.99,26.02,24.71,325.0,325.0,355.0,355.0,100.0,99.92,100.0,100.0,-1.34,-1.3,-1.66,-1.53,-0.1,-0.1,2.2,2.9,82.8,69.7,82.4,74.2,86.6,71.9,85.8,77.7,83.2,68.9,84.0,75.4,80.6,67.4,83.0,74.3,0.34,-0.35,0.05,0.07,0.0,134.91,133.99,126.41,126.41,174.7,27.6,1.0170545708072896,69.859731899144,140.07956549766914,-3.6010169938118963,61.2172906018742,1,7
439,21.9,721.3,44.05205343677651,-78.68080384599105,-6.5,12.6,-13.7,7.8,5829.4,5829.0,158.7,0.0,1.0,1.0,0.0,1.0,1.0,0.0,0.0,0.0,100.0,1.0,1.186,26.0,0.0,-1.254,50.194,66.0,0.0,26.0,26.0,26.0,26.0,-0.81,0.4,-0.13,384.5,-2.0,-2.91,-0.99,-2.1,-611.35,404.24,6.3,0.0,0.0,0.0,0.0,0.42,-7.49,-7.49,-0.21,-1.39,0.29,0.98,44.07,-0.88,-0.35,7.41,100.0,0.0,0.0,126.79,0.0,0.0,0.0,0.0,0.0,0.0,0.0,8500.0,0.0,30.0,3.0,158.7,1.0,0.0,0.0,0.0,0.0,0.0,0.0,0.0,21.936,21.936,50.194,13.681,1.0,110.0,435.8,8750.0,0.0,0.0,110.0,110.0,433.0,0.0,0.0,0.0,1.0,333.3,78.0,78.0,69.0,69.0,34.0,-62.8,-10.61,-89.3,-27.9,3.0,-206.265,1.1,100.0,22.5,12.6,41.6,27.8,0.0,1.0,100.0,0.0,0.0,0.0,0.0,4343.0,1777.0,5660.0,3429.0,313.9,320.2,340.9,346.1,25.09,22.99,26.02,24.71,325.0,325.0,355.0,355.0,100.0,99.92,100.0,100.0,-1.05,-1.01,-1.46,-1.32,-0.1,-0.1,2.2,2.7,82.8,69.7,82.4,74.2,86.6,71.9,85.8,77.7,83.2,68.8,84.0,75.4,80.6,67.3,83.0,74.3,0.1,-0.1,0.06,0.07,0.0,135.39,134.7,126.79,126.79,174.7,27.6,0.9126883367283709,70.94003705418993,145.12098945971297,-21.6061025318956,18.005086107107218,1,7
440,21.95,723.5,44.05204462342477,-78.68082201228749,-4.8,26.8,-17.0,13.0,5831.6,5832.0,158.6,0.0,1.0,1.0,0.0,1.0,1.0,0.0,0.0,0.0,100.0,1.0,1.186,26.0,0.0,-1.251,50.194,66.0,0.0,26.0,26.0,26.0,26.0,-0.68,-0.11,-0.12,384.2,-2.05,-2.83,-1.04,-2.03,-613.37,403.26,6.3,0.0,0.0,0.0,0.0,0.42,-7.49,-7.49,-0.34,-3.34,0.32,0.66,44.05,-0.71,-0.39,3.57,100.0,0.0,0.0,123.66,0.0,0.0,0.0,0.0,0.0,0.0,0.0,8133.0,0.0,30.0,0.0,158.6,0.0,0.0,0.0,0.0,0.0,0.0,0.0,0.0,21.987,21.987,50.194,13.681,0.0,110.0,435.8,8750.0,0.0,0.0,110.0,110.0,433.0,0.0,0.0,0.0,1.0,166.7,76.5,76.5,70.0,70.0,34.0,-54.6,-8.23,-81.0,-24.4,3.0,-206.315,-2.5,100.0,22.3,13.9,40.8,28.4,0.0,1.0,0.0,0.0,0.0,0.0,0.0,4506.0,2246.0,5111.0,3180.0,313.6,318.9,342.3,346.7,25.09,22.99,26.02,24.71,325.0,325.0,355.0,355.0,100.0,99.92,100.0,100.0,-0.75,-0.69,-1.14,-0.99,-0.0,-0.0,-0.1,-0.0,82.8,69.7,82.4,74.2,86.5,71.8,85.8,77.7,83.2,68.8,84.0,75.3,80.6,67.3,83.0,74.2,-0.11,0.12,0.06,0.07,0.0,135.18,134.85,123.78,123.53,174.7,27.6,0.6992138442565337,67.69912164595443,141.88007410837986,-43.21220563281429,-28.80813651951911,1,7
441,22.0,725.7,44.05203652953032,-78.68083927926233,12.9,52.1,-47.4,-2.8,5833.8,5834.0,158.4,0.0,1.0,1.0,0.0,1.0,1.0,0.0,0.0,0.0,100.0,1.0,1.186,26.0,0.0,-1.251,50.194,66.0,0.0,26.0,26.0,26.0,26.0,-0.47,-0.12,-0.11,383.7,-2.21,-2.83,-1.12,-1.89,-615.29,402.36,6.3,0.0,0.0,0.0,0.0,0.42,-7.49,-7.49,-0.5,-2.92,0.38,2.07,43.99,-0.52,-0.45,0.93,100.0,0.0,0.0,123.52,0.0,0.0,0.0,0.0,0.0,0.0,0.0,7786.0,0.0,30.0,0.0,158.4,1.0,0.0,0.0,0.0,0.0,0.0,0.0,0.0,22.034,22.034,50.194,13.681,1.0,110.0,435.8,8750.0,0.0,0.0,110.0,110.0,433.0,0.0,0.0,0.0,1.0,333.3,73.8,73.8,71.5,71.5,34.0,-43.1,-2.51,-59.1,-15.1,3.0,-206.365,-4.5,100.0,22.9,16.5,38.4,28.3,0.0,1.0,0.0,0.0,0.0,0.0,0.0,4516.0,2955.0,4592.0,3206.0,313.5,317.0,343.5,346.7,25.09,22.99,26.02,24.71,325.0,325.0,355.0,355.0,100.0,99.92,100.0,100.0,-0.47,-0.4,-0.83,-0.68,-0.0,-0.0,-0.1,0.0,82.8,69.7,82.4,74.2,86.5,71.8,85.7,77.7,83.1,68.8,84.0,75.3,80.5,67.3,83.0,74.2,-0.25,0.25,0.05,0.08,0.0,134.9,134.82,123.57,123.47,174.7,27.6,0.4973932046178355,66.6188164909085,142.24017580776106,3.6010169938118963,46.81322205760267,1,7
442,22.05,727.9,44.052027985975066,-78.68085753549093,-4.9,50.5,-47.1,14.7,5836.0,5836.0,158.6,0.0,1.0,1.0,0.0,1.0,1.0,0.0,0.0,0.0,100.0,1.0,1.186,26.0,0.0,-1.248,50.194,66.0,0.0,26.0,26.0,26.0,26.0,-0.31,-0.23,-0.05,383.1,-2.4,-2.7,-1.29,-1.72,-617.32,401.41,6.3,0.0,0.0,0.0,0.0,0.42,-7.49,-7.49,-0.56,-0.81,0.49,1.05,44.06,-0.35,-0.46,-0.85,100.0,0.0,0.0,123.43,0.0,0.0,0.0,0.0,0.0,0.0,0.0,6584.0,0.0,30.0,4.0,158.6,0.0,0.0,0.0,0.0,0.0,0.0,0.0,0.0,22.086,22.086,50.194,13.681,0.0,110.0,435.8,8750.0,0.0,0.0,110.0,110.0,433.0,0.0,0.0,0.0,1.0,333.3,73.0,73.0,71.0,71.0,34.0,-27.3,5.3,-44.8,-6.1,3.0,-206.415,-4.7,100.0,22.7,19.1,36.1,29.0,0.0,1.0,0.0,0.0,0.0,0.0,0.0,3839.0,3376.0,4469.0,4034.0,315.3,315.8,343.9,344.6,25.09,22.99,26.02,24.71,325.0,325.0,355.0,355.0,100.0,99.92,100.0,100.0,-0.26,-0.2,-0.54,-0.37,0.0,-0.0,-0.4,-0.4,82.8,69.7,82.4,74.2,86.4,71.8,85.7,77.6,83.1,68.7,84.0,75.3,80.5,67.2,82.9,74.2,-0.26,0.26,0.06,0.07,0.0,135.11,135.2,123.43,123.43,174.7,27.6,0.3892300091205713,68.05922334533562,146.56139631414013,-10.803050981435831,0.0,1,7
443,22.1,730.1,44.05201953235197,-78.68087588165169,-6.0,27.2,-16.1,30.4,5838.2,5838.0,158.3,0.0,1.0,1.0,0.0,1.0,1.0,0.0,0.0,0.0,100.0,1.0,1.186,26.0,0.0,-1.248,50.194,66.0,0.0,26.0,26.0,26.0,26.0,-0.14,-0.18,-0.07,382.4,-2.43,-2.6,-1.35,-1.67,-619.36,400.47,6.3,0.0,0.0,0.0,0.0,0.42,-7.49,-7.49,-0.62,-1.26,0.48,-0.8,43.97,-0.18,-0.47,-2.13,100.0,0.0,0.0,123.19,0.0,0.0,0.0,0.0,0.0,0.0,0.0,6571.0,0.0,30.0,4.0,158.3,1.0,0.0,0.0,0.0,0.0,0.0,0.0,0.0,22.137,22.137,50.194,13.681,1.0,110.0,435.8,8750.0,0.0,0.0,110.0,110.0,433.0,0.0,0.0,0.0,1.0,166.7,71.7,71.7,71.0,71.0,34.0,-23.2,11.42,-29.0,9.2,3.0,-206.465,-3.1,100.0,22.4,20.4,35.3,30.5,0.0,1.0,0.0,0.0,0.0,0.0,0.0,4026.0,3693.0,4349.0,3924.0,314.8,315.0,344.2,344.8,25.09,22.99,26.02,24.71,325.0,325.0,355.0,355.0,100.0,99.92,100.0,100.0,-0.14,-0.07,-0.26,-0.09,-0.0,-0.0,-0.2,-0.3,82.8,69.7,82.4,74.2,86.4,71.7,85.7,77.6,83.0,68.7,83.9,75.3,80.5,67.2,82.9,74.2,-0.19,0.19,0.07,0.07,0.0,134.74,134.95,123.2,123.2,174.7,27.6,0.23853720883753127,65.53851139276492,142.24017580776106,-25.20711952570707,-43.212205063790634,1,7
444,22.15,732.3,44.052011618321835,-78.68089305869437,8.4,29.1,-8.7,16.7,5840.4,5840.0,158.0,0.0,1.0,1.0,0.0,1.0,1.0,0.0,0.0,0.0,100.0,1.0,1.186,26.0,0.0,-1.245,50.194,66.0,0.0,26.0,26.0,26.0,26.0,-0.07,-0.17,-0.02,381.4,-2.53,-2.6,-1.4,-1.62,-621.27,399.59,6.3,0.0,0.0,0.0,0.0,0.42,-7.49,-7.49,-0.66,-0.52,0.46,-0.09,43.89,-0.05,-0.48,-1.78,100.0,0.0,0.0,122.99,0.0,0.0,0.0,0.0,0.0,0.0,0.0,6560.0,0.0,30.0,4.0,158.0,0.0,0.0,0.0,0.0,0.0,0.0,0.0,0.0,22.184,22.184,50.194,13.681,0.0,110.0,435.8,8750.0,0.0,0.0,110.0,110.0,433.0,0.0,0.0,0.0,1.0,333.3,70.2,70.2,70.8,70.8,34.0,-24.4,13.01,-20.6,18.1,3.0,-206.515,-0.1,100.0,22.8,21.9,34.8,31.4,0.0,1.0,0.0,0.0,0.0,0.0,0.0,4138.0,3998.0,4293.0,4042.0,314.5,314.1,344.3,344.5,25.09,22.99,26.02,24.71,325.0,325.0,355.0,355.0,100.0,99.92,100.0,100.0,-0.14,-0.07,-0.11,0.06,-0.0,-0.0,-0.2,-0.3,82.8,69.7,82.4,74.2,86.3,71.7,85.6,77.6,83.0,68.7,83.9,75.2,80.4,67.2,82.8,74.1,-0.02,0.02,0.07,0.07,0.0,134.5,134.75,122.99,122.99,174.7,27.6,0.1849324200890693,65.53851139276492,142.24017580776106,18.00508525357145,39.61118806997831,1,7
445,22.2,734.4,44.05200316469874,-78.68091140485512,2.8,23.0,-1.3,22.8,5842.6,5843.0,157.7,0.0,1.0,1.0,0.0,1.0,1.0,0.0,0.0,0.0,100.0,1.0,1.186,26.0,0.0,-1.245,50.194,66.0,0.0,26.0,26.0,26.0,26.0,-0.07,-0.18,0.0,380.5,-2.59,-2.53,-1.48,-1.55,-623.31,398.65,6.3,0.0,0.0,0.0,0.0,0.43,-7.49,-7.49,-0.67,0.18,0.44,-0.94,43.8,0.02,-0.48,-0.29,100.0,0.0,0.0,122.77,0.0,0.0,0.0,0.0,0.0,0.0,0.0,6549.0,0.0,30.0,4.0,157.7,1.0,0.0,0.0,0.0,0.0,0.0,0.0,0.0,22.236,22.236,50.194,13.681,1.0,110.0,435.8,8750.0,0.0,0.0,110.0,110.0,433.0,0.0,0.0,0.0,1.0,333.3,69.5,69.5,69.9,69.9,34.0,-27.7,9.6,-17.7,23.2,3.0,-206.565,4.0,100.0,22.9,23.0,34.8,32.5,0.0,1.0,0.0,0.0,0.0,0.0,0.0,4069.0,4116.0,4329.0,4378.0,314.7,313.8,344.3,343.7,25.09,22.99,26.03,24.71,325.0,325.0,355.0,355.0,100.0,99.92,100.0,100.0,-0.2,-0.13,-0.05,0.13,-0.0,-0.0,-0.2,-0.2,82.8,69.7,82.4,74.2,86.3,71.7,85.6,77.5,82.9,68.6,83.8,75.2,80.4,67.1,82.8,74.1,0.19,-0.2,0.06,0.07,0.0,134.32,134.4,122.77,122.77,174.7,27.6,0.19313207915827965,67.33901991812206,146.2012946147589,-7.20203427213562,-7.2020345566474475,1,7
446,22.25,736.6,44.05199480100781,-78.68092957115157,1.0,2.8,9.7,19.0,5844.8,5845.0,157.4,0.0,1.0,1.0,0.0,1.0,1.0,0.0,0.0,0.0,100.0,1.0,1.186,26.0,0.0,-1.242,50.194,66.0,0.0,26.0,26.0,26.0,26.0,-0.12,-0.18,-0.0,380.1,-2.63,-2.55,-1.45,-1.57,-625.33,397.72,6.3,0.0,0.0,0.0,0.0,0.43,-7.49,-7.49,-0.66,0.28,0.35,-2.3,43.71,0.04,-0.48,2.01,100.0,0.0,0.0,122.53,0.0,0.0,0.0,0.0,0.0,0.0,0.0,6536.0,0.0,30.0,4.0,157.4,0.0,0.0,0.0,0.0,0.0,0.0,0.0,0.0,22.287,22.287,50.194,13.681,0.0,110.0,435.8,8750.0,0.0,0.0,110.0,110.0,433.0,0.0,0.0,0.0,1.0,166.7,69.6,69.6,69.2,69.2,34.0,-34.0,2.64,-19.7,20.4,3.0,-206.615,7.7,100.0,23.0,23.2,35.2,33.5,0.0,1.0,0.0,0.0,0.0,0.0,0.0,4143.0,3918.0,4565.0,4253.0,314.5,314.3,343.7,344.0,25.09,22.99,26.03,24.71,325.0,325.0,355.0,355.0,100.0,99.92,100.0,100.0,-0.32,-0.25,-0.07,0.09,-0.0,0.0,-0.3,-0.2,82.8,69.7,82.4,74.2,86.2,71.6,85.5,77.5,82.9,68.6,83.7,75.1,80.3,67.1,82.7,74.0,0.42,-0.42,0.07,0.06,0.0,134.19,134.04,122.53,122.53,174.7,27.6,0.21633307652783934,64.81830796555136,141.51997235209632,-28.808136519518968,-46.81322262662576,1,7
447,22.3,738.8,44.05198697690983,-78.68094674819423,6.9,-5.6,16.5,1.8,5847.0,5847.0,157.1,0.0,1.0,1.0,0.0,1.0,1.0,0.0,0.0,0.0,100.0,1.0,1.186,26.0,0.0,-1.242,50.194,66.0,0.0,26.0,26.0,26.0,26.0,-0.23,-0.17,-0.03,380.1,-2.58,-2.55,-1.43,-1.64,-627.24,396.85,6.3,0.0,0.0,0.0,0.0,0.43,-7.49,-7.49,-0.65,0.1,0.24,-2.4,43.63,0.01,-0.47,4.34,100.0,0.0,0.0,122.31,0.0,0.0,0.0,0.0,0.0,0.0,0.0,6524.0,0.0,30.0,4.0,157.1,1.0,0.0,0.0,0.0,0.0,0.0,0.0,0.0,22.336,22.336,50.194,13.681,1.0,110.0,435.8,8750.0,0.0,0.0,110.0,110.0,433.0,0.0,0.0,0.0,1.0,333.3,69.8,69.8,69.0,69.0,34.0,-42.4,-4.4,-27.5,14.0,3.0,-206.665,10.7,100.0,23.3,22.9,36.1,33.5,0.0,1.0,0.0,0.0,0.0,0.0,0.0,4315.0,3594.0,4723.0,4035.0,314.1,315.2,343.3,344.5,25.09,22.99,26.03,24.71,325.0,325.0,355.0,355.0,100.0,99.92,100.0,100.0,-0.46,-0.39,-0.17,-0.02,-0.0,-0.0,-0.3,-0.2,82.8,69.7,82.4,74.2,86.2,71.6,85.4,77.4,82.9,68.6,83.7,75.1,80.3,67.1,82.7,74.0,0.6,-0.6,0.07,0.06,0.0,133.99,133.69,122.31,122.31,174.7,27.6,0.28757607689096815,64.45820626617017,141.51997235209632,7.2020339876236505,43.212205632814005,1,7
448,22.35,741.0,44.05197870315106,-78.68096491449067,12.4,-9.4,16.2,-8.3,5849.1,5849.0,156.8,0.0,1.0,1.0,0.0,1.0,1.0,0.0,0.0,0.0,100.0,1.0,1.186,26.0,0.0,-1.242,50.194,66.0,0.0,26.0,26.0,26.0,26.0,-0.34,-0.18,0.02,379.9,-2.57,-2.64,-1.37,-1.71,-629.26,395.93,6.3,0.0,0.0,0.0,0.0,0.43,-7.49,-7.49,-0.65,-0.12,0.11,-2.28,43.54,-0.06,-0.47,6.61,100.0,0.0,0.0,122.05,0.0,0.0,0.0,0.0,0.0,0.0,0.0,6510.0,0.0,30.0,4.0,156.8,0.0,0.0,0.0,0.0,0.0,0.0,1.0,0.0,22.386,22.386,50.194,13.681,0.0,110.0,435.8,8750.0,0.0,0.0,110.0,110.0,433.0,0.0,0.0,0.0,1.0,333.3,69.5,69.5,69.0,69.0,34.0,-50.1,-8.34,-37.5,5.5,3.0,-206.715,12.0,100.0,24.0,22.4,36.9,33.1,0.0,1.0,0.0,0.0,0.0,0.0,0.0,4532.0,3509.0,4839.0,3880.0,313.5,315.5,343.0,344.9,25.09,22.99,26.03,24.71,325.0,325.0,355.0,355.0,100.0,99.92,100.0,100.0,-0.57,-0.5,-0.32,-0.17,-0.0,0.0,-0.3,-0.2,82.8,69.7,82.4,74.2,86.1,71.6,85.4,77.4,82.8,68.5,83.6,75.0,80.2,67.1,82.6,73.9,0.7,-0.69,0.06,0.06,0.0,133.85,133.29,122.2,121.9,174.7,27.6,0.3852272056851645,65.53851136431372,145.84119291537772,-14.404068828783494,5.690236548616667e-07,1,7
449,22.4,743.2,44.05197060925661,-78.68098317071927,18.2,-6.2,15.7,-12.4,5851.3,5851.0,156.4,0.0,1.0,1.0,0.0,1.0,1.0,0.0,0.0,0.0,100.0,1.0,1.186,26.0,0.0,-1.239,50.194,66.0,0.0,26.0,26.0,26.0,26.0,-0.45,-0.18,-0.02,379.6,-2.48,-2.68,-1.3,-1.78,-631.29,395.03,6.3,0.0,0.0,0.0,0.0,0.43,-7.49,-7.49,-0.66,-0.06,-0.0,-2.22,43.45,-0.15,-0.47,8.09,100.0,0.0,0.0,121.83,0.0,0.0,0.0,0.0,0.0,0.0,0.0,6498.0,0.0,30.0,4.0,156.4,1.0,0.0,0.0,0.0,0.0,0.0,1.0,0.0,22.437,22.437,50.194,13.681,1.0,110.0,435.8,8750.0,0.0,0.0,110.0,110.0,433.0,0.0,0.0,0.0,1.0,333.3,69.1,69.1,69.1,69.1,34.0,-56.3,-10.57,-48.0,-3.0,3.0,-206.765,12.0,100.0,24.9,22.1,37.7,32.5,0.0,1.0,0.0,0.0,0.0,0.0,0.0,4775.0,3347.0,4959.0,3765.0,312.9,315.9,342.7,345.2,25.09,22.99,26.03,24.71,325.0,325.0,355.0,355.0,100.0,99.92,100.0,100.0,-0.64,-0.58,-0.48,-0.33,-0.0,-0.0,-0.3,-0.1,82.8,69.7,82.4,74.2,86.1,71.5,85.4,77.3,82.8,68.5,83.6,75.0,80.2,67.0,82.6,73.9,0.7,-0.71,0.06,0.06,0.0,133.65,132.95,122.0,121.65,174.7,27.6,0.4850773134253962,63.017799383291816,141.51997240899868,-32.40915379784283,-43.21220506379035,1,7
450,22.45,745.3,44.05196296502296,-78.6810002578298,14.7,-8.1,13.9,-11.8,5853.5,5853.0,156.1,0.0,1.0,1.0,0.0,1.0,1.0,0.0,0.0,0.0,100.0,1.0,1.186,26.0,0.0,-1.239,50.194,66.0,0.0,26.0,26.0,26.0,26.0,-0.53,-0.18,-0.02,379.5,-2.46,-2.78,-1.25,-1.8,-633.19,394.18,6.3,0.0,0.0,0.0,0.0,0.43,-7.49,-7.49,-0.66,0.08,-0.11,-2.02,43.36,-0.23,-0.48,8.82,100.0,0.0,0.0,121.57,0.0,0.0,0.0,0.0,0.0,0.0,0.0,6485.0,0.0,30.0,4.0,156.1,0.0,0.0,0.0,0.0,0.0,0.0,1.0,0.0,22.484,22.484,50.194,13.681,0.0,110.0,435.8,8750.0,0.0,0.0,110.0,110.0,433.0,0.0,0.0,0.0,1.0,166.7,68.9,68.9,69.0,69.0,34.0,-62.6,-12.08,-57.8,-9.2,3.0,-206.815,11.9,100.0,25.6,21.7,38.4,31.9,0.0,1.0,0.0,0.0,0.0,0.0,0.0,4944.0,3201.0,5105.0,3655.0,312.5,316.2,342.3,345.5,25.09,22.99,26.03,24.71,325.0,325.0,355.0,355.0,100.0,99.92,100.0,100.0,-0.72,-0.66,-0.63,-0.47,-0.0,0.0,-0.4,-0.1,82.8,69.7,82.4,74.2,86.1,71.5,85.3,77.3,82.8,68.5,83.6,75.0,80.2,67.0,82.6,73.9,0.7,-0.69,0.06,0.07,0.0,133.39,132.63,121.79,121.35,174.7,27.6,0.5600892785976179,62.29759598452944,141.51997240899868,2.8451189848510694e-07,46.813222057602104,1,7
451,22.5,747.5,44.051955050992824,-78.6810185140584,10.5,-10.3,13.7,-11.5,5855.6,5856.0,155.8,0.0,1.0,1.0,0.0,1.0,1.0,0.0,0.0,0.0,100.0,1.0,1.186,26.0,0.0,-1.239,50.194,66.0,0.0,26.0,26.0,26.0,26.0,-0.59,-0.18,0.03,379.5,-2.38,-2.79,-1.2,-1.89,-635.22,393.3,6.3,0.0,0.0,0.0,0.0,0.43,-7.49,-7.49,-0.65,0.1,-0.2,-1.37,43.27,-0.29,-0.48,9.22,100.0,0.0,0.0,121.31,0.0,0.0,0.0,0.0,0.0,0.0,0.0,6471.0,0.0,30.0,4.0,155.8,1.0,0.0,0.0,0.0,0.0,0.0,1.0,0.0,22.536,22.536,50.194,13.681,1.0,110.0,435.8,8750.0,0.0,0.0,110.0,110.0,433.0,0.0,0.0,0.0,1.0,166.7,68.9,68.9,69.1,69.1,34.0,-67.3,-14.38,-64.0,-13.1,3.0,-206.865,11.8,100.0,26.1,21.2,39.0,31.3,0.0,1.0,0.0,0.0,0.0,0.0,0.0,5057.0,3088.0,5151.0,3572.0,312.2,316.6,342.2,345.7,25.1,22.99,26.03,24.71,325.0,325.0,355.0,355.0,100.0,99.92,100.0,100.0,-0.8,-0.75,-0.73,-0.58,-0.0,-0.0,-0.4,-0.2,82.8,69.7,82.4,74.2,86.0,71.5,85.3,77.3,82.7,68.5,83.5,74.9,80.1,67.0,82.5,73.8,0.69,-0.7,0.06,0.06,0.0,133.15,132.33,121.55,121.07,174.7,27.6,0.6175759062657804,63.017799411743006,146.2012946147589,-21.606102531895175,3.601016424787815,1,7
452,22.55,749.7,44.05194722689485,-78.681036770287,5.3,-9.3,9.2,-7.9,5857.8,5858.0,155.5,0.0,1.0,1.0,0.0,1.0,1.0,0.0,0.0,0.0,100.0,1.0,1.186,26.0,0.0,-1.236,50.194,66.0,0.0,26.0,26.0,26.0,26.0,-0.64,-0.18,-0.02,379.6,-2.37,-2.85,-1.18,-1.88,-637.25,392.43,6.3,0.0,0.0,0.0,0.0,0.43,-7.49,-7.49,-0.64,0.18,-0.26,-0.98,43.18,-0.34,-0.47,9.31,100.0,0.0,0.0,121.05,0.0,0.0,0.0,0.0,0.0,0.0,0.0,6457.0,0.0,30.0,4.0,155.5,0.0,0.0,0.0,0.0,0.0,0.0,1.0,0.0,22.587,22.587,50.194,13.681,0.0,110.0,435.8,8750.0,0.0,0.0,110.0,110.0,433.0,0.0,0.0,0.0,1.0,166.7,69.2,69.2,69.2,69.2,34.0,-69.3,-14.21,-68.3,-16.3,3.0,-206.915,10.9,100.0,26.4,20.7,39.5,30.9,0.0,1.0,0.0,0.0,0.0,0.0,0.0,5102.0,2943.0,5190.0,3531.0,312.1,317.0,342.1,345.8,25.1,22.99,26.03,24.71,325.0,325.0,355.0,355.0,100.0,99.92,100.0,100.0,-0.82,-0.78,-0.81,-0.66,-0.0,0.0,-0.4,-0.1,82.8,69.7,82.4,74.2,86.0,71.5,85.3,77.2,82.7,68.4,83.5,74.9,80.1,67.0,82.5,73.8,0.65,-0.66,0.06,0.07,0.0,132.84,132.05,121.29,120.81,174.7,27.6,0.6651315659326357,60.13698573133992,141.88007405147746,-43.21220534830253,-43.21220563281429,1,7
453,22.6,751.8,44.051940032322,-78.68105394732966,1.5,-7.5,6.0,-2.5,5860.0,5860.0,155.2,0.0,1.0,1.0,0.0,1.0,1.0,0.0,0.0,0.0,100.0,1.0,1.186,26.0,0.0,-1.233,50.194,66.0,0.0,26.0,26.0,26.0,26.0,-0.62,-0.17,-0.02,379.7,-2.33,-2.89,-1.17,-1.92,-639.16,391.63,6.3,0.0,0.0,0.0,0.0,0.44,-7.49,-7.49,-0.63,0.15,-0.3,-0.41,43.09,-0.38,-0.47,8.89,100.0,0.0,0.0,120.81,0.0,0.0,0.0,0.0,0.0,0.0,0.0,6444.0,0.0,30.0,4.0,155.2,1.0,0.0,0.0,0.0,0.0,0.0,1.0,0.0,22.636,22.636,50.194,13.681,1.0,110.0,435.8,8750.0,0.0,0.0,110.0,110.0,433.0,0.0,0.0,0.0,1.0,333.3,69.3,69.3,69.2,69.2,34.0,-67.0,-12.02,-70.1,-17.6,3.0,-206.965,8.9,100.0,26.5,20.3,39.8,30.8,0.0,1.0,0.0,0.0,0.0,0.0,0.0,5098.0,2925.0,5177.0,3521.0,312.1,317.0,342.1,345.9,25.1,22.99,26.03,24.71,325.0,325.0,355.0,355.0,100.0,99.92,100.0,100.0,-0.78,-0.71,-0.85,-0.7,-0.0,-0.0,-0.4,-0.1,82.9,69.7,82.4,74.2,86.0,71.4,85.2,77.2,82.7,68.4,83.5,74.8,80.1,66.9,82.5,73.8,0.54,-0.54,0.06,0.07,0.0,132.59,131.81,121.04,120.57,174.7,27.6,0.6431951492354401,58.69657887691275,141.88007405147746,-7.202034556647732,43.21220563281429,1,7
454,22.65,754.0,44.051932567952676,-78.68107220355826,-0.4,-6.1,1.4,1.1,5862.1,5862.0,154.8,0.0,1.0,1.0,0.0,1.0,1.0,0.0,0.0,0.0,100.0,1.0,1.186,26.0,0.0,-1.233,50.194,66.0,0.8,26.0,26.0,26.0,26.0,-0.59,-0.18,0.01,379.7,-2.3,-2.87,-1.19,-1.93,-641.19,390.8,6.3,0.0,0.0,0.0,0.0,0.44,-7.49,-7.49,-0.62,0.12,-0.31,0.1,43.0,-0.39,-0.46,7.76,100.0,0.0,0.0,120.53,0.0,0.0,0.0,0.0,0.0,0.0,0.0,6429.0,0.0,30.0,4.0,154.8,0.0,0.0,0.0,0.0,0.0,0.0,1.0,0.0,22.686,22.686,50.194,13.681,0.0,110.0,435.8,8750.0,0.0,0.0,110.0,110.0,433.0,0.0,0.0,0.0,1.0,333.3,69.5,69.5,69.2,69.2,34.0,-61.1,-9.76,-69.2,-18.0,3.0,-207.015,5.8,100.0,26.5,20.0,39.9,30.9,0.0,1.0,0.0,0.0,0.0,0.0,0.0,5029.0,3019.0,5125.0,3580.0,312.2,316.8,342.3,345.7,25.1,22.99,26.03,24.71,325.0,325.0,355.0,355.0,100.0,99.92,100.0,100.0,-0.68,-0.62,-0.85,-0.7,-0.1,-0.1,-0.4,-0.2,82.9,69.7,82.4,74.2,86.0,71.4,85.2,77.1,82.6,68.4,83.5,74.8,80.1,66.9,82.4,73.7,0.37,-0.37,0.06,0.06,0.0,132.25,131.55,120.71,120.35,174.7,27.6,0.6169278726074872,59.416782275675146,146.2012946147589,-3.6010169938120384,43.21220563281429,1,7
455,22.7,756.1,44.05192519351551,-78.68109045978686,-3.3,-2.1,-4.1,4.4,5864.3,5864.0,154.5,0.0,1.0,1.0,0.0,1.0,1.0,0.0,0.0,0.0,100.0,1.0,1.186,26.0,0.0,-1.233,50.194,66.0,2.6,26.0,26.0,26.0,26.0,-0.52,-0.21,0.01,379.8,-2.32,-2.88,-1.2,-1.88,-643.22,389.98,6.3,0.0,0.0,0.0,0.0,0.44,-7.49,-7.49,-0.62,-0.02,-0.3,0.56,42.9,-0.38,-0.46,5.84,100.0,0.0,0.0,120.2,0.0,0.0,0.0,0.0,0.0,0.0,0.0,6412.0,0.0,30.0,4.0,154.5,1.0,0.0,0.0,0.0,0.0,0.0,1.0,0.0,22.737,22.737,50.194,13.681,1.0,110.0,435.8,8750.0,0.0,0.0,110.0,110.0,433.0,0.0,0.0,0.0,1.0,333.3,69.5,69.5,69.2,69.2,34.0,-52.7,-4.91,-64.7,-15.9,3.0,-207.065,2.4,100.0,26.3,19.9,39.7,31.1,0.0,1.0,0.0,0.0,0.0,0.0,0.0,4938.0,3145.0,5033.0,3659.0,312.5,316.4,342.5,345.5,25.1,22.99,26.03,24.72,325.0,325.0,355.0,355.0,100.0,99.92,100.0,100.0,-0.54,-0.47,-0.79,-0.63,-0.1,-0.1,-0.4,-0.2,82.9,69.7,82.5,74.2,85.9,71.4,85.2,77.1,82.6,68.4,83.4,74.8,80.0,66.9,82.4,73.7,0.18,-0.17,0.06,0.07,0.0,131.75,131.17,120.33,120.07,174.7,27.6,0.5608921464952064,58.33647717753155,146.2012946147589,-36.01017079165473,-43.21220506379035,1,7
406,20.25,675.3,44.052283033582505,-78.68043530399694,1.1,-8.4,9.4,-0.5,7505.4,7505.0,142.9,0.0,1.0,1.0,0.0,1.0,1.0,0.0,0.0,0.0,100.0,1.0,1.186,26.0,0.0,-0.522,48.272,66.0,0.0,26.0,26.0,26.0,26.0,-0.41,0.36,-0.07,386.1,-2.23,-2.64,-1.32,-1.69,-570.37,429.77,5.5,0.0,0.0,0.0,0.0,0.39,-7.49,-7.49,1.1,-0.66,-0.13,1.49,39.71,-0.25,-0.33,6.01,100.0,0.0,0.0,113.88,0.0,0.0,0.0,0.0,0.0,0.0,0.0,7634.0,0.0,30.0,3.0,142.9,1.0,0.0,0.0,0.0,0.0,0.0,1.0,0.0,20.264,20.264,48.272,13.394,1.0,110.0,435.8,8750.0,0.0,0.0,110.0,110.0,433.0,0.0,0.0,0.0,1.0,333.3,77.0,77.0,71.5,71.5,34.0,-37.0,-3.2,-49.5,-11.5,4.0,-252.865,4.4,100.0,20.5,15.9,36.5,32.5,0.0,1.0,87.9,0.0,0.0,0.0,0.0,3965.0,2307.0,4981.0,4079.0,315.1,318.7,342.8,344.5,25.69,23.07,26.39,24.76,325.0,325.0,355.0,355.0,99.96,100.0,99.97,100.0,-0.48,-0.43,-0.67,-0.52,-0.1,-0.1,2.0,2.0,86.5,70.2,84.7,74.5,95.5,75.9,86.8,77.6,91.8,72.7,85.3,75.4,88.7,71.2,84.3,74.4,0.28,-0.28,0.07,0.06,0.0,122.06,121.49,113.27,114.48,174.7,27.6,0.5500909015790026,82.46329177580235,114.87244580125481,-25.207119525707213,-18.00508553808342,1,7
407,20.3,677.3,44.05227305111268,-78.68044924348185,-2.1,-4.6,2.9,1.5,7507.4,7507.0,143.6,0.0,1.0,1.0,0.0,1.0,1.0,0.0,0.0,0.0,100.0,1.0,1.186,26.0,0.0,-0.522,48.272,66.0,0.0,26.0,26.0,26.0,26.0,-0.37,0.37,-0.08,386.2,-2.24,-2.66,-1.37,-1.7,-571.92,428.66,5.6,0.0,0.0,0.0,0.0,0.39,-7.49,-7.49,1.07,-0.74,-0.03,2.12,39.88,-0.25,-0.32,4.5,100.0,0.0,0.0,114.36,0.0,0.0,0.0,0.0,0.0,0.0,0.0,7666.0,0.0,30.0,3.0,143.6,0.0,0.0,0.0,0.0,0.0,0.0,1.0,0.0,20.313,20.313,48.272,13.394,0.0,110.0,435.8,8750.0,0.0,0.0,110.0,110.0,433.0,0.0,0.0,0.0,1.0,333.3,77.3,77.3,71.4,71.4,34.0,-31.8,-0.75,-45.1,-9.2,4.0,-252.915,1.8,100.0,20.4,15.7,36.6,32.5,0.0,1.0,87.5,0.0,0.0,0.0,0.0,3835.0,2388.0,4871.0,4126.0,315.4,318.5,343.0,344.3,25.69,23.07,26.39,24.77,325.0,325.0,355.0,355.0,99.96,100.0,99.97,100.0,-0.38,-0.34,-0.6,-0.47,-0.1,-0.0,2.1,2.0,86.5,70.2,84.7,74.5,95.5,75.8,86.8,77.6,91.7,72.6,85.3,75.4,88.6,71.1,84.3,74.4,0.13,-0.13,0.06,0.06,0.0,122.53,122.08,113.73,114.97,174.7,27.6,0.5293392107146419,82.46329180425353,115.95275089939837,21.606102816407144,57.61627303903822,1,7
408,20.35,679.3,44.052262439117726,-78.68046426215265,-4.5,-1.3,-4.5,5.7,7509.4,7509.0,144.2,0.0,1.0,1.0,0.0,1.0,1.0,0.0,0.0,0.0,100.0,1.0,1.186,26.0,0.0,-0.522,48.272,66.0,0.0,26.0,26.0,26.0,26.0,-0.29,0.36,-0.05,386.1,-2.24,-2.61,-1.38,-1.64,-573.59,427.48,5.6,0.0,0.0,0.0,0.0,0.39,-7.49,-7.49,1.03,-0.85,0.08,2.26,40.06,-0.21,-0.32,2.74,100.0,0.0,0.0,114.84,0.0,0.0,0.0,0.0,0.0,0.0,0.0,7698.0,0.0,30.0,3.0,144.2,1.0,0.0,0.0,0.0,0.0,0.0,1.0,0.0,20.364,20.364,48.272,13.394,1.0,110.0,435.8,8750.0,0.0,0.0,110.0,110.0,433.0,0.0,0.0,0.0,1.0,333.3,77.3,77.3,71.4,71.4,34.0,-26.1,1.86,-42.0,-5.2,4.0,-252.965,0.3,100.0,20.2,15.6,36.4,32.8,0.0,1.0,87.5,0.0,0.0,0.0,0.0,3706.0,2573.0,4770.0,4268.0,315.8,318.0,343.3,344.0,25.69,23.07,26.39,24.77,325.0,325.0,355.0,355.0,99.96,100.0,99.97,100.0,-0.28,-0.24,-0.52,-0.37,-0.0,-0.1,1.7,2.3,86.6,70.2,84.7,74.5,95.4,75.8,86.8,77.6,91.7,72.6,85.3,75.4,88.6,71.1,84.3,74.3,0.02,-0.03,0.07,0.06,0.0,122.96,122.73,115.51,114.16,174.7,27.6,0.4649731175025068,84.62390205744306,120.63407310515863,-3.601017278323866,14.404068544271382,1,7
409,20.4,681.3,44.05225191705494,-78.68047937075563,-5.5,6.0,-7.9,7.6,7511.4,7511.0,144.8,0.0,1.0,1.0,0.0,1.0,1.0,0.0,0.0,0.0,100.0,1.0,1.186,26.0,0.0,-0.522,48.272,66.0,0.0,26.0,26.0,26.0,26.0,-0.21,0.36,-0.08,386.1,-2.3,-2.6,-1.45,-1.62,-575.27,426.31,5.7,0.0,0.0,0.0,0.0,0.39,-7.49,-7.49,0.98,-0.91,0.2,2.49,40.24,-0.16,-0.32,1.31,100.0,0.0,0.0,115.29,0.0,0.0,0.0,0.0,0.0,0.0,0.0,7729.0,0.0,30.0,3.0,144.8,0.0,0.0,0.0,0.0,0.0,0.0,1.0,0.0,20.414,20.414,48.272,13.394,0.0,110.0,435.8,8750.0,0.0,0.0,110.0,110.0,433.0,0.0,0.0,0.0,1.0,333.3,77.3,77.3,71.3,71.3,34.0,-22.4,4.6,-33.3,0.2,4.0,-253.015,-0.7,100.0,19.9,15.9,36.0,33.2,0.0,1.0,86.7,0.0,0.0,0.0,0.0,3572.0,2693.0,4695.0,4330.0,316.1,317.7,343.5,343.8,25.69,23.07,26.39,24.77,325.0,325.0,355.0,355.0,99.96,100.0,99.97,100.0,-0.21,-0.17,-0.39,-0.24,-0.1,-0.0,2.0,1.9,86.6,70.2,84.7,74.5,95.3,75.7,86.8,77.6,91.6,72.5,85.2,75.3,88.5,71.0,84.3,74.3,-0.03,0.03,0.07,0.06,0.0,123.47,123.33,114.61,115.97,174.7,27.6,0.4243819034784589,82.10319007642114,117.3931577538255,-21.606102531895317,-25.2071189566837,1,7
410,20.45,683.3,44.05224193458511,-78.68049358003701,-5.7,7.3,-9.6,8.3,7513.5,7513.0,145.4,0.0,1.0,1.0,0.0,1.0,1.0,0.0,0.0,0.0,100.0,1.0,1.186,26.0,0.0,-0.522,48.272,66.0,0.0,26.0,26.0,26.0,26.0,-0.16,0.34,-0.09,386.0,-2.32,-2.53,-1.47,-1.55,-576.85,425.2,5.7,0.0,0.0,0.0,0.0,0.39,-7.49,-7.49,0.94,-0.99,0.33,2.66,40.41,-0.11,-0.33,0.37,100.0,0.0,0.0,115.73,0.0,0.0,0.0,0.0,0.0,0.0,0.0,7758.0,0.0,30.0,3.0,145.4,1.0,0.0,0.0,0.0,0.0,0.0,1.0,0.0,20.463,20.463,48.272,13.394,1.0,110.0,435.8,8750.0,0.0,0.0,110.0,110.0,433.0,0.0,0.0,0.0,1.0,333.3,77.3,77.3,71.4,71.4,34.0,-18.6,6.65,-26.7,6.2,4.0,-253.065,-0.9,100.0,19.6,16.3,35.5,33.6,0.0,1.0,86.3,0.0,0.0,0.0,0.0,3424.0,2827.0,4559.0,4477.0,316.5,317.3,343.8,343.4,25.69,23.07,26.39,24.77,325.0,325.0,355.0,355.0,99.96,100.0,99.97,100.0,-0.14,-0.11,-0.28,-0.13,-0.1,-0.1,2.1,1.8,86.6,70.2,84.7,74.5,95.3,75.7,86.7,77.6,91.6,72.5,85.2,75.3,88.4,71.0,84.2,74.3,-0.04,0.05,0.06,0.06,0.0,123.93,123.87,115.07,116.39,174.7,27.6,0.38639358172723315,82.46329180425353,118.11336120949026,28.80813680403108,50.414239620438224,1,7
411,20.5,685.4,44.05223132259016,-78.68050886850432,-8.3,9.8,-12.0,9.5,7515.5,7515.0,146.1,0.0,1.0,1.0,0.0,1.0,1.0,0.0,0.0,0.0,100.0,1.0,1.186,26.0,0.0,-0.522,48.272,66.0,0.0,26.0,26.0,26.0,26.0,-0.08,0.34,-0.05,385.9,-2.4,-2.55,-1.54,-1.57,-578.55,424.02,5.8,0.0,0.0,0.0,0.0,0.4,-7.49,-7.49,0.88,-1.11,0.45,2.27,40.59,-0.05,-0.33,-0.21,100.0,0.0,0.0,116.23,0.0,0.0,0.0,0.0,0.0,0.0,0.0,7792.0,0.0,30.0,3.0,146.1,0.0,0.0,0.0,0.0,0.0,0.0,1.0,0.0,20.514,20.514,48.272,13.394,0.0,110.0,435.8,8750.0,0.0,0.0,110.0,110.0,433.0,0.0,0.0,0.0,1.0,333.3,77.2,77.2,71.4,71.4,34.0,-16.4,9.44,-23.2,11.0,4.0,-253.115,-0.8,100.0,19.2,16.8,34.9,34.1,0.0,1.0,86.3,0.0,0.0,0.0,0.0,3361.0,2934.0,4493.0,4500.0,316.7,317.0,344.0,343.3,25.69,23.07,26.39,24.77,325.0,325.0,355.0,355.0,99.96,100.0,99.97,100.0,-0.09,-0.05,-0.18,-0.03,-0.0,-0.1,1.7,2.1,86.6,70.2,84.7,74.5,95.2,75.6,86.7,77.6,91.5,72.5,85.2,75.3,88.4,71.0,84.2,74.3,-0.04,0.03,0.06,0.06,0.0,124.43,124.47,116.87,115.6,174.7,27.6,0.35284557528754706,84.98400375682425,122.43458171586933,3.6010169938120384,14.40406797524787,1,7
412,20.55,687.4,44.052220710595215,-78.68052415697161,-5.2,6.9,-9.5,7.1,7517.5,7518.0,146.7,0.0,1.0,1.0,0.0,1.0,1.0,0.0,0.0,0.0,100.0,1.0,1.186,26.0,0.0,-0.522,48.272,66.0,0.0,26.0,26.0,26.0,26.0,-0.06,0.34,-0.09,385.9,-2.39,-2.48,-1.51,-1.5,-580.25,422.84,5.8,0.0,0.0,0.0,0.0,0.4,-7.49,-7.49,0.83,-1.06,0.56,1.91,40.76,-0.01,-0.33,-0.18,100.0,0.0,0.0,116.74,0.0,0.0,0.0,0.0,0.0,0.0,0.0,7825.0,0.0,30.0,3.0,146.7,1.0,0.0,0.0,0.0,0.0,0.0,1.0,0.0,20.564,20.564,48.272,13.394,1.0,110.0,435.8,8750.0,0.0,0.0,110.0,110.0,433.0,0.0,0.0,0.0,1.0,166.7,77.1,77.1,71.6,71.6,34.0,-16.9,9.21,-17.4,15.8,4.0,-253.165,1.3,100.0,19.0,17.1,34.5,34.4,0.0,1.0,86.3,0.0,0.0,0.0,0.0,3243.0,3006.0,4399.0,4531.0,316.9,316.8,344.2,343.3,25.7,23.07,26.39,24.77,325.0,325.0,355.0,355.0,99.96,100.0,99.97,100.0,-0.12,-0.05,-0.11,0.05,-0.0,-0.0,2.1,1.7,86.6,70.2,84.7,74.6,95.1,75.6,86.7,77.5,91.4,72.4,85.2,75.3,88.3,70.9,84.2,74.3,0.07,-0.05,0.07,0.06,0.0,124.96,125.01,116.06,117.41,174.7,27.6,0.3567912554982255,82.82339350363473,119.55376800701505,-21.606102531895175,-21.606103100918688,1,7
413,20.6,689.5,44.05221063819322,-78.68053872598163,-5.7,3.3,-1.8,1.8,7519.6,7520.0,147.3,0.0,1.0,1.0,0.0,1.0,1.0,0.0,0.0,0.0,100.0,1.0,1.186,26.0,0.0,-0.522,48.272,66.0,0.0,26.0,26.0,26.0,26.0,-0.11,0.34,-0.09,385.9,-2.44,-2.47,-1.54,-1.48,-581.87,421.72,5.9,0.0,0.0,0.0,0.0,0.4,-7.49,-7.49,0.78,-1.02,0.63,0.92,40.93,0.02,-0.34,0.9,100.0,0.0,0.0,117.2,0.0,0.0,0.0,0.0,0.0,0.0,0.0,7857.0,0.0,30.0,3.0,147.3,0.0,0.0,0.0,0.0,0.0,0.0,0.0,0.0,20.613,20.613,48.272,13.394,0.0,110.0,435.8,8750.0,0.0,0.0,110.0,110.0,433.0,0.0,0.0,0.0,1.0,333.3,77.2,77.2,71.5,71.5,34.0,-23.2,2.18,-16.8,16.1,4.0,-253.215,6.3,100.0,18.7,17.3,34.4,34.5,0.0,1.0,86.3,0.0,0.0,0.0,0.0,3289.0,2947.0,4464.0,4459.0,316.8,317.0,344.0,343.5,25.7,23.07,26.39,24.77,325.0,325.0,355.0,355.0,99.96,100.0,99.97,100.0,-0.28,-0.23,-0.08,0.06,-0.1,-0.1,2.1,1.8,86.6,70.2,84.7,74.6,95.1,75.6,86.6,77.5,91.4,72.4,85.1,75.3,88.2,70.9,84.1,74.3,0.32,-0.32,0.07,0.06,0.0,125.51,125.48,116.53,117.87,174.7,27.6,0.3685105154537656,82.82339350363473,120.27397140577746,25.207119525707213,46.81322205760239,1,7
414,20.65,691.5,44.05220002619828,-78.68055419431325,-2.0,-3.1,6.0,-6.7,7521.6,7522.0,147.9,0.0,1.0,1.0,0.0,1.0,1.0,0.0,0.0,0.0,100.0,1.0,1.186,26.0,0.0,-0.519,48.272,66.0,0.0,26.0,26.0,26.0,26.0,-0.21,0.36,-0.08,385.9,-2.42,-2.48,-1.52,-1.54,-583.59,420.54,5.9,0.0,0.0,0.0,0.0,0.4,-7.49,-7.49,0.72,-1.04,0.65,-0.01,41.1,0.03,-0.34,3.49,100.0,0.0,0.0,117.69,0.0,0.0,0.0,0.0,0.0,0.0,0.0,7889.0,0.0,30.0,3.0,147.9,1.0,0.0,0.0,0.0,0.0,0.0,0.0,0.0,20.664,20.664,48.272,13.394,1.0,110.0,435.8,8750.0,0.0,0.0,110.0,110.0,433.0,0.0,0.0,0.0,1.0,333.3,77.4,77.4,71.5,71.5,34.0,-34.2,-5.54,-21.3,12.3,4.0,-253.265,12.1,100.0,18.6,17.1,34.7,34.2,0.0,1.0,86.3,0.0,0.0,0.0,0.0,3547.0,2709.0,4643.0,4344.0,316.2,317.6,343.6,343.8,25.7,23.07,26.39,24.77,325.0,325.0,355.0,355.0,99.96,100.0,99.97,100.0,-0.51,-0.47,-0.13,0.01,-0.1,-0.0,1.6,2.2,86.6,70.2,84.7,74.6,95.0,75.5,86.6,77.5,91.3,72.3,85.1,75.3,88.2,70.8,84.1,74.3,0.65,-0.66,0.07,0.06,0.0,126.14,125.87,118.36,117.02,174.7,27.6,0.4243819034784589,85.34410545620545,124.23509021277529,3.6010172783235816,10.80305211948314,1,7
415,20.7,693.6,44.05218932427117,-78.68056975257703,6.6,-7.4,11.8,-15.3,7523.7,7524.0,148.6,0.0,1.0,1.0,0.0,1.0,1.0,0.0,0.0,0.0,100.0,1.0,1.186,26.0,0.0,-0.519,48.272,66.0,0.0,26.0,26.0,26.0,26.0,-0.34,0.34,-0.06,385.9,-2.39,-2.47,-1.45,-1.61,-585.32,419.35,5.9,0.0,0.0,0.0,0.0,0.4,-7.49,-7.49,0.66,-1.2,0.64,-0.2,41.28,-0.01,-0.34,6.6,100.0,0.0,0.0,118.19,0.0,0.0,0.0,0.0,0.0,0.0,0.0,7923.0,0.0,30.0,3.0,148.6,0.0,0.0,0.0,0.0,0.0,0.0,0.0,0.0,20.714,20.714,48.272,13.394,0.0,110.0,435.8,8750.0,0.0,0.0,110.0,110.0,433.0,0.0,0.0,0.0,1.0,333.3,77.5,77.5,71.5,71.5,34.0,-42.8,-10.01,-29.9,5.3,4.0,-253.315,15.4,100.0,18.9,16.7,35.3,33.4,0.0,1.0,86.3,0.0,0.0,0.0,0.0,3720.0,2487.0,4794.0,4158.0,315.8,318.3,343.2,344.2,25.7,23.07,26.39,24.77,325.0,325.0,355.0,355.0,99.96,100.0,99.97,100.0,-0.7,-0.67,-0.29,-0.14,-0.1,-0.0,1.9,1.8,86.6,70.2,84.7,74.6,94.9,75.5,86.6,77.5,91.2,72.3,85.1,75.3,88.1,70.8,84.1,74.2,0.89,-0.9,0.07,0.07,0.0,126.83,126.25,117.64,118.75,174.7,27.6,0.48456165758342873,83.18349523146709,121.35427661772577,-25.207119525707213,-18.005084969059624,1,7
416,20.75,695.6,44.05217925186918,-78.68058450145138,11.5,-9.1,12.9,-18.0,7525.8,7526.0,149.1,0.0,1.0,1.0,0.0,1.0,1.0,0.0,0.0,0.0,100.0,1.0,1.186,26.0,0.0,-0.519,48.272,66.0,0.0,26.0,26.0,26.0,26.0,-0.44,0.35,-0.06,385.9,-2.37,-2.56,-1.37,-1.69,-586.96,418.23,6.0,0.0,0.0,0.0,0.0,0.4,-7.49,-7.49,0.6,-1.35,0.63,-0.27,41.44,-0.1,-0.34,8.9,100.0,0.0,0.0,118.68,0.0,0.0,0.0,0.0,0.0,0.0,0.0,7955.0,0.0,30.0,3.0,149.1,1.0,0.0,0.0,0.0,0.0,0.0,0.0,0.0,20.763,20.763,48.272,13.394,1.0,110.0,435.8,8750.0,0.0,0.0,110.0,110.0,433.0,0.0,0.0,0.0,1.0,333.3,77.5,77.5,71.4,71.4,34.0,-47.8,-10.77,-41.7,-3.3,4.0,-253.365,15.9,100.0,19.5,16.3,35.9,32.5,0.0,1.0,86.3,0.0,0.0,0.0,0.0,3888.0,2321.0,4960.0,4000.0,315.3,318.7,342.8,344.7,25.7,23.07,26.39,24.77,325.0,325.0,355.0,355.0,99.96,100.0,99.97,100.0,-0.78,-0.75,-0.49,-0.33,-0.1,-0.0,1.9,2.0,86.6,70.2,84.7,74.6,94.9,75.4,86.6,77.5,91.2,72.3,85.0,75.2,88.1,70.8,84.0,74.2,0.92,-0.94,0.08,0.07,0.0,127.39,126.63,118.14,119.2,174.7,27.6,0.5654201977290871,82.82339350363473,122.43458171586933,14.404068259759697,57.61627303903822,1,7
417,20.8,697.7,44.05216863987423,-78.68060032951163,13.0,-7.8,12.4,-18.4,7527.8,7528.0,149.8,0.0,1.0,1.0,0.0,1.0,1.0,0.0,0.0,0.0,100.0,1.0,1.186,26.0,0.0,-0.519,48.272,66.0,0.0,26.0,26.0,26.0,26.0,-0.53,0.35,-0.11,385.8,-2.29,-2.6,-1.29,-1.76,-588.72,417.05,6.0,0.0,0.0,0.0,0.0,0.4,-7.49,-7.49,0.52,-1.31,0.61,-0.55,41.61,-0.21,-0.35,10.34,100.0,0.0,0.0,119.21,0.0,0.0,0.0,0.0,0.0,0.0,0.0,7991.0,0.0,30.0,3.0,149.8,0.0,0.0,0.0,0.0,0.0,0.0,0.0,0.0,20.814,20.814,48.272,13.394,0.0,110.0,435.8,8750.0,0.0,0.0,110.0,110.0,433.0,0.0,0.0,0.0,1.0,333.3,77.3,77.3,71.5,71.5,34.0,-53.8,-11.84,-54.7,-10.1,4.0,-253.415,15.9,100.0,20.1,15.9,36.5,31.6,0.0,1.0,86.3,0.0,0.0,0.0,0.0,4078.0,2185.0,5105.0,3829.0,314.9,319.0,342.5,345.1,25.7,23.07,26.39,24.77,325.0,325.0,355.0,355.0,99.96,100.0,99.97,100.0,-0.89,-0.85,-0.68,-0.54,-0.0,-0.1,1.6,2.4,86.6,70.2,84.7,74.6,94.8,75.4,86.5,77.5,91.1,72.2,85.0,75.2,88.0,70.7,84.0,74.2,0.92,-0.94,0.07,0.07,0.0,127.96,127.05,119.98,118.44,174.7,27.6,0.6445928947793328,84.62390205744306,127.1159039216296,-10.803051265947659,21.60610253189546,1,7
418,20.85,699.8,44.05215811781144,-78.68061624750406,11.4,-10.5,13.9,-19.0,7529.9,7530.0,150.3,0.0,1.0,1.0,0.0,1.0,1.0,0.0,0.0,0.0,100.0,1.0,1.186,26.0,0.0,-0.519,48.272,66.0,0.0,26.0,26.0,26.0,26.0,-0.65,0.34,-0.06,385.8,-2.27,-2.66,-1.22,-1.83,-590.49,415.88,6.1,0.0,0.0,0.0,0.0,0.4,-7.49,-7.49,0.45,-1.25,0.59,-0.63,41.77,-0.31,-0.35,11.26,100.0,0.0,0.0,119.72,0.0,0.0,0.0,0.0,0.0,0.0,0.0,8026.0,0.0,30.0,3.0,150.3,1.0,0.0,0.0,0.0,0.0,0.0,0.0,0.0,20.864,20.864,48.272,13.394,1.0,110.0,435.8,8750.0,0.0,0.0,110.0,110.0,433.0,0.0,0.0,0.0,1.0,166.7,77.2,77.2,71.4,71.4,34.0,-61.2,-13.98,-62.2,-15.7,4.0,-253.465,17.4,100.0,20.7,15.4,37.2,30.7,0.0,1.0,86.3,0.0,0.0,0.0,0.0,4232.0,2099.0,5251.0,3677.0,314.5,319.3,342.1,345.5,25.7,23.07,26.39,24.77,325.0,325.0,355.0,355.0,99.96,100.0,99.97,100.0,-1.05,-1.02,-0.85,-0.71,-0.1,-0.1,1.9,2.1,86.6,70.2,84.7,74.6,94.8,75.4,86.5,77.4,91.1,72.2,85.0,75.2,88.0,70.7,84.0,74.2,0.99,-1.01,0.07,0.06,0.0,128.51,127.51,119.15,120.3,174.7,27.6,0.736002717386288,81.74308837703997,124.59519196905887,-36.0101710761667,-14.404068544271666,1,7
419,20.9,701.9,44.052148225273775,-78.6806314460392,8.5,-8.8,14.4,-17.2,7532.0,7532.0,150.9,0.0,1.0,1.0,0.0,1.0,1.0,0.0,0.0,0.0,100.0,1.0,1.186,26.0,0.0,-0.516,48.272,66.0,0.0,26.0,26.0,26.0,26.0,-0.75,0.31,-0.06,385.7,-2.23,-2.67,-1.15,-1.9,-592.18,414.78,6.1,0.0,0.0,0.0,0.0,0.41,-7.49,-7.49,0.39,-1.22,0.55,-1.11,41.92,-0.39,-0.36,12.3,100.0,0.0,0.0,120.15,0.0,0.0,0.0,0.0,0.0,0.0,0.0,8055.0,0.0,30.0,3.0,150.9,0.0,0.0,0.0,0.0,0.0,0.0,0.0,0.0,20.913,20.913,48.272,13.394,0.0,110.0,435.8,8750.0,0.0,0.0,110.0,110.0,433.0,0.0,0.0,0.0,1.0,333.3,77.3,77.3,71.3,71.3,34.0,-72.1,-16.33,-71.3,-18.7,4.0,-253.515,21.7,100.0,21.1,14.9,37.9,29.8,0.0,1.0,82.8,0.0,0.0,0.0,0.0,4423.0,1925.0,5415.0,3528.0,314.0,319.8,341.7,345.9,25.71,23.08,26.39,24.77,325.0,325.0,355.0,355.0,99.96,100.0,99.97,100.0,-1.34,-1.31,-0.99,-0.84,-0.1,-0.1,1.8,2.2,86.7,70.2,84.7,74.6,94.8,75.3,86.5,77.4,91.1,72.2,85.0,75.2,88.0,70.7,84.0,74.2,1.22,-1.24,0.07,0.07,0.0,128.98,127.93,119.59,120.71,174.7,27.6,0.8137567204023571,81.02288494982639,125.67549706720243,28.808136804030937,97.22746167804075,1,7
