,Time,Distance,GPS Latitude,GPS Longitude,Damper Velocity (Calc) FL,Damper Velocity (Calc) FR,Damper Velocity (Calc) RL,Damper Velocity (Calc) RR,Corr Dist,Corr Dist (Unstretched),Corr Speed,ABS Active,ABS Enabled,AID Allow Tire Blankets,AID Auto Blip,AID Auto Clutch,AID Auto Shift,AID Fuel Rate,AID Ideal Line,AID Mech Damage,AID Stability,AID Tire Wear Rate,Air Density,Air Temp,Ballast,Best Lap Delta,Best Lap Time,Brake Bias,Brake Pos,Brake Temp FL,Brake Temp FR,Brake Temp RL,Brake Temp RR,CG Accel Lateral,CG Accel Longitudinal,CG Accel Vertical,CG Height,Camber FL,Camber FR,Camber RL,Camber RR,Car Coord X,Car Coord Y,Car Coord Z,Car Damage Front,Car Damage Left,Car Damage Rear,Car Damage Right,Car Pos Norm,Caster FL,Caster FR,Chassis Pitch Angle,Chassis Pitch Rate,Chassis Roll Angle,Chassis Roll Rate,Chassis Velocity X,Chassis Velocity Y,Chassis Velocity Z,Chassis Yaw Rate,Clutch Pos,DRS Active,DRS Available,Drive Train Speed,ERS Heat Charging,ERS Is Charging,ERS Max Energy,ERS Power Level,ERS Recovery Level,Engine Brake Setting,Engine Limiter,Engine RPM,Flags,Fuel Level,Gear,Ground Speed,HR Sample Clock,In Pit,KERS Charge,KERS Deployed Energy,KERS Input,KERS Max Energy,LR Sample Clock,Lap Invalidated,Lap Time,Lap Time2,Last Lap Time,Last Sector Time,MR Sample Clock,Max Fuel,Max Power,Max RPM,Max Sus Travel FL,Max Sus Travel FR,Max Sus Travel RL,Max Sus Travel RR,Max Torque,Max Turbo Boost,Num Tires Off Track,Penalties Enabled,Position,Raw Data Sample Rate,Ride Height FL,Ride Height FR,Ride Height RL,Ride Height RR,Road Temp,Self Align Torque FL,Self Align Torque FR,Self Align Torque RL,Self Align Torque RR,Session Lap Count,Session Time Left,Steering Angle,Surface Grip,Suspension Travel FL,Suspension Travel FR,Suspension Travel RL,Suspension Travel RR,TC Active,TC Enabled,Throttle Pos,Tire Dirt Level FL,Tire Dirt Level FR,Tire Dirt Level RL,Tire Dirt Level RR,Tire Load FL,Tire Load FR,Tire Load RL,Tire Load RR,Tire Loaded Radius FL,Tire Loaded Radius FR,Tire Loaded Radius RL,Tire Loaded Radius RR,Tire Pressure FL,Tire Pressure FR,Tire Pressure RL,Tire Pressure RR,Tire Radius FL,Tire Radius FR,Tire Radius RL,Tire Radius RR,Tire Rubber Grip FL,Tire Rubber Grip FR,Tire Rubber Grip RL,Tire Rubber Grip RR,Tire Slip Angle FL,Tire Slip Angle FR,Tire Slip Angle RL,Tire Slip Angle RR,Tire Slip Ratio FL,Tire Slip Ratio FR,Tire Slip Ratio RL,Tire Slip Ratio RR,Tire Temp Core FL,Tire Temp Core FR,Tire Temp Core RL,Tire Temp Core RR,Tire Temp Inner FL,Tire Temp Inner FR,Tire Temp Inner RL,Tire Temp Inner RR,Tire Temp Middle FL,Tire Temp Middle FR,Tire Temp Middle RL,Tire Temp Middle RR,Tire Temp Outer FL,Tire Temp Outer FR,Tire Temp Outer RL,Tire Temp Outer RR,Toe In FL,Toe In FR,Toe In RL,Toe In RR,Turbo Boost,Wheel Angular Speed FL,Wheel Angular Speed FR,Wheel Angular Speed RL,Wheel Angular Speed RR,Wind Direction,Wind Speed,CG Distance,Lateral Velocity,Longitudinal Velocity,Lateral Acceleration,Longitudinal Acceleration,level,curve_number
45,2.2,104.5,44.05371295493591,-78.68170712461205,-76.6,32.7,-25.2,16.2,5212.6,5213.0,145.0,0.0,1.0,1.0,0.0,1.0,1.0,0.0,0.0,0.0,100.0,1.0,1.186,26.0,0.0,-0.024,50.194,66.0,31.4,26.0,26.0,26.0,26.0,0.59,-0.66,-0.04,384.3,-3.09,-1.96,-1.85,-1.79,-711.79,588.77,5.9,0.0,0.0,0.0,0.0,0.06,-7.49,-7.49,-0.78,-6.13,0.06,0.72,40.25,0.37,-0.66,-8.08,100.0,0.0,0.0,111.72,0.0,0.0,0.0,0.0,0.0,0.0,0.0,5959.0,0.0,30.0,4.0,145.0,1.0,0.0,0.0,0.0,0.0,0.0,0.0,0.0,2.234,2.234,50.194,17.865,1.0,110.0,435.8,8750.0,0.0,0.0,110.0,110.0,433.0,0.0,0.0,0.0,1.0,333.3,68.7,68.7,77.9,77.9,34.0,16.9,78.62,5.1,42.0,3.0,-186.565,-11.5,100.0,17.4,26.3,26.2,35.6,0.0,1.0,0.0,0.0,0.0,0.0,0.0,3473.0,5823.0,1257.0,3461.0,316.0,309.0,351.1,345.9,25.28,22.87,26.19,24.75,325.0,325.0,355.0,355.0,100.0,99.86,100.0,100.0,0.85,0.97,0.71,0.84,-1.5,-1.3,-1.0,-1.1,84.0,68.9,83.4,74.4,87.4,69.3,86.0,75.6,83.8,66.3,84.2,73.2,81.1,64.8,83.3,72.0,-0.66,0.67,0.1,0.07,0.0,121.32,122.05,111.23,112.21,174.7,27.6,0.886171540955813,135.75834501974123,47.533425797779174,90.02542769041668,54.015257183273775,1,0
46,2.25,106.5,44.053695598028916,-78.68170100922512,211.4,198.7,-208.3,-129.6,5214.6,5215.0,143.8,0.0,1.0,1.0,0.0,1.0,1.0,0.0,0.0,0.0,100.0,1.0,1.186,26.0,0.0,-0.027,50.194,66.0,19.7,26.0,26.0,26.0,26.0,0.72,-0.68,0.09,380.3,-1.73,-1.76,-1.42,-0.89,-711.11,586.84,5.9,0.0,0.0,0.0,0.0,0.06,-7.49,-7.49,-0.82,5.36,-0.0,-3.55,39.92,0.41,-0.67,-11.79,100.0,0.0,0.0,111.02,0.0,0.0,0.0,0.0,0.0,0.0,0.0,5922.0,0.0,30.0,4.0,143.8,0.0,0.0,0.0,0.0,0.0,0.0,0.0,0.0,2.286,2.286,50.194,17.865,0.0,110.0,435.8,8750.0,0.0,0.0,110.0,110.0,433.0,0.0,0.0,0.0,1.0,333.3,53.7,53.7,85.0,85.0,34.0,29.4,111.93,10.6,56.9,3.0,-186.615,-10.4,100.0,27.9,36.2,15.8,29.2,0.0,1.0,0.0,0.0,0.0,0.0,0.0,4562.0,7769.0,1806.0,4300.0,313.1,303.6,350.4,344.1,25.28,22.87,26.19,24.75,325.0,325.0,355.0,355.0,100.0,99.86,100.0,100.0,0.74,0.92,0.9,1.09,-0.8,-0.7,-1.7,-1.2,84.0,68.9,83.4,74.4,87.4,69.3,85.9,75.5,83.8,66.3,84.2,73.2,81.1,64.8,83.2,72.0,-0.6,0.63,0.1,0.08,0.0,121.33,122.61,110.35,111.69,174.7,27.6,0.99443451267542,141.88007407992868,51.134442962298216,10.803050981436115,28.808137088542907,1,0
47,2.3,108.4,44.05367752166464,-78.68169435424524,-109.5,-9.6,297.0,136.9,5216.6,5217.0,143.0,0.0,1.0,1.0,0.0,1.0,1.0,0.0,0.0,0.0,100.0,1.0,1.186,26.0,0.0,-0.027,50.194,66.0,6.4,26.0,26.0,26.0,26.0,0.81,-0.27,0.18,375.9,-3.48,-1.71,-1.54,-1.95,-710.37,584.83,5.9,0.0,0.0,0.0,0.0,0.07,-7.49,-7.49,-0.4,7.78,-0.2,-4.07,39.7,0.44,-0.45,-10.26,100.0,0.0,0.0,111.42,0.0,0.0,0.0,0.0,0.0,0.0,0.0,5943.0,0.0,30.0,4.0,143.0,1.0,0.0,0.0,0.0,0.0,0.0,0.0,0.0,2.34,2.34,50.194,17.865,1.0,110.0,435.8,8750.0,0.0,0.0,110.0,110.0,433.0,0.0,0.0,0.0,1.0,166.7,62.8,62.8,62.6,62.6,34.0,13.3,68.44,40.2,108.9,3.0,-186.67,-8.4,100.0,22.5,35.8,30.6,36.0,0.0,1.0,0.0,0.0,0.0,0.0,0.0,3552.0,5504.0,4749.0,6213.0,316.2,310.5,343.2,338.8,25.28,22.87,26.19,24.75,325.0,325.0,355.0,355.0,100.0,99.86,100.0,100.0,0.75,0.83,0.9,1.15,-0.4,-0.2,-0.2,-0.4,84.0,69.0,83.4,74.4,87.3,69.3,85.9,75.5,83.8,66.3,84.1,73.2,81.0,64.8,83.2,72.0,-0.5,0.51,0.07,0.06,0.0,121.39,122.2,111.07,111.77,174.7,27.6,0.8725823743349392,136.83865011788484,50.414239506633464,-140.43966731085504,-25.20712009473094,1,0
48,2.35,110.4,44.053661423807895,-78.68168841872264,11.0,5.5,150.9,191.5,5218.6,5219.0,142.5,0.0,1.0,1.0,0.0,1.0,1.0,0.0,0.0,0.0,100.0,1.0,1.186,26.0,0.0,-0.03,50.194,66.0,4.6,26.0,26.0,26.0,26.0,0.72,-0.26,0.43,371.2,-4.28,-2.5,-2.1,-1.15,-709.71,583.04,5.9,0.0,0.0,0.0,0.0,0.07,-7.49,-7.49,-0.08,6.09,-0.36,-5.27,39.57,0.35,-0.41,-7.98,100.0,0.0,0.0,111.11,0.0,0.0,0.0,0.0,0.0,0.0,0.0,5927.0,0.0,30.0,4.0,142.5,0.0,0.0,0.0,0.0,0.0,0.0,1.0,0.0,2.388,2.388,50.194,17.865,0.0,110.0,435.8,8750.0,0.0,0.0,110.0,110.0,433.0,0.0,0.0,0.0,1.0,166.7,59.4,59.4,55.9,55.9,34.0,7.7,103.56,18.9,87.9,3.0,-186.715,-8.1,100.0,23.0,36.0,38.2,45.6,0.0,1.0,0.0,0.0,0.0,0.0,0.0,3511.0,7290.0,3244.0,6137.0,315.9,305.1,346.4,339.0,25.28,22.87,26.19,24.75,325.0,325.0,355.0,355.0,100.0,99.86,100.0,100.0,0.69,0.8,0.8,0.9,-0.3,-0.2,-0.2,-0.4,84.0,69.0,83.4,74.4,87.3,69.4,85.8,75.5,83.7,66.3,84.1,73.2,81.0,64.8,83.2,72.0,-0.46,0.5,0.06,0.03,0.0,121.12,121.82,110.91,111.32,174.7,27.6,0.8780091115700337,127.83610734884317,48.61373095282512,-57.61627360806159,7.202034556647519,1,0
49,2.4,112.4,44.05364559574763,-78.68168221340356,-83.8,-159.8,55.9,6.1,5220.5,5221.0,142.1,0.0,1.0,1.0,0.0,1.0,1.0,0.0,0.0,0.0,100.0,1.0,1.186,26.0,0.0,-0.033,50.194,66.0,2.3,26.0,26.0,26.0,26.0,0.64,-0.19,0.17,376.0,-3.05,-2.45,-1.57,-1.71,-709.02,581.28,5.9,0.0,0.0,0.0,0.0,0.07,-7.49,-7.49,0.13,1.38,-0.84,-9.23,39.47,0.28,-0.32,-5.74,100.0,0.0,0.0,110.7,0.0,0.0,0.0,0.0,0.0,0.0,0.0,5905.0,0.0,30.0,4.0,142.1,1.0,0.0,0.0,0.0,0.0,0.0,1.0,0.0,2.436,2.436,50.194,17.865,1.0,110.0,435.8,8750.0,0.0,0.0,110.0,110.0,433.0,0.0,0.0,0.0,1.0,166.7,72.3,72.3,55.5,55.5,34.0,10.5,39.81,28.9,88.0,3.0,-186.765,-9.0,100.0,18.8,28.0,41.0,45.9,0.0,1.0,0.0,0.0,0.0,0.0,0.0,2360.0,3370.0,5019.0,6242.0,318.8,315.5,342.3,338.9,25.28,22.87,26.19,24.75,325.0,325.0,355.0,355.0,100.0,99.86,100.0,100.0,0.79,0.79,0.66,0.77,-0.1,-0.1,-0.1,-0.3,84.0,69.0,83.4,74.4,87.2,69.4,85.8,75.5,83.7,66.3,84.1,73.2,80.9,64.8,83.1,72.0,-0.5,0.51,0.06,0.04,0.0,120.76,121.15,110.51,110.89,174.7,27.6,0.6889121859859935,131.07702275707868,51.134442962298216,68.41932515852164,46.813222626626185,1,0
50,2.45,114.4,44.05362868850144,-78.68167564835584,-45.2,-203.9,-59.0,-43.1,5222.5,5223.0,141.8,0.0,1.0,1.0,0.0,1.0,1.0,0.0,0.0,0.0,100.0,1.0,1.186,26.0,0.0,-0.039,50.194,66.0,4.6,26.0,26.0,26.0,26.0,0.57,-0.25,-0.15,381.6,-2.26,-4.05,-2.12,-1.6,-708.29,579.4,6.0,0.0,0.0,0.0,0.0,0.07,-7.49,-7.49,-0.09,-7.38,-1.13,-2.55,39.37,0.18,-0.41,-4.24,100.0,0.0,0.0,110.1,0.0,0.0,0.0,0.0,0.0,0.0,0.0,5873.0,0.0,30.0,4.0,141.8,0.0,0.0,0.0,0.0,0.0,0.0,1.0,0.0,2.487,2.487,50.194,17.865,0.0,110.0,435.8,8750.0,0.0,0.0,110.0,110.0,433.0,0.0,0.0,0.0,1.0,166.7,75.8,75.8,67.4,67.4,34.0,18.7,65.5,2.9,41.9,3.0,-186.815,-12.2,100.0,16.6,17.8,38.0,43.7,0.0,1.0,0.0,0.0,0.0,0.0,0.0,3239.0,4463.0,3521.0,4296.0,317.0,312.6,346.8,343.8,25.27,22.87,26.19,24.75,325.0,325.0,355.0,355.0,100.0,99.86,100.0,100.0,0.79,0.89,0.39,0.49,-0.2,-0.3,-0.2,-0.4,84.0,69.0,83.4,74.4,87.2,69.3,85.7,75.5,83.6,66.3,84.0,73.2,80.9,64.8,83.1,72.0,-0.68,0.68,0.06,0.03,0.0,120.08,120.49,110.01,110.19,174.7,27.6,0.6402343321003646,134.67803986469534,53.29505321548774,21.60610281640686,28.80813651951918,1,0
51,2.5,116.3,44.05361196111957,-78.68166890344379,100.3,120.3,-206.1,-307.5,5224.5,5224.0,141.2,0.0,1.0,1.0,0.0,1.0,1.0,0.0,0.0,0.0,100.0,1.0,1.186,26.0,0.0,-0.039,50.194,66.0,18.9,26.0,26.0,26.0,26.0,0.45,-0.42,-0.2,386.9,-1.98,-2.56,-1.87,-1.46,-707.54,577.54,6.0,0.0,0.0,0.0,0.0,0.07,-7.49,-7.49,-0.37,-2.14,-1.06,5.36,39.2,0.17,-0.53,-8.25,100.0,0.0,0.0,109.25,0.0,0.0,0.0,0.0,0.0,0.0,0.0,5828.0,0.0,30.0,4.0,141.2,1.0,0.0,0.0,0.0,0.0,0.0,1.0,0.0,2.538,2.538,50.194,17.865,1.0,110.0,435.8,8750.0,0.0,0.0,110.0,110.0,433.0,0.0,0.0,0.0,1.0,166.7,70.2,70.2,78.1,78.1,34.0,14.8,61.3,2.7,21.1,3.0,-186.865,-17.0,100.0,21.6,23.9,27.7,28.4,0.0,1.0,0.0,0.0,0.0,0.0,0.0,2356.0,4636.0,2315.0,2685.0,318.0,312.0,349.3,348.3,25.27,22.87,26.19,24.75,325.0,325.0,355.0,355.0,100.0,99.86,100.0,100.0,0.82,0.87,0.39,0.51,-0.8,-0.8,-0.7,-1.1,84.0,68.9,83.4,74.4,87.1,69.3,85.7,75.5,83.6,66.3,83.9,73.1,80.9,64.8,83.0,72.0,-0.95,0.94,0.08,0.07,0.0,118.52,119.46,109.1,109.4,174.7,27.6,0.6472248450113763,133.23763303871937,54.015256614250134,-28.80813680403122,10.803051550459557,1,0
52,2.55,118.3,44.05359541360202,-78.68166215853175,-92.9,-4.9,-57.7,88.6,5226.4,5226.0,140.1,0.0,1.0,1.0,0.0,1.0,1.0,0.0,0.0,0.0,100.0,1.0,1.186,26.0,0.0,-0.042,50.194,66.0,33.3,26.0,26.0,26.0,26.0,0.6,-0.74,-0.12,385.3,-3.54,-2.31,-1.33,-0.85,-706.79,575.7,6.0,0.0,0.0,0.0,0.0,0.07,-7.49,-7.49,-0.54,-4.89,-0.9,0.05,38.9,0.21,-0.52,-9.26,100.0,0.0,0.0,108.2,0.0,0.0,0.0,0.0,0.0,0.0,0.0,5771.0,0.0,30.0,4.0,140.1,0.0,0.0,0.0,0.0,0.0,0.0,1.0,0.0,2.589,2.589,50.194,17.865,0.0,110.0,435.8,8750.0,0.0,0.0,110.0,110.0,433.0,0.0,0.0,0.0,1.0,166.7,72.3,72.3,76.4,76.4,34.0,14.6,71.83,10.4,49.2,3.0,-186.92,-20.7,100.0,16.9,23.6,24.8,32.8,0.0,1.0,0.0,0.0,0.0,0.0,0.0,3168.0,5031.0,3138.0,4695.0,317.8,311.0,347.4,342.7,25.27,22.87,26.19,24.75,325.0,325.0,355.0,355.0,100.0,99.86,100.0,100.0,1.06,1.15,0.49,0.69,-2.7,-1.6,-0.9,-0.9,84.0,68.9,83.4,74.4,87.1,69.3,85.6,75.5,83.5,66.3,83.9,73.1,80.8,64.8,83.0,71.9,-1.16,1.16,0.09,0.07,0.0,116.09,117.72,107.86,108.53,174.7,27.6,0.9602083107326242,131.7972261842922,54.3753583705337,-104.42949623468806,-21.60610196287159,1,0
53,2.6,120.2,44.053579045948794,-78.68165532368754,153.1,39.6,-124.4,-34.7,5228.3,5228.0,138.7,0.0,1.0,1.0,0.0,1.0,1.0,0.0,0.0,0.0,100.0,1.0,1.186,26.0,0.0,-0.042,50.194,66.0,41.8,26.0,26.0,26.0,26.0,0.7,-0.93,-0.11,384.1,-2.97,-2.12,-2.3,-1.15,-706.03,573.88,6.0,0.0,0.0,0.0,0.0,0.07,-7.49,-7.49,-0.77,-1.74,-0.77,4.91,38.5,0.28,-0.64,-13.7,100.0,0.0,0.0,106.36,0.0,0.0,0.0,0.0,0.0,0.0,0.0,5673.0,0.0,30.0,4.0,138.7,1.0,0.0,0.0,0.0,0.0,0.0,1.0,0.0,2.64,2.64,50.194,17.865,1.0,110.0,435.8,8750.0,0.0,0.0,110.0,110.0,433.0,0.0,0.0,0.0,1.0,166.7,62.1,62.1,91.7,91.7,34.0,45.5,85.51,3.7,44.9,3.0,-186.97,-23.7,100.0,24.6,25.6,18.6,31.1,0.0,1.0,0.0,0.0,0.0,0.0,0.0,5682.0,5855.0,1399.0,3832.0,310.8,308.8,351.6,344.9,25.27,22.87,26.19,24.75,325.0,325.0,355.0,355.0,100.0,99.86,100.0,100.0,1.13,1.26,0.72,0.88,-1.6,-1.9,-2.2,-1.3,84.0,68.9,83.4,74.4,87.1,69.4,85.6,75.4,83.5,66.3,83.8,73.1,80.8,64.8,82.9,71.9,-1.35,1.34,0.1,0.06,0.0,115.77,116.48,105.29,107.43,174.7,27.6,1.1691877522451217,122.79468341525056,51.854646417962975,-111.63153022231171,-21.606103100919043,1,0
54,2.65,122.1,44.053564746735255,-78.68164920830061,-3.7,61.0,-12.7,11.2,5230.3,5230.0,137.2,0.0,1.0,1.0,0.0,1.0,1.0,0.0,0.0,0.0,100.0,1.0,1.186,26.0,0.0,-0.048,50.194,66.0,48.3,26.0,26.0,26.0,26.0,0.83,-0.97,-0.03,383.8,-3.36,-2.7,-2.05,-1.4,-705.35,572.29,6.0,0.0,0.0,0.0,0.0,0.07,-7.49,-7.49,-0.74,1.23,-0.46,6.96,38.09,0.41,-0.61,-16.67,100.0,0.0,0.0,105.57,0.0,0.0,0.0,0.0,0.0,0.0,0.0,5631.0,0.0,30.0,4.0,137.2,0.0,0.0,0.0,0.0,0.0,0.0,1.0,0.0,2.686,2.686,50.194,17.865,0.0,110.0,435.8,8750.0,0.0,0.0,110.0,110.0,433.0,0.0,0.0,0.0,1.0,333.3,63.6,63.6,84.3,84.3,34.0,22.8,94.37,16.2,53.7,3.0,-187.015,-26.7,100.0,24.4,28.6,18.0,31.6,0.0,1.0,0.0,0.0,0.0,0.0,0.0,3344.0,6070.0,2610.0,3829.0,316.4,308.4,348.5,344.9,25.27,22.87,26.19,24.75,325.0,325.0,355.0,355.0,100.0,99.86,100.0,100.0,1.42,1.48,0.95,1.18,-3.1,-2.2,-1.4,-1.4,84.0,68.9,83.4,74.4,87.0,69.4,85.5,75.4,83.5,66.4,83.8,73.1,80.8,64.9,82.9,71.9,-1.52,1.52,0.11,0.07,0.0,112.52,114.96,104.99,106.14,174.7,27.6,1.2769886452118515,120.63407316206104,52.21474806044179,32.40915379784269,39.61118750095501,1,0
55,2.7,124.0,44.05354891867499,-78.68164228352425,-167.6,16.5,128.0,53.0,5232.1,5232.0,135.6,0.0,1.0,1.0,0.0,1.0,1.0,0.0,0.0,0.0,100.0,1.0,1.186,26.0,0.0,-0.048,50.194,66.0,52.7,26.0,26.0,26.0,26.0,0.75,-0.76,-0.15,385.6,-2.8,-2.02,-3.42,-0.36,-704.58,570.53,6.0,0.0,0.0,0.0,0.0,0.07,-7.49,-7.49,-0.76,-2.91,-0.2,1.94,37.62,0.55,-0.6,-16.13,100.0,0.0,0.0,104.05,0.0,0.0,0.0,0.0,0.0,0.0,0.0,5550.0,0.0,30.0,4.0,135.6,1.0,0.0,0.0,0.0,0.0,0.0,1.0,0.0,2.736,2.736,50.194,17.865,1.0,110.0,435.8,8750.0,0.0,0.0,110.0,110.0,433.0,0.0,0.0,0.0,1.0,333.3,73.3,73.3,72.3,72.3,34.0,-0.3,60.77,18.9,64.9,3.0,-187.065,-31.1,100.0,16.0,29.5,24.4,34.3,0.0,1.0,0.0,0.0,0.0,0.0,0.0,734.0,4610.0,2829.0,4443.0,322.9,312.1,348.0,343.9,25.27,22.87,26.19,24.75,325.0,325.0,355.0,355.0,100.0,99.86,100.0,100.0,1.97,1.91,1.26,1.45,-11.2,-3.1,-1.4,-1.4,83.9,68.9,83.4,74.4,87.0,69.4,85.5,75.4,83.5,66.4,83.7,73.1,80.8,64.9,82.8,71.9,-1.78,1.75,0.09,0.06,0.0,100.23,112.03,103.43,104.67,174.7,27.6,1.0782393055347221,126.03559879503483,55.815765168058476,-2.845119695393805e-07,28.808137088542836,1,0
56,2.75,125.9,44.05353327047905,-78.68163526881573,-92.4,-119.9,-99.0,-8.4,5234.0,5234.0,134.1,0.0,1.0,1.0,0.0,1.0,1.0,0.0,0.0,0.0,100.0,1.0,1.186,26.0,0.0,-0.048,50.194,66.0,58.0,26.0,26.0,26.0,26.0,0.81,-1.07,-0.27,389.0,-2.9,-2.37,-2.27,-0.54,-703.8,568.79,6.0,0.0,0.0,0.0,0.0,0.08,-7.49,-7.49,-1.05,-7.91,-0.46,-9.69,37.19,0.64,-0.61,-12.55,100.0,0.0,0.0,101.76,0.0,0.0,0.0,0.0,0.0,0.0,0.0,5428.0,0.0,30.0,4.0,134.1,0.0,0.0,0.0,0.0,0.0,0.0,1.0,0.0,2.787,2.787,50.194,17.865,0.0,110.0,435.8,8750.0,0.0,0.0,110.0,110.0,433.0,0.0,0.0,0.0,1.0,333.3,75.3,75.3,83.9,83.9,34.0,-2.4,41.38,7.9,59.1,3.0,-187.115,-35.6,100.0,11.4,23.5,19.4,33.8,0.0,1.0,0.0,0.0,0.0,0.0,0.0,3316.0,4923.0,1380.0,3792.0,317.7,311.7,351.7,344.4,25.27,22.87,26.19,24.75,325.0,325.0,355.0,355.0,100.0,99.86,100.0,100.0,2.53,2.62,1.43,1.63,-11.1,-4.7,-3.2,-1.5,83.9,68.9,83.4,74.4,87.0,69.5,85.4,75.4,83.5,66.5,83.7,73.1,80.7,65.0,82.8,71.9,-2.04,1.98,0.1,0.06,0.0,103.67,108.97,100.47,103.04,174.7,27.6,1.3689046716261875,120.63407313360985,55.095561769296076,-79.22237613995748,0.0,1,0
57,2.8,127.7,44.053518791401196,-78.68162852390368,179.1,62.7,-130.6,-203.0,5235.8,5236.0,132.1,0.0,1.0,1.0,0.0,1.0,1.0,0.0,0.0,0.0,100.0,1.0,1.186,26.0,0.0,-0.048,50.194,66.0,67.3,26.0,26.0,26.0,26.0,0.87,-1.14,-0.31,389.7,-2.39,-2.83,-2.13,-0.69,-703.05,567.18,6.0,0.0,0.0,0.0,0.0,0.08,-7.49,-7.49,-1.35,-3.1,-0.72,-3.34,36.64,0.74,-0.68,-19.13,100.0,0.0,0.0,97.48,0.0,0.0,0.0,0.0,0.0,0.0,0.0,5200.0,0.0,30.0,4.0,132.1,1.0,0.0,0.0,0.0,0.0,0.0,1.0,0.0,2.834,2.834,50.194,17.865,1.0,110.0,435.8,8750.0,0.0,0.0,110.0,110.0,433.0,0.0,0.0,0.0,1.0,333.3,65.1,65.1,91.2,91.2,34.0,3.6,70.98,1.0,19.1,3.0,-187.165,-42.5,100.0,20.4,26.6,12.9,23.7,0.0,1.0,0.0,0.0,0.0,0.0,0.0,3203.0,7405.0,832.0,1776.0,316.9,305.1,353.1,350.1,25.27,22.87,26.18,24.75,325.0,325.0,355.0,355.0,100.0,99.86,100.0,100.0,2.84,2.91,1.78,1.92,-7.7,-4.4,-7.3,-2.9,83.9,68.9,83.4,74.4,87.0,69.6,85.4,75.4,83.5,66.6,83.6,73.0,80.8,65.0,82.7,71.9,-2.42,2.36,0.11,0.09,0.0,102.35,108.35,94.59,100.37,174.7,27.6,1.4671741546251418,118.11336118103908,55.815765168058476,14.40406854427124,43.212205063790705,1,0
58,2.85,129.5,44.05350377273037,-78.68162132933084,100.2,197.4,118.0,-11.9,5237.6,5238.0,129.4,0.0,1.0,1.0,0.0,1.0,1.0,0.0,0.0,0.0,100.0,1.0,1.186,26.0,0.0,-0.048,50.194,66.0,76.5,26.0,26.0,26.0,26.0,1.31,-1.59,0.34,380.3,-1.97,-1.31,-1.69,-1.35,-702.25,565.51,6.0,0.0,0.0,0.0,0.0,0.08,-7.49,-7.49,-1.35,1.95,-0.66,7.05,35.87,0.95,-0.68,-27.72,100.0,0.0,0.0,97.59,0.0,0.0,0.0,0.0,0.0,0.0,0.0,5205.0,0.0,30.0,4.0,129.4,0.0,0.0,0.0,0.0,0.0,0.0,0.0,0.0,2.886,2.886,50.194,17.865,0.0,110.0,435.8,8750.0,0.0,0.0,110.0,110.0,433.0,0.0,0.0,0.0,1.0,333.3,53.2,53.2,81.5,81.5,34.0,10.3,58.26,21.8,38.2,3.0,-187.215,-50.8,100.0,25.4,36.5,18.8,23.1,0.0,1.0,0.0,0.0,0.0,0.0,0.0,5663.0,7837.0,2043.0,3471.0,309.5,303.3,349.4,346.1,25.27,22.87,26.18,24.75,325.0,325.0,355.0,355.0,100.0,99.86,100.0,100.0,3.21,3.25,2.31,2.56,-7.3,-5.0,-2.8,-3.6,83.9,68.9,83.4,74.4,87.1,69.7,85.4,75.4,83.5,66.7,83.6,73.1,80.8,65.2,82.7,71.9,-2.89,2.83,0.1,0.09,0.0,101.3,105.7,96.64,98.54,174.7,27.6,2.088013409918624,122.07447998803697,59.416782275675146,-61.21729117089757,7.20203455664759,1,0
59,2.9,131.2,44.053488304398755,-78.68161368509719,-66.7,-19.5,-98.7,309.9,5239.4,5239.0,126.8,1.0,1.0,1.0,0.0,1.0,1.0,0.0,0.0,0.0,100.0,1.0,1.186,26.0,0.0,-0.048,50.194,66.0,87.4,26.0,26.0,26.0,26.0,1.04,-1.18,0.02,382.4,-2.98,-2.11,-2.2,-1.42,-701.4,563.79,6.0,0.0,0.0,0.0,0.0,0.08,-7.49,-7.49,-1.17,2.5,-0.18,2.28,35.16,1.26,-0.62,-26.51,100.0,0.0,0.0,92.44,0.0,0.0,0.0,0.0,0.0,0.0,0.0,4931.0,0.0,30.0,4.0,126.8,1.0,0.0,0.0,0.0,0.0,0.0,0.0,0.0,2.94,2.94,50.194,17.865,1.0,110.0,435.8,8750.0,0.0,0.0,110.0,110.0,433.0,0.0,0.0,0.0,1.0,166.7,64.0,64.0,85.4,85.4,34.0,-0.6,-12.15,-0.1,97.4,3.0,-187.27,-57.8,100.0,22.0,35.5,13.9,38.6,0.0,1.0,0.0,0.0,0.0,0.0,0.0,904.0,6352.0,100.0,6488.0,322.3,307.6,354.1,338.2,25.27,22.87,26.18,24.75,325.0,325.0,355.0,355.0,100.0,99.86,100.0,100.0,4.26,4.16,2.96,3.05,-17.8,-8.7,-10.1,-2.5,83.9,69.0,83.4,74.4,87.2,69.9,85.3,75.5,83.6,66.8,83.6,73.1,80.9,65.3,82.7,72.0,-3.33,3.24,0.11,0.03,0.0,88.69,98.84,86.83,98.04,174.7,27.6,1.5730225681788548,111.99163206394933,56.535968623723235,-165.64678712107437,-36.0101705071429,1,0
60,2.95,133.0,44.053475803828434,-78.68160720998162,-56.2,-34.1,172.8,59.0,5241.1,5241.0,124.5,0.0,1.0,1.0,0.0,1.0,1.0,0.0,0.0,0.0,100.0,1.0,1.186,26.0,0.0,-0.051,50.194,66.0,99.1,26.0,26.0,26.0,26.0,1.32,-1.26,0.26,379.6,-4.0,-2.51,-1.45,-0.91,-700.68,562.4,6.0,0.0,0.0,0.0,0.0,0.08,-7.49,-7.49,-1.2,-2.97,-0.33,-4.36,34.52,1.35,-0.68,-21.39,100.0,0.0,0.0,91.6,0.0,0.0,0.0,0.0,0.0,0.0,0.0,4886.0,0.0,30.0,4.0,124.5,0.0,0.0,0.0,0.0,0.0,0.0,0.0,0.0,2.984,2.984,50.194,17.865,0.0,110.0,435.8,8750.0,0.0,0.0,110.0,110.0,433.0,0.0,0.0,0.0,1.0,333.3,62.8,62.8,76.9,76.9,34.0,-4.1,-16.8,0.7,61.0,3.0,-187.315,-62.3,100.0,19.2,33.8,22.5,41.5,0.0,1.0,0.0,0.0,0.0,0.0,0.0,2969.0,7101.0,640.0,4770.0,317.1,305.5,352.7,342.0,25.27,22.87,26.18,24.75,325.0,325.0,355.0,355.0,100.0,99.86,100.0,100.0,5.02,4.95,3.06,3.17,-10.1,-9.2,-7.3,-2.8,83.9,69.0,83.4,74.4,87.2,70.1,85.3,75.5,83.6,67.0,83.6,73.2,80.9,65.5,82.7,72.0,-3.61,3.51,0.09,0.05,0.0,91.6,95.59,88.22,94.98,174.7,27.6,1.8432579851990334,105.50980127592953,55.815765224960856,-28.808136519519252,32.40915351333115,1,0
61,3.0,134.7,44.053461954275704,-78.68159974561229,56.0,-44.1,-168.1,-234.0,5242.8,5243.0,122.1,1.0,1.0,1.0,0.0,1.0,1.0,0.0,0.0,0.0,100.0,1.0,1.186,26.0,0.0,-0.048,50.194,66.0,100.0,26.0,26.0,26.0,26.0,0.98,-1.32,-0.21,385.2,-2.91,-2.88,-2.06,-1.03,-699.85,560.86,6.0,0.0,0.0,0.0,0.0,0.08,-7.49,-7.49,-1.3,0.1,-0.52,-3.12,33.84,1.55,-0.66,-22.65,100.0,0.0,0.0,84.57,0.0,0.0,0.0,0.0,0.0,0.0,0.0,4511.0,0.0,30.0,4.0,122.1,1.0,0.0,0.0,0.0,0.0,0.0,0.0,0.0,3.036,3.036,50.194,17.865,1.0,110.0,435.8,8750.0,0.0,0.0,110.0,110.0,433.0,0.0,0.0,0.0,1.0,333.3,62.6,62.6,87.2,87.2,34.0,-3.4,-14.85,-0.8,22.6,3.0,-187.365,-68.0,100.0,22.0,31.6,14.1,29.8,0.0,1.0,0.0,0.0,0.0,0.0,0.0,3237.0,6711.0,1522.0,3616.0,316.5,306.7,351.6,345.7,25.27,22.87,26.18,24.74,325.0,325.0,355.0,355.0,100.0,99.86,100.0,100.0,5.64,5.58,3.45,3.58,-17.8,-11.2,-18.7,-4.4,83.9,69.0,83.4,74.4,87.3,70.3,85.3,75.5,83.7,67.2,83.6,73.2,81.0,65.7,82.6,72.0,-3.95,3.83,0.12,0.07,0.0,87.01,91.67,78.0,91.13,174.7,27.6,1.6573774464496613,109.1108184119974,59.77688397505635,-25.207119525707213,21.606101962871378,1,0
62,3.05,136.3,44.05344855438377,-78.68159228124297,11.5,-8.6,48.3,6.3,5244.5,5244.0,119.5,1.0,1.0,1.0,0.0,1.0,1.0,0.0,0.0,0.0,100.0,1.0,1.186,26.0,0.0,-0.048,50.194,66.0,100.0,26.0,26.0,26.0,26.0,1.0,-1.51,0.1,383.6,-2.63,-2.16,-2.35,-1.09,-699.02,559.37,6.0,0.0,0.0,0.0,0.0,0.08,-7.49,-7.49,-1.32,-0.9,-0.58,1.6,33.09,1.7,-0.65,-22.77,100.0,0.0,0.0,86.06,0.0,0.0,0.0,0.0,0.0,0.0,0.0,4590.0,0.0,30.0,4.0,119.5,0.0,0.0,0.0,0.0,0.0,0.0,0.0,0.0,3.087,3.087,50.194,17.865,0.0,110.0,435.8,8750.0,0.0,0.0,110.0,110.0,433.0,0.0,0.0,0.0,1.0,333.3,62.1,62.1,82.7,82.7,34.0,-4.4,-17.6,-1.5,6.1,3.0,-187.42,-74.5,100.0,22.6,31.2,16.5,30.2,0.0,1.0,0.0,0.0,0.0,0.0,0.0,3051.0,7302.0,2203.0,3393.0,316.8,305.4,349.5,345.8,25.27,22.87,26.18,24.74,325.0,325.0,355.0,355.0,100.0,99.86,100.0,100.0,6.31,6.21,3.73,3.88,-13.6,-10.5,-8.8,-6.1,83.9,69.0,83.4,74.4,87.4,70.5,85.3,75.6,83.8,67.4,83.6,73.3,81.1,65.9,82.6,72.1,-4.33,4.17,0.1,0.07,0.0,88.84,94.91,83.91,88.21,174.7,27.6,1.8138632804045622,102.98908932335881,57.976375421247994,-90.02542797492865,-14.404067975248012,1,0
63,3.1,138.0,44.05343623367777,-78.68158526653444,-29.9,37.9,-33.9,-25.1,5246.1,5246.0,117.2,1.0,1.0,1.0,0.0,1.0,1.0,0.0,0.0,0.0,100.0,1.0,1.186,26.0,0.0,-0.048,50.194,66.0,99.1,26.0,26.0,26.0,26.0,1.0,-1.32,-0.1,384.6,-3.45,-2.96,-2.51,-1.13,-698.24,558.0,6.0,0.0,0.0,0.0,0.0,0.08,-7.49,-7.49,-1.36,0.04,-0.48,-0.95,32.45,1.83,-0.64,-22.59,100.0,0.0,0.0,83.4,0.0,0.0,0.0,0.0,0.0,0.0,0.0,4449.0,0.0,30.0,4.0,117.2,1.0,0.0,0.0,0.0,0.0,0.0,0.0,0.0,3.134,3.134,50.194,17.865,1.0,110.0,435.8,8750.0,0.0,0.0,110.0,110.0,433.0,0.0,0.0,0.0,1.0,333.3,63.0,63.0,85.9,85.9,34.0,-4.4,-14.28,-1.3,7.5,3.0,-187.465,-78.8,100.0,21.1,33.1,14.8,28.9,0.0,1.0,0.0,0.0,0.0,0.0,0.0,3495.0,6163.0,1543.0,4711.0,316.6,308.0,351.7,342.9,25.26,22.87,26.18,24.74,325.0,325.0,355.0,355.0,100.0,99.86,100.0,100.0,6.84,6.72,4.09,4.23,-16.2,-11.7,-12.6,-5.7,83.9,69.0,83.4,74.4,87.5,70.8,85.3,75.7,83.9,67.7,83.6,73.3,81.1,66.1,82.6,72.2,-4.63,4.43,0.11,0.07,0.0,80.12,91.51,80.27,86.53,174.7,27.6,1.6590358645912389,100.10827561450454,58.33647717753155,-32.4091540823548,25.207120094731295,1,0
64,3.15,139.5,44.05342355324313,-78.68157771223295,25.1,-6.8,-18.6,60.1,5247.7,5248.0,114.7,0.0,1.0,1.0,0.0,1.0,1.0,0.0,0.0,0.0,100.0,1.0,1.186,26.0,0.0,-0.051,50.194,66.0,77.3,26.0,26.0,26.0,26.0,1.29,-1.3,0.12,382.3,-3.67,-2.48,-2.23,-0.91,-697.4,556.59,6.0,0.0,0.0,0.0,0.0,0.08,-7.49,-7.49,-1.37,0.31,-0.4,2.39,31.76,1.88,-0.65,-22.91,100.0,0.0,0.0,82.42,0.0,0.0,0.0,0.0,0.0,0.0,0.0,4396.0,0.0,30.0,4.0,114.7,0.0,0.0,0.0,0.0,0.0,0.0,0.0,0.0,3.186,3.186,50.194,17.865,0.0,110.0,435.8,8750.0,0.0,0.0,110.0,110.0,433.0,0.0,0.0,0.0,1.0,333.3,59.3,59.3,89.1,89.1,34.0,-6.9,-18.83,-0.5,25.4,3.0,-187.515,-81.7,100.0,22.4,32.7,13.9,31.9,0.0,1.0,0.0,0.0,0.0,0.0,0.0,4623.0,7626.0,633.0,5405.0,313.6,304.6,353.5,340.9,25.26,22.87,26.18,24.74,325.0,325.0,355.0,355.0,100.0,99.86,100.0,100.0,7.1,7.05,4.26,4.41,-14.4,-11.4,-12.2,-3.9,83.9,69.0,83.4,74.4,87.6,71.0,85.3,75.7,84.0,67.9,83.6,73.4,81.2,66.3,82.6,72.2,-4.8,4.61,0.12,0.07,0.0,85.15,86.61,78.32,86.52,174.7,27.6,1.8353473785635244,99.74817391512333,60.49708743072112,-57.61627360806216,10.8030515504597,1,0
65,3.2,141.1,44.05341132246929,-78.68157015793146,-83.5,-39.7,-7.8,-13.6,5249.3,5249.0,112.7,0.0,1.0,1.0,0.0,1.0,1.0,0.0,0.0,0.0,100.0,1.0,1.186,26.0,0.0,-0.051,50.194,66.0,36.4,26.0,26.0,26.0,26.0,1.17,-0.92,-0.2,387.3,-1.93,-1.84,-2.85,-0.62,-696.56,555.23,6.0,0.0,0.0,0.0,0.0,0.08,-7.49,-7.49,-1.32,0.53,-0.3,1.92,31.22,1.94,-0.58,-22.7,100.0,0.0,0.0,82.82,0.0,0.0,0.0,0.0,0.0,0.0,0.0,4418.0,0.0,30.0,4.0,112.7,1.0,0.0,0.0,0.0,0.0,0.0,0.0,0.0,3.237,3.237,50.194,17.865,1.0,110.0,435.8,8750.0,0.0,0.0,110.0,110.0,433.0,0.0,0.0,0.0,1.0,333.3,68.7,68.7,85.5,85.5,34.0,-2.3,-16.06,-1.2,24.4,3.0,-187.57,-83.8,100.0,18.2,30.7,13.5,31.2,0.0,1.0,0.0,0.0,0.0,0.0,0.0,1524.0,5883.0,1124.0,4607.0,321.1,309.1,351.9,343.2,25.26,22.87,26.18,24.74,325.0,325.0,355.0,355.0,100.0,99.87,100.0,100.0,7.47,7.27,4.43,4.55,-10.1,-7.3,-8.9,-3.1,83.9,69.0,83.4,74.4,87.6,71.2,85.3,75.8,84.0,68.1,83.5,73.4,81.3,66.5,82.6,72.3,-4.93,4.73,0.12,0.08,0.0,83.97,89.6,79.25,86.39,174.7,27.6,1.5017656275198203,94.34664825369832,59.41678233257752,-75.62135943065726,7.2020339876236505,1,0
66,3.25,142.7,44.05339999101705,-78.68156287342644,-52.1,20.9,49.9,50.2,5250.8,5251.0,111.4,0.0,1.0,1.0,0.0,1.0,1.0,0.0,0.0,0.0,100.0,1.0,1.186,26.0,0.0,-0.051,50.194,66.0,13.4,26.0,26.0,26.0,26.0,1.64,-0.46,0.16,384.0,-3.69,-2.78,-1.86,-0.45,-695.75,553.97,5.9,0.0,0.0,0.0,0.0,0.09,-7.49,-7.49,-1.33,-0.23,-0.18,3.23,30.87,1.83,-0.56,-22.92,100.0,0.0,0.0,85.99,0.0,0.0,0.0,0.0,0.0,0.0,0.0,5145.0,0.0,30.0,0.0,111.4,0.0,0.0,0.0,0.0,0.0,0.0,0.0,0.0,3.284,3.284,50.194,17.865,0.0,110.0,435.8,8750.0,0.0,0.0,110.0,110.0,433.0,0.0,0.0,0.0,1.0,333.3,66.3,66.3,76.7,76.7,34.0,-2.5,-28.44,11.3,50.4,3.0,-187.615,-86.0,100.0,15.6,31.8,16.0,33.7,0.0,1.0,50.0,0.0,0.0,0.0,0.0,1620.0,8257.0,1494.0,5262.0,321.0,302.4,351.1,341.0,25.26,22.87,26.18,24.74,325.0,325.0,355.0,355.0,100.0,99.87,100.0,100.0,7.44,7.29,4.29,4.45,-7.6,-2.3,-1.1,-0.7,83.9,69.0,83.3,74.4,87.6,71.4,85.3,75.9,84.0,68.3,83.5,73.5,81.3,66.7,82.6,72.4,-5.09,4.86,0.12,0.06,0.0,86.34,93.16,84.93,87.05,174.7,27.6,1.7107892915259901,92.1860379720576,61.21729082948349,-18.00508553808342,54.015256045226394,1,0
67,3.3,144.2,44.05338829983618,-78.68155486946416,-62.5,38.2,-65.1,-13.6,5252.3,5252.0,110.6,0.0,1.0,1.0,0.0,1.0,1.0,0.0,0.0,0.0,100.0,1.0,1.186,26.0,0.0,-0.048,50.194,66.0,3.6,26.0,26.0,26.0,26.0,1.6,-0.37,-0.05,385.4,-4.0,-1.87,-2.59,-0.29,-694.86,552.67,5.9,0.0,0.0,0.0,0.0,0.09,-7.49,-7.49,-1.24,3.39,-0.37,-8.86,30.67,1.78,-0.45,-25.05,100.0,0.0,0.0,86.03,0.0,0.0,0.0,0.0,0.0,0.0,0.0,6141.0,0.0,30.0,0.0,110.6,1.0,0.0,0.0,0.0,0.0,0.0,0.0,0.0,3.336,3.336,50.194,17.865,1.0,110.0,435.8,8750.0,0.0,0.0,110.0,110.0,433.0,0.0,0.0,0.0,1.0,333.3,68.6,68.6,77.3,77.3,34.0,-2.7,-23.73,16.8,49.5,3.0,-187.665,-89.0,100.0,12.5,33.7,12.8,33.1,0.0,1.0,19.1,0.0,0.0,0.0,0.0,1711.0,7159.0,2148.0,5471.0,320.8,305.5,349.9,340.9,25.26,22.88,26.17,24.74,325.0,325.0,355.0,355.0,100.0,99.87,100.0,100.0,7.54,7.35,4.46,4.58,-6.6,-1.2,-0.8,-0.3,83.9,69.0,83.3,74.4,87.6,71.6,85.2,75.9,84.0,68.5,83.5,73.5,81.2,66.9,82.5,72.4,-5.26,5.01,0.12,0.07,0.0,87.11,93.7,84.96,87.09,174.7,27.6,1.642985088185526,92.54613969988998,64.81830793710016,-46.81322205760253,32.4091546513786,1,0
68,3.35,145.7,44.05337687845178,-78.68154668563754,128.2,4.0,165.2,111.7,5253.9,5254.0,110.0,0.0,1.0,1.0,0.0,1.0,1.0,0.0,0.0,0.0,100.0,1.0,1.186,26.0,0.0,-0.048,50.194,66.0,0.0,26.0,26.0,26.0,26.0,1.72,-0.16,0.04,380.4,-3.11,-2.02,-2.4,-0.76,-693.95,551.4,5.9,0.0,0.0,0.0,0.0,0.09,-7.49,-7.49,-1.01,5.72,-0.46,4.63,30.5,1.59,-0.4,-26.69,100.0,0.0,0.0,85.82,0.0,0.0,0.0,0.0,0.0,0.0,0.0,6073.0,0.0,30.0,0.0,110.0,0.0,0.0,0.0,0.0,0.0,0.0,1.0,0.0,3.387,3.387,50.194,17.865,0.0,110.0,435.8,8750.0,0.0,0.0,110.0,110.0,433.0,0.0,0.0,0.0,1.0,166.7,66.3,66.3,75.4,75.4,34.0,-2.5,-17.99,9.8,87.8,3.0,-187.715,-94.2,100.0,18.9,33.9,21.0,38.6,0.0,1.0,0.0,0.0,0.0,0.0,0.0,1533.0,6261.0,1195.0,7101.0,320.9,308.1,351.9,336.3,25.26,22.88,26.17,24.74,325.0,325.0,355.0,355.0,100.0,99.87,100.0,100.0,7.25,7.01,4.11,4.21,-0.3,-0.5,-0.1,-0.2,83.9,69.0,83.3,74.4,87.6,71.8,85.2,76.0,84.0,68.6,83.5,73.6,81.2,67.0,82.5,72.5,-5.52,5.27,0.1,0.04,0.0,91.8,93.91,84.89,86.76,174.7,27.6,1.7278888853164138,87.50471576629735,64.45820629462135,-72.02034243684523,18.00508553808342,1,0
69,3.4,147.3,44.05336644632115,-78.6815387716074,-165.6,-147.5,-11.1,123.6,5255.4,5255.0,109.7,0.0,1.0,1.0,0.0,1.0,1.0,0.0,0.0,0.0,100.0,1.0,1.186,26.0,0.0,-0.051,50.194,66.0,0.0,26.0,26.0,26.0,26.0,1.71,-0.14,0.02,382.1,-2.67,-1.93,-3.5,-0.39,-693.07,550.24,5.9,0.0,0.0,0.0,0.0,0.09,-7.49,-7.49,-0.81,1.62,-0.49,-1.56,30.43,1.49,-0.27,-20.11,100.0,0.0,0.0,85.27,0.0,0.0,0.0,0.0,0.0,0.0,0.0,5716.0,0.0,30.0,3.0,109.7,1.0,0.0,0.0,0.0,0.0,0.0,1.0,0.0,3.436,3.436,50.194,17.865,1.0,110.0,435.8,8750.0,0.0,0.0,110.0,110.0,433.0,0.0,0.0,0.0,1.0,333.3,76.7,76.7,71.3,71.3,34.0,-2.3,-15.02,45.4,119.6,3.0,-187.765,-104.7,100.0,10.6,26.5,20.5,44.8,0.0,1.0,0.0,0.0,0.0,0.0,0.0,1305.0,4977.0,3513.0,7912.0,321.9,311.6,346.1,334.6,25.26,22.88,26.17,24.74,325.0,325.0,355.0,355.0,100.0,99.87,100.0,100.0,8.04,7.74,3.73,3.88,-0.1,-0.4,0.1,-0.4,83.9,69.0,83.3,74.4,87.6,72.0,85.2,76.1,84.0,68.8,83.5,73.7,81.2,67.2,82.5,72.6,-6.16,5.84,0.1,0.03,0.0,91.69,93.14,84.57,85.97,174.7,27.6,1.7158379876899799,85.34410545620545,66.6188164909085,-14.404068828783352,61.217290032850116,1,0
70,3.45,148.8,44.053355564529724,-78.68153004818784,45.4,61.9,101.3,73.2,5256.9,5257.0,109.1,0.0,1.0,1.0,0.0,1.0,1.0,0.0,0.0,0.0,100.0,1.0,1.186,26.0,0.0,-0.048,50.194,66.0,0.0,26.0,26.0,26.0,26.0,1.56,-0.25,0.11,379.9,-2.0,-1.84,-2.67,-0.81,-692.1,549.03,5.9,0.0,0.0,0.0,0.0,0.09,-7.49,-7.49,-0.9,-2.72,-0.27,4.25,30.28,1.13,-0.4,-17.65,100.0,0.0,0.0,84.7,0.0,0.0,0.0,0.0,0.0,0.0,0.0,5678.0,0.0,30.0,3.0,109.1,0.0,0.0,0.0,0.0,0.0,0.0,1.0,0.0,3.486,3.486,50.194,17.865,0.0,110.0,435.8,8750.0,0.0,0.0,110.0,110.0,433.0,0.0,0.0,0.0,1.0,333.3,70.3,70.3,68.7,68.7,34.0,-1.6,-26.57,5.5,114.2,3.0,-187.815,-115.8,100.0,12.9,29.6,25.5,48.5,0.0,1.0,0.0,0.0,0.0,0.0,0.0,906.0,7839.0,524.0,6186.0,322.6,303.9,352.9,338.9,25.26,22.88,26.17,24.74,325.0,325.0,355.0,355.0,100.0,99.87,100.0,100.0,8.15,7.83,2.89,2.94,-0.0,-0.6,-0.2,-0.6,83.9,69.0,83.3,74.4,87.6,72.1,85.2,76.1,84.0,68.9,83.4,73.8,81.2,67.3,82.5,72.6,-6.86,6.44,0.1,0.03,0.0,91.24,92.36,84.08,85.31,174.7,27.6,1.5837297749300543,86.06430888341902,70.57993529790636,-14.404067975247727,57.61627417708567,1,0
71,3.5,150.3,44.05334495253477,-78.68152114490394,-4.3,96.3,-157.0,-163.7,5258.4,5258.0,108.6,0.0,1.0,1.0,0.0,1.0,1.0,0.0,0.0,0.0,100.0,1.0,1.186,26.0,0.0,-0.048,50.194,66.0,0.0,26.0,26.0,26.0,26.0,1.42,-0.26,-0.13,382.7,-1.91,-1.69,-3.27,-0.21,-691.11,547.85,5.9,0.0,0.0,0.0,0.0,0.09,-7.49,-7.49,-0.91,1.34,-0.48,-9.43,30.13,0.94,-0.38,-21.2,100.0,0.0,0.0,84.47,0.0,0.0,0.0,0.0,0.0,0.0,0.0,5662.0,0.0,30.0,3.0,108.6,1.0,0.0,0.0,0.0,0.0,0.0,1.0,0.0,3.537,3.537,50.194,17.865,1.0,110.0,435.8,8750.0,0.0,0.0,110.0,110.0,433.0,0.0,0.0,0.0,1.0,333.3,70.4,70.4,67.0,67.0,34.0,-0.1,-22.86,53.6,89.1,3.0,-187.865,-124.0,100.0,12.6,34.4,17.7,40.3,0.0,1.0,0.0,0.0,0.0,0.0,0.0,81.0,6966.0,3770.0,5114.0,324.7,306.2,346.2,341.7,25.26,22.88,26.17,24.74,325.0,325.0,355.0,355.0,100.0,99.87,100.0,100.0,8.36,7.93,2.76,2.93,0.2,-0.6,-0.3,-0.6,83.8,69.0,83.3,74.4,87.5,72.4,85.1,76.1,83.9,69.1,83.4,73.8,81.2,67.5,82.4,72.6,-7.4,6.92,0.1,0.06,0.0,90.86,92.12,83.75,85.18,174.7,27.6,1.4494481708567575,83.90369865868068,72.38044390861707,-68.41932487400953,10.803051550459628,1,0
72,3.55,151.8,44.0533346103363,-78.68151197182355,54.7,-62.9,91.2,8.2,5259.9,5260.0,108.0,0.0,1.0,1.0,0.0,1.0,1.0,0.0,0.0,0.0,100.0,1.0,1.186,26.0,0.0,-0.051,50.194,66.0,0.0,26.0,26.0,26.0,26.0,1.65,-0.29,0.15,380.3,-1.24,-2.47,-2.9,-0.32,-690.09,546.7,5.9,0.0,0.0,0.0,0.0,0.09,-7.49,-7.49,-0.86,0.49,-0.71,-1.74,29.99,0.75,-0.38,-22.17,100.0,0.0,0.0,84.09,0.0,0.0,0.0,0.0,0.0,0.0,0.0,5637.0,0.0,30.0,3.0,108.0,0.0,0.0,0.0,0.0,0.0,0.0,1.0,0.0,3.588,3.588,50.194,17.865,0.0,110.0,435.8,8750.0,0.0,0.0,110.0,110.0,433.0,0.0,0.0,0.0,1.0,166.7,70.3,70.3,67.4,67.4,34.0,-1.5,-19.92,54.3,142.5,3.0,-187.915,-130.2,100.0,15.4,31.3,22.2,40.7,0.0,1.0,0.0,0.0,0.0,0.0,0.0,753.0,6159.0,3749.0,7086.0,322.3,308.1,346.0,336.8,25.25,22.88,26.17,24.74,325.0,325.0,355.0,355.0,100.0,99.87,100.0,100.0,8.25,7.79,2.42,2.6,-0.1,-0.5,-0.2,-0.5,83.8,69.0,83.3,74.4,87.6,72.5,85.1,76.2,83.9,69.3,83.4,73.8,81.2,67.7,82.4,72.7,-7.78,7.27,0.09,0.04,0.0,90.13,91.74,83.29,84.89,174.7,27.6,1.6819928656210168,79.22237639601806,71.66024045295232,-68.41932544303347,7.202033987624077,1,0
73,3.6,153.3,44.05332516745944,-78.68150324840398,-35.3,-23.1,-35.3,27.6,5261.4,5261.0,107.6,0.0,1.0,1.0,0.0,1.0,1.0,0.0,0.0,0.0,100.0,1.0,1.186,26.0,0.0,-0.051,50.194,66.0,0.0,26.0,26.0,26.0,26.0,1.5,-0.28,-0.07,381.9,-1.92,-2.79,-3.06,-0.01,-689.12,545.65,5.9,0.0,0.0,0.0,0.0,0.09,-7.49,-7.49,-0.94,-1.02,-0.98,-7.52,29.86,0.63,-0.4,-22.73,100.0,0.0,0.0,83.67,0.0,0.0,0.0,0.0,0.0,0.0,0.0,5609.0,0.0,30.0,3.0,107.6,1.0,0.0,0.0,0.0,0.0,0.0,1.0,0.0,3.636,3.636,50.194,17.865,1.0,110.0,435.8,8750.0,0.0,0.0,110.0,110.0,433.0,0.0,0.0,0.0,1.0,333.3,70.5,70.5,71.6,71.6,34.0,-3.8,-20.67,39.5,106.4,3.0,-187.965,-134.7,100.0,13.6,30.1,20.5,42.1,0.0,1.0,0.0,0.0,0.0,0.0,0.0,1836.0,6331.0,3088.0,5635.0,320.5,307.6,347.9,340.4,25.25,22.88,26.17,24.74,325.0,325.0,355.0,355.0,100.0,99.87,100.0,100.0,8.32,7.88,2.25,2.41,-0.1,-0.7,-0.2,-0.6,83.8,69.0,83.3,74.4,87.5,72.7,85.1,76.2,83.9,69.5,83.3,73.8,81.1,67.8,82.4,72.7,-8.08,7.52,0.1,0.05,0.0,89.67,91.26,82.85,84.48,174.7,27.6,1.5275143207184672,77.06176611437733,73.10064730737948,-43.212205348302746,32.40915408235466,1,0
74,3.65,154.8,44.05331536485394,-78.68149371559495,102.1,3.5,21.8,-76.1,5262.9,5263.0,107.0,0.0,1.0,1.0,0.0,1.0,1.0,0.0,0.0,0.0,100.0,1.0,1.186,26.0,0.0,-0.054,50.194,66.0,0.0,26.0,26.0,26.0,26.0,1.42,-0.28,0.12,382.6,-1.36,-2.45,-1.16,-0.77,-688.06,544.56,5.9,0.0,0.0,0.0,0.0,0.09,-7.49,-7.49,-0.97,1.36,-0.95,5.83,29.71,0.56,-0.44,-29.06,100.0,0.0,0.0,83.27,0.0,0.0,0.0,0.0,0.0,0.0,0.0,5582.0,0.0,30.0,3.0,107.0,0.0,0.0,0.0,0.0,0.0,0.0,1.0,0.0,3.687,3.687,50.194,17.865,0.0,110.0,435.8,8750.0,0.0,0.0,110.0,110.0,433.0,0.0,0.0,0.0,1.0,333.3,66.7,66.7,78.5,78.5,34.0,-4.3,-22.79,2.4,100.7,3.0,-188.02,-138.2,100.0,18.7,30.3,21.6,38.3,0.0,1.0,0.0,0.0,0.0,0.0,0.0,1898.0,6894.0,271.0,5337.0,319.6,306.5,354.0,341.2,25.25,22.88,26.17,24.74,325.0,325.0,355.0,355.0,100.0,99.87,100.0,100.0,7.9,7.49,2.25,2.31,-0.2,-0.6,-0.3,-0.6,83.8,69.0,83.3,74.4,87.6,72.9,85.0,76.2,84.0,69.6,83.3,73.8,81.2,68.0,82.3,72.7,-8.27,7.72,0.1,0.05,0.0,89.03,91.27,82.17,84.37,174.7,27.6,1.4523085071705666,74.90115586118779,74.90115586118779,-43.212205063790776,32.40915408235466,1,0
75,3.7,156.2,44.05330646157004,-78.68148454251458,-101.5,-27.3,-110.9,59.1,5264.4,5264.0,106.5,0.0,1.0,1.0,0.0,1.0,1.0,0.0,0.0,0.0,100.0,1.0,1.186,26.0,0.0,-0.051,50.194,66.0,0.0,26.0,26.0,26.0,26.0,1.47,-0.23,-0.05,383.7,-1.55,-2.1,-2.01,0.45,-687.04,543.57,5.9,0.0,0.0,0.0,0.0,0.09,-7.49,-7.49,-0.87,1.33,-0.86,-2.07,29.57,0.65,-0.35,-30.05,100.0,0.0,0.0,82.95,0.0,0.0,0.0,0.0,0.0,0.0,0.0,5560.0,0.0,30.0,3.0,106.5,1.0,0.0,0.0,0.0,0.0,0.0,1.0,0.0,3.734,3.734,50.194,17.865,1.0,110.0,435.8,8750.0,0.0,0.0,110.0,110.0,433.0,0.0,0.0,0.0,1.0,333.3,72.4,72.4,78.1,78.1,34.0,-2.4,-19.37,25.2,141.5,3.0,-188.065,-141.2,100.0,13.6,28.9,16.0,41.2,0.0,1.0,0.0,0.0,0.0,0.0,0.0,1267.0,6095.0,1980.0,7138.0,322.0,308.7,350.2,336.5,25.25,22.88,26.17,24.74,325.0,325.0,355.0,355.0,100.0,99.87,100.0,100.0,8.33,7.82,2.58,2.69,0.0,-0.4,-0.2,-0.4,83.8,69.0,83.3,74.4,87.5,73.1,85.0,76.2,83.9,69.8,83.2,73.9,81.2,68.1,82.3,72.7,-8.5,7.9,0.11,0.04,0.0,88.62,90.87,81.81,84.08,174.7,27.6,1.4887242860919545,72.74054560799826,76.34156271561494,-18.005085538083136,50.414239620438366,1,0
45,2.2,105.0,44.05371574283289,-78.68170982257686,-176.5,7.9,1.9,149.5,6935.1,6935.0,142.6,1.0,1.0,1.0,0.0,1.0,1.0,0.0,0.0,0.0,100.0,1.0,1.186,26.0,0.0,-0.012,48.272,66.0,100.0,26.0,26.0,26.0,26.0,0.48,-1.74,-0.21,384.9,-3.21,-3.46,-1.35,-1.7,-712.09,589.08,5.9,0.0,0.0,0.0,0.0,0.06,-7.49,-7.49,-1.07,-4.69,0.07,1.29,39.53,0.56,-0.84,-8.48,100.0,0.0,0.0,105.61,0.0,0.0,0.0,0.0,0.0,0.0,0.0,5633.0,0.0,30.0,4.0,142.6,0.0,0.0,0.0,0.0,0.0,0.0,1.0,0.0,2.214,2.214,48.272,17.725,0.0,110.0,435.8,8750.0,0.0,0.0,110.0,110.0,433.0,0.0,0.0,0.0,1.0,333.3,63.6,63.6,82.3,82.3,34.0,-2.4,-8.22,7.0,18.8,4.0,-234.815,-28.8,100.0,20.4,29.2,19.0,30.0,0.0,1.0,0.0,0.0,0.0,0.0,0.0,4758.0,6642.0,2636.0,2459.0,314.0,306.7,348.6,348.5,25.46,22.68,26.53,24.76,325.0,325.0,355.0,355.0,99.99,99.97,99.98,100.0,2.06,2.2,0.94,1.14,-13.7,-11.3,-5.6,-4.1,85.1,67.8,85.6,74.5,89.7,68.3,88.8,76.2,86.3,65.4,87.1,73.8,83.5,63.9,85.9,72.7,-1.68,1.64,0.11,0.08,0.0,108.27,107.72,105.03,106.19,174.7,27.6,1.817168126508937,137.5588535735496,46.45312069963558,21.606102816407144,21.606103100918972,1,0
46,2.25,107.0,44.053698745654536,-78.68170406691858,161.7,116.8,-200.0,-129.2,6937.1,6937.0,139.5,1.0,1.0,1.0,0.0,1.0,1.0,0.0,0.0,0.0,100.0,1.0,1.186,26.0,0.0,-0.009,48.272,66.0,100.0,26.0,26.0,26.0,26.0,0.74,-1.83,0.06,383.4,-3.77,-2.28,-1.62,-1.05,-711.45,587.19,5.9,0.0,0.0,0.0,0.0,0.06,-7.49,-7.49,-1.11,4.16,0.04,-3.44,38.69,0.58,-0.83,-10.15,100.0,0.0,0.0,99.41,0.0,0.0,0.0,0.0,0.0,0.0,0.0,5303.0,0.0,30.0,4.0,139.5,1.0,0.0,0.0,0.0,0.0,0.0,1.0,0.0,2.264,2.264,48.272,17.725,1.0,110.0,435.8,8750.0,0.0,0.0,110.0,110.0,433.0,0.0,0.0,0.0,1.0,333.3,50.4,50.4,94.8,94.8,34.0,29.1,26.47,-0.2,17.7,4.0,-234.865,-26.2,100.0,28.5,35.1,9.0,23.5,0.0,1.0,0.0,0.0,0.0,0.0,0.0,6052.0,9264.0,1174.0,2872.0,309.7,299.8,352.8,347.9,25.46,22.68,26.53,24.76,325.0,325.0,355.0,355.0,99.99,99.97,99.98,100.0,2.02,2.2,1.11,1.33,-5.8,-7.6,-12.4,-5.0,85.1,67.8,85.6,74.5,89.8,68.6,88.8,76.2,86.4,65.6,87.0,73.8,83.5,64.1,85.9,72.7,-1.53,1.54,0.13,0.08,0.0,111.32,111.25,94.64,104.19,174.7,27.6,1.9748670841350313,134.31793816531413,46.45312069963558,-104.42949651920017,-7.202033987623793,1,0
47,2.3,108.8,44.05368219813699,-78.68169822132815,-13.1,80.1,239.1,57.6,6939.0,6939.0,136.2,0.0,1.0,1.0,0.0,1.0,1.0,0.0,0.0,0.0,100.0,1.0,1.186,26.0,0.0,-0.009,48.272,66.0,66.5,26.0,26.0,26.0,26.0,0.89,-1.52,0.08,379.5,-3.52,-1.98,-1.97,-1.35,-710.8,585.35,5.9,0.0,0.0,0.0,0.0,0.07,-7.49,-7.49,-0.74,7.23,-0.17,-2.79,37.78,0.6,-0.67,-14.82,100.0,0.0,0.0,103.37,0.0,0.0,0.0,0.0,0.0,0.0,0.0,5514.0,0.0,30.0,4.0,136.2,0.0,0.0,0.0,0.0,0.0,0.0,1.0,0.0,2.316,2.316,48.272,17.725,0.0,110.0,435.8,8750.0,0.0,0.0,110.0,110.0,433.0,0.0,0.0,0.0,1.0,166.7,55.6,55.6,73.6,73.6,34.0,0.8,102.12,18.3,61.5,4.0,-234.915,-21.5,100.0,27.9,39.1,21.0,26.4,0.0,1.0,0.0,0.0,0.0,0.0,0.0,3165.0,7563.0,3464.0,4405.0,317.3,304.6,347.0,343.6,25.46,22.68,26.53,24.76,325.0,325.0,355.0,355.0,99.99,99.97,99.98,100.0,1.63,1.77,1.33,1.57,-9.0,-3.5,-4.4,-2.6,85.1,67.8,85.6,74.5,89.9,68.7,88.8,76.2,86.4,65.7,87.0,73.8,83.6,64.2,85.9,72.7,-1.27,1.29,0.09,0.07,0.0,105.05,113.43,102.37,104.36,174.7,27.6,1.7632073048850496,127.1159039216296,45.732917300873204,-100.82847924087645,3.6010175628356933,1,0
48,2.35,110.7,44.05366699960185,-78.68169264553418,-46.9,-21.4,111.5,273.7,6940.8,6941.0,134.2,0.0,1.0,1.0,0.0,1.0,1.0,0.0,0.0,0.0,100.0,1.0,1.186,26.0,0.0,-0.006,48.272,66.0,38.0,26.0,26.0,26.0,26.0,1.01,-0.86,0.2,375.2,-3.09,-2.43,-1.21,-0.63,-710.18,583.66,5.9,0.0,0.0,0.0,0.0,0.07,-7.49,-7.49,-0.47,5.16,-0.17,-1.14,37.23,0.58,-0.6,-15.56,100.0,0.0,0.0,103.55,0.0,0.0,0.0,0.0,0.0,0.0,0.0,5524.0,0.0,30.0,4.0,134.2,1.0,0.0,0.0,0.0,0.0,0.0,1.0,0.0,2.364,2.364,48.272,17.725,1.0,110.0,435.8,8750.0,0.0,0.0,110.0,110.0,433.0,0.0,0.0,0.0,1.0,166.7,57.1,57.1,66.0,66.0,34.0,19.4,138.58,42.1,80.1,4.0,-234.96,-18.1,100.0,25.5,38.0,26.6,40.1,0.0,1.0,0.0,0.0,0.0,0.0,0.0,2727.0,7939.0,3755.0,5095.0,317.9,303.3,346.4,342.4,25.46,22.68,26.53,24.76,325.0,325.0,355.0,355.0,99.99,99.97,99.98,100.0,1.37,1.47,1.36,1.52,-2.6,-1.6,-1.3,-1.4,85.1,67.8,85.6,74.5,89.9,68.8,88.7,76.2,86.4,65.8,87.0,73.8,83.6,64.3,85.8,72.7,-1.06,1.09,0.08,0.05,0.0,110.59,113.62,103.17,103.94,174.7,27.6,1.3415289784421356,124.23509024122649,46.81322245591915,-10.803050981435831,36.0101710761667,1,0
49,2.4,112.6,44.05365117154159,-78.68168653014726,-138.5,-33.7,10.0,23.7,6942.7,6943.0,132.8,0.0,1.0,1.0,0.0,1.0,1.0,0.0,0.0,0.0,100.0,1.0,1.186,26.0,0.0,-0.003,48.272,66.0,25.6,26.0,26.0,26.0,26.0,1.05,-0.7,0.02,377.4,-3.68,-2.17,-1.75,-1.28,-709.5,581.9,5.9,0.0,0.0,0.0,0.0,0.07,-7.49,-7.49,-0.18,4.6,-0.37,-8.19,36.87,0.57,-0.5,-14.55,100.0,0.0,0.0,103.18,0.0,0.0,0.0,0.0,0.0,0.0,0.0,5503.0,0.0,30.0,4.0,132.8,0.0,0.0,0.0,0.0,0.0,0.0,1.0,0.0,2.414,2.414,48.272,17.725,0.0,110.0,435.8,8750.0,0.0,0.0,110.0,110.0,433.0,0.0,0.0,0.0,1.0,166.7,64.2,64.2,64.3,64.3,34.0,18.2,99.98,46.8,108.9,4.0,-235.015,-16.0,100.0,18.6,36.3,27.1,41.3,0.0,1.0,0.0,0.0,0.0,0.0,0.0,2942.0,6028.0,3971.0,5891.0,317.9,308.3,345.4,339.6,25.46,22.69,26.53,24.76,325.0,325.0,355.0,355.0,99.99,99.97,99.98,100.0,1.32,1.38,1.41,1.57,-2.6,-1.1,-0.6,-0.8,85.1,67.8,85.6,74.5,89.9,68.8,88.7,76.2,86.4,65.8,86.9,73.9,83.6,64.3,85.8,72.7,-0.95,0.95,0.08,0.06,0.0,110.72,112.59,102.59,103.76,174.7,27.6,1.2621014222319853,126.03559882348601,49.333934408489874,3.601017278323866,36.010170507143116,1,0
50,2.45,114.4,44.05363552334564,-78.68168032482818,-91.1,-310.0,114.8,46.8,6944.5,6945.0,131.8,0.0,1.0,1.0,0.0,1.0,1.0,0.0,0.0,0.0,100.0,1.0,1.186,26.0,0.0,-0.003,48.272,66.0,23.9,26.0,26.0,26.0,26.0,0.7,-0.49,-0.14,385.5,-1.84,-2.18,-1.51,-1.25,-708.81,580.16,6.0,0.0,0.0,0.0,0.0,0.07,-7.49,-7.49,-0.13,-4.08,-0.64,-3.52,36.6,0.53,-0.45,-9.43,100.0,0.0,0.0,101.94,0.0,0.0,0.0,0.0,0.0,0.0,0.0,5438.0,0.0,30.0,4.0,131.8,1.0,0.0,0.0,0.0,0.0,0.0,1.0,0.0,2.466,2.466,48.272,17.725,1.0,110.0,435.8,8750.0,0.0,0.0,110.0,110.0,433.0,0.0,0.0,0.0,1.0,166.7,80.3,80.3,71.6,71.6,34.0,4.8,43.2,15.3,79.0,4.0,-235.065,-13.8,100.0,14.0,20.8,32.8,43.6,0.0,1.0,0.0,0.0,0.0,0.0,0.0,927.0,3309.0,1716.0,4861.0,322.4,316.0,350.0,342.2,25.46,22.68,26.53,24.76,325.0,325.0,355.0,355.0,99.99,99.97,99.98,100.0,1.34,1.27,1.18,1.3,-3.5,-1.6,-0.7,-0.7,85.1,67.8,85.6,74.5,89.8,68.8,88.7,76.2,86.3,65.8,86.9,73.9,83.5,64.3,85.8,72.7,-0.81,0.79,0.08,0.04,0.0,107.52,110.71,101.54,102.35,174.7,27.6,0.8658521813797087,124.59519196905887,50.414239506633464,-28.808137088542765,18.005084969059766,1,0
51,2.5,116.2,44.05362005501402,-78.68167393964478,39.5,45.7,-130.3,-176.5,6946.3,6946.0,130.8,0.0,1.0,1.0,0.0,1.0,1.0,0.0,0.0,0.0,100.0,1.0,1.186,26.0,0.0,0.003,48.272,66.0,24.3,26.0,26.0,26.0,26.0,0.69,-0.54,-0.12,386.9,-2.23,-2.33,-2.0,-1.78,-708.1,578.44,6.0,0.0,0.0,0.0,0.0,0.07,-7.49,-7.49,-0.44,-5.62,-0.87,-2.27,36.31,0.46,-0.54,-10.12,100.0,0.0,0.0,100.88,0.0,0.0,0.0,0.0,0.0,0.0,0.0,5381.0,0.0,30.0,4.0,130.8,0.0,0.0,0.0,0.0,0.0,0.0,1.0,0.0,2.517,2.517,48.272,17.725,0.0,110.0,435.8,8750.0,0.0,0.0,110.0,110.0,433.0,0.0,0.0,0.0,1.0,166.7,72.3,72.3,77.5,77.5,34.0,23.9,83.24,13.2,31.2,4.0,-235.115,-13.7,100.0,16.0,23.1,26.3,34.8,0.0,1.0,0.0,0.0,0.0,0.0,0.0,2995.0,5454.0,1910.0,2401.0,317.5,310.1,350.1,348.4,25.46,22.68,26.53,24.76,325.0,325.0,355.0,355.0,99.99,99.97,99.98,100.0,1.13,1.22,1.04,1.15,-1.4,-1.2,-0.8,-1.1,85.1,67.8,85.6,74.5,89.8,68.8,88.6,76.2,86.3,65.9,86.8,73.9,83.5,64.3,85.7,72.7,-0.79,0.79,0.09,0.07,0.0,109.19,110.47,100.64,101.11,174.7,27.6,0.8843641783790205,123.15478511463174,51.13444290539585,-100.82847895636448,-18.00508553808342,1,0
52,2.55,118.0,44.05360476654672,-78.68166755446138,44.9,55.5,-145.6,-198.8,6948.1,6948.0,129.8,0.0,1.0,1.0,0.0,1.0,1.0,0.0,0.0,0.0,100.0,1.0,1.186,26.0,0.0,0.006,48.272,66.0,26.0,26.0,26.0,26.0,26.0,0.73,-0.62,-0.25,388.9,-3.19,-1.44,-1.37,-1.14,-707.39,576.74,6.0,0.0,0.0,0.0,0.0,0.07,-7.49,-7.49,-0.54,-0.11,-0.87,0.37,36.03,0.52,-0.46,-12.09,100.0,0.0,0.0,100.36,0.0,0.0,0.0,0.0,0.0,0.0,0.0,5353.0,0.0,30.0,4.0,129.8,1.0,0.0,0.0,0.0,0.0,0.0,1.0,0.0,2.568,2.568,48.272,17.725,1.0,110.0,435.8,8750.0,0.0,0.0,110.0,110.0,433.0,0.0,0.0,0.0,1.0,166.7,72.3,72.3,82.8,82.8,34.0,11.6,58.7,23.0,80.5,4.0,-235.165,-13.9,100.0,18.3,25.9,19.0,24.8,0.0,1.0,0.0,0.0,0.0,0.0,0.0,2074.0,4477.0,2613.0,4984.0,319.7,313.1,348.9,342.5,25.46,22.68,26.53,24.76,325.0,325.0,355.0,355.0,99.99,99.97,99.98,100.0,1.11,1.16,1.17,1.39,-2.0,-1.3,-1.2,-1.0,85.1,67.8,85.6,74.5,89.7,68.8,88.5,76.2,86.2,65.9,86.8,73.8,83.4,64.4,85.7,72.7,-0.8,0.79,0.11,0.09,0.0,107.78,109.59,99.8,100.92,174.7,27.6,0.9898484732523458,114.51234407342243,48.61373095282512,-64.81830788019778,5.690236548616667e-07,1,0
53,2.6,119.8,44.05359145658695,-78.6816617988031,0.2,-13.9,69.2,185.1,6949.9,6950.0,128.8,0.0,1.0,1.0,0.0,1.0,1.0,0.0,0.0,0.0,100.0,1.0,1.186,26.0,0.0,0.009,48.272,66.0,26.0,26.0,26.0,26.0,26.0,0.91,-0.61,0.06,383.3,-2.8,-2.52,-1.39,-1.34,-706.75,575.26,6.0,0.0,0.0,0.0,0.0,0.07,-7.49,-7.49,-0.65,-3.3,-0.8,2.46,35.76,0.46,-0.5,-10.36,100.0,0.0,0.0,99.7,0.0,0.0,0.0,0.0,0.0,0.0,0.0,5318.0,0.0,30.0,4.0,128.8,0.0,0.0,0.0,0.0,0.0,0.0,0.0,0.0,2.613,2.613,48.272,17.725,0.0,110.0,435.8,8750.0,0.0,0.0,110.0,110.0,433.0,0.0,0.0,0.0,1.0,333.3,69.3,69.3,77.9,77.9,34.0,28.5,83.98,32.7,88.5,4.0,-235.215,-15.8,100.0,18.3,25.2,22.5,34.1,0.0,1.0,0.0,0.0,0.0,0.0,0.0,3693.0,5521.0,3611.0,5335.0,315.9,310.3,346.2,340.8,25.46,22.68,26.53,24.76,325.0,325.0,355.0,355.0,99.99,99.97,99.98,100.0,1.14,1.24,1.02,1.24,-1.4,-1.3,-0.6,-0.7,85.1,67.8,85.6,74.5,89.7,68.8,88.5,76.2,86.2,65.9,86.7,73.8,83.4,64.4,85.6,72.7,-0.88,0.87,0.09,0.05,0.0,107.9,108.75,99.34,100.06,174.7,27.6,1.0971781988355402,116.67295432661196,51.134442962298216,43.21220506379049,50.414239620438224,1,0
54,2.65,121.6,44.05357562852669,-78.68165478409458,136.5,47.2,-84.3,-5.7,6951.7,6952.0,127.7,0.0,1.0,1.0,0.0,1.0,1.0,0.0,0.0,0.0,100.0,1.0,1.186,26.0,0.0,0.012,48.272,66.0,26.4,26.0,26.0,26.0,26.0,0.79,-0.63,0.03,382.5,-3.1,-1.92,-2.52,-0.5,-705.97,573.5,6.0,0.0,0.0,0.0,0.0,0.07,-7.49,-7.49,-0.75,1.23,-0.54,6.54,35.44,0.44,-0.56,-13.28,100.0,0.0,0.0,98.57,0.0,0.0,0.0,0.0,0.0,0.0,0.0,5258.0,0.0,30.0,4.0,127.7,1.0,0.0,0.0,0.0,0.0,0.0,0.0,0.0,2.667,2.667,48.272,17.725,1.0,110.0,435.8,8750.0,0.0,0.0,110.0,110.0,433.0,0.0,0.0,0.0,1.0,166.7,61.9,61.9,90.6,90.6,34.0,42.0,89.81,6.7,73.6,4.0,-235.265,-20.4,100.0,25.1,27.6,18.2,33.8,0.0,1.0,0.0,0.0,0.0,0.0,0.0,4776.0,5717.0,1340.0,5147.0,312.3,309.1,351.7,342.3,25.46,22.68,26.53,24.76,325.0,325.0,355.0,355.0,99.99,99.97,99.98,100.0,1.18,1.3,1.03,1.2,-1.0,-1.2,-1.4,-0.9,85.1,67.8,85.6,74.5,89.6,68.9,88.4,76.1,86.2,65.9,86.7,73.8,83.4,64.4,85.6,72.7,-1.14,1.13,0.11,0.06,0.0,107.16,108.08,97.72,99.42,174.7,27.6,1.0108906963663282,118.83356457980148,53.655154914868945,-64.81830816470989,3.6010169938118963,1,0
55,2.7,123.3,44.05356177897396,-78.68164839891118,-92.7,19.5,15.8,19.4,6953.4,6953.0,126.7,0.0,1.0,1.0,0.0,1.0,1.0,0.0,0.0,0.0,100.0,1.0,1.186,26.0,0.0,0.018,48.272,66.0,26.0,26.0,26.0,26.0,26.0,0.9,-0.57,-0.02,383.7,-3.26,-2.49,-2.27,-0.25,-705.26,571.96,6.0,0.0,0.0,0.0,0.0,0.07,-7.49,-7.49,-0.63,2.19,-0.25,4.05,35.16,0.45,-0.49,-14.52,100.0,0.0,0.0,98.22,0.0,0.0,0.0,0.0,0.0,0.0,0.0,5239.0,0.0,30.0,4.0,126.7,0.0,0.0,0.0,0.0,0.0,0.0,0.0,0.0,2.716,2.716,48.272,17.725,0.0,110.0,435.8,8750.0,0.0,0.0,110.0,110.0,433.0,0.0,0.0,0.0,1.0,333.3,68.3,68.3,79.5,79.5,34.0,14.4,96.2,21.8,88.3,4.0,-235.315,-25.9,100.0,20.4,28.5,19.0,34.8,0.0,1.0,0.0,0.0,0.0,0.0,0.0,1816.0,5666.0,2809.0,5692.0,320.2,309.4,348.2,340.6,25.46,22.68,26.53,24.76,325.0,325.0,355.0,355.0,99.99,99.97,99.98,100.0,1.55,1.56,1.12,1.32,-2.0,-1.3,-0.8,-0.8,85.1,67.8,85.6,74.5,89.6,68.9,88.4,76.1,86.1,65.9,86.6,73.8,83.3,64.4,85.5,72.7,-1.46,1.45,0.11,0.07,0.0,104.84,107.24,97.53,98.89,174.7,27.6,1.0655045753069294,110.19112351014097,51.494544661679406,-64.81830788019778,0.0,1,0
56,2.75,125.1,44.05354810928555,-78.68164192379561,-150.0,-50.5,161.5,36.1,6955.2,6955.0,125.8,0.0,1.0,1.0,0.0,1.0,1.0,0.0,0.0,0.0,100.0,1.0,1.186,26.0,0.0,0.021,48.272,66.0,23.9,26.0,26.0,26.0,26.0,0.73,-0.45,-0.21,386.8,-2.68,-1.76,-2.21,-0.41,-704.54,570.44,6.0,0.0,0.0,0.0,0.0,0.07,-7.49,-7.49,-0.65,-3.34,-0.22,-0.98,34.91,0.46,-0.47,-13.36,100.0,0.0,0.0,97.27,0.0,0.0,0.0,0.0,0.0,0.0,0.0,5188.0,0.0,30.0,4.0,125.8,1.0,0.0,0.0,0.0,0.0,0.0,0.0,0.0,2.763,2.763,48.272,17.725,1.0,110.0,435.8,8750.0,0.0,0.0,110.0,110.0,433.0,0.0,0.0,0.0,1.0,333.3,78.4,78.4,70.9,70.9,34.0,0.4,59.56,17.8,74.1,4.0,-235.365,-33.3,100.0,12.9,26.0,27.1,36.6,0.0,1.0,0.0,0.0,0.0,0.0,0.0,200.0,3797.0,2077.0,4876.0,324.3,314.2,349.1,342.6,25.46,22.68,26.53,24.76,325.0,325.0,355.0,355.0,99.99,99.97,99.98,100.0,2.09,2.0,1.22,1.35,-6.0,-1.6,-0.7,-0.8,85.1,67.8,85.5,74.5,89.5,68.9,88.3,76.1,86.1,65.9,86.6,73.8,83.3,64.4,85.5,72.7,-1.88,1.84,0.09,0.06,0.0,99.16,105.7,96.65,97.89,174.7,27.6,0.8828929719960398,112.3517337917817,53.655154914868945,39.61118835449085,46.81322205760267,1,0
57,2.8,126.8,44.05353372013985,-78.68163499901925,-70.0,-101.5,-98.1,-30.5,6956.9,6957.0,124.9,1.0,1.0,1.0,0.0,1.0,1.0,0.0,0.0,0.0,100.0,1.0,1.186,26.0,0.0,0.024,48.272,66.0,22.7,26.0,26.0,26.0,26.0,0.83,-0.66,-0.24,389.2,-2.75,-2.43,-2.33,-0.66,-703.77,568.84,6.0,0.0,0.0,0.0,0.0,0.08,-7.49,-7.49,-0.97,-8.27,-0.54,-9.06,34.68,0.46,-0.48,-12.12,100.0,0.0,0.0,96.4,0.0,0.0,0.0,0.0,0.0,0.0,0.0,5142.0,0.0,30.0,4.0,124.9,0.0,0.0,0.0,0.0,0.0,0.0,0.0,0.0,2.814,2.814,48.272,17.725,0.0,110.0,435.8,8750.0,0.0,0.0,110.0,110.0,433.0,0.0,0.0,0.0,1.0,333.3,78.6,78.6,80.4,80.4,34.0,-2.2,65.49,13.8,60.6,4.0,-235.415,-43.3,100.0,9.5,20.9,22.2,35.1,0.0,1.0,0.0,0.0,0.0,0.0,0.0,3014.0,4469.0,1814.0,3896.0,318.5,312.9,350.5,344.1,25.46,22.68,26.53,24.76,325.0,325.0,355.0,355.0,99.99,99.97,99.98,100.0,2.7,2.78,1.25,1.4,-11.5,-1.8,-0.9,-0.7,85.1,67.8,85.5,74.5,89.5,68.9,88.3,76.1,86.1,66.0,86.5,73.8,83.2,64.5,85.4,72.7,-2.46,2.39,0.1,0.07,0.0,96.22,104.65,95.92,96.89,174.7,27.6,1.0872442227944925,114.15224234559005,56.17586686743967,-32.4091540823548,21.606103100919114,1,0
58,2.85,128.5,44.05351960079064,-78.68162789437856,203.7,109.0,-139.9,-180.4,6958.6,6959.0,123.8,0.0,1.0,1.0,0.0,1.0,1.0,0.0,0.0,0.0,100.0,1.0,1.186,26.0,0.0,0.03,48.272,66.0,22.7,26.0,26.0,26.0,26.0,1.1,-0.54,-0.2,388.5,-2.36,-1.88,-2.22,-0.68,-702.98,567.27,6.0,0.0,0.0,0.0,0.0,0.08,-7.49,-7.49,-1.27,-1.75,-0.63,2.57,34.38,0.48,-0.55,-22.22,100.0,0.0,0.0,95.06,0.0,0.0,0.0,0.0,0.0,0.0,0.0,5070.0,0.0,30.0,4.0,123.8,1.0,0.0,0.0,0.0,0.0,0.0,0.0,0.0,2.866,2.866,48.272,17.725,1.0,110.0,435.8,8750.0,0.0,0.0,110.0,110.0,433.0,0.0,0.0,0.0,1.0,333.3,66.3,66.3,88.2,88.2,34.0,34.6,122.62,5.3,36.4,4.0,-235.465,-50.1,100.0,19.6,26.4,15.2,26.0,0.0,1.0,0.0,0.0,0.0,0.0,0.0,2830.0,7028.0,848.0,2567.0,317.8,305.5,353.1,348.1,25.46,22.68,26.53,24.76,325.0,325.0,355.0,355.0,99.99,99.97,99.98,100.0,2.76,2.81,1.53,1.66,-1.8,-1.4,-2.2,-1.1,85.1,67.8,85.5,74.5,89.5,69.0,88.2,76.1,86.0,66.0,86.5,73.8,83.2,64.5,85.3,72.7,-2.89,2.82,0.11,0.07,0.0,102.4,105.06,93.77,96.34,174.7,27.6,1.2416118556135005,109.11081838354622,55.815765224960856,-68.41932487400982,14.404069113295037,1,0
59,2.9,130.2,44.0535064706952,-78.68162105953435,35.8,151.9,39.0,62.5,6960.4,6960.0,122.8,0.0,1.0,1.0,0.0,1.0,1.0,0.0,0.0,0.0,100.0,1.0,1.186,26.0,0.0,0.033,48.272,66.0,19.7,26.0,26.0,26.0,26.0,1.53,-0.54,0.28,380.7,-2.7,-1.01,-2.93,-0.64,-702.22,565.81,6.0,0.0,0.0,0.0,0.0,0.08,-7.49,-7.49,-1.19,4.16,-0.38,9.18,34.09,0.61,-0.5,-29.34,100.0,0.0,0.0,95.28,0.0,0.0,0.0,0.0,0.0,0.0,0.0,5082.0,0.0,30.0,4.0,122.8,0.0,0.0,0.0,0.0,0.0,0.0,0.0,0.0,2.913,2.913,48.272,17.725,0.0,110.0,435.8,8750.0,0.0,0.0,110.0,110.0,433.0,0.0,0.0,0.0,1.0,333.3,60.7,60.7,77.8,77.8,34.0,48.7,133.1,36.2,110.9,4.0,-235.51,-49.9,100.0,21.4,34.0,17.2,29.2,0.0,1.0,0.0,0.0,0.0,0.0,0.0,3706.0,7201.0,2945.0,5796.0,316.0,304.8,347.5,340.1,25.46,22.68,26.53,24.76,325.0,325.0,355.0,355.0,99.99,99.97,99.98,100.0,2.59,2.68,1.91,2.17,-1.5,-1.0,-0.6,-0.7,85.1,67.8,85.5,74.5,89.5,69.1,88.2,76.1,86.0,66.1,86.4,73.8,83.2,64.6,85.3,72.7,-2.93,2.85,0.11,0.08,0.0,102.14,104.98,94.13,96.43,174.7,27.6,1.6464810961562844,107.31030985818907,57.61627377876918,25.207120094731295,72.0203415833096,1,0
60,2.95,131.9,44.05349280100678,-78.68161350523286,-106.6,12.8,-11.1,338.1,6962.0,6962.0,122.0,0.0,1.0,1.0,0.0,1.0,1.0,0.0,0.0,0.0,100.0,1.0,1.186,26.0,0.0,0.033,48.272,66.0,12.5,26.0,26.0,26.0,26.0,1.28,-0.33,-0.05,380.9,-3.06,-1.52,-2.84,0.15,-701.38,564.29,6.0,0.0,0.0,0.0,0.0,0.08,-7.49,-7.49,-0.92,4.94,0.15,1.59,33.86,0.85,-0.42,-30.54,100.0,0.0,0.0,94.53,0.0,0.0,0.0,0.0,0.0,0.0,0.0,5043.0,0.0,30.0,4.0,122.0,1.0,0.0,0.0,0.0,0.0,0.0,0.0,0.0,2.964,2.964,48.272,17.725,1.0,110.0,435.8,8750.0,0.0,0.0,110.0,110.0,433.0,0.0,0.0,0.0,1.0,166.7,69.2,69.2,75.8,75.8,34.0,1.4,104.25,20.2,139.2,4.0,-235.565,-47.8,100.0,16.1,34.6,16.6,46.1,0.0,1.0,0.0,0.0,0.0,0.0,0.0,307.0,5964.0,1849.0,6992.0,324.2,308.2,350.8,336.8,25.46,22.69,26.52,24.76,325.0,325.0,355.0,355.0,99.99,99.97,99.98,100.0,2.95,2.84,2.49,2.61,-3.5,-0.8,-1.3,-0.6,85.1,67.8,85.5,74.5,89.4,69.2,88.1,76.1,86.0,66.2,86.4,73.8,83.2,64.6,85.3,72.7,-2.81,2.75,0.1,0.03,0.0,98.54,104.51,93.19,95.88,174.7,27.6,1.322800060477773,111.63153039301935,63.017799383291816,-39.611188354490565,32.40915351333108,1,0
61,3.0,133.6,44.05347859172541,-78.68160532140625,-106.6,-88.4,227.1,63.9,6963.7,6964.0,121.3,0.0,1.0,1.0,0.0,1.0,1.0,0.0,0.0,0.0,100.0,1.0,1.186,26.0,0.0,0.036,48.272,66.0,3.1,26.0,26.0,26.0,26.0,1.55,-0.27,0.17,378.4,-2.48,-2.15,-2.4,0.17,-700.47,562.71,6.0,0.0,0.0,0.0,0.0,0.08,-7.49,-7.49,-0.87,-1.98,-0.12,-6.52,33.67,0.94,-0.42,-24.93,100.0,0.0,0.0,94.23,0.0,0.0,0.0,0.0,0.0,0.0,0.0,5027.0,0.0,30.0,4.0,121.3,0.0,0.0,0.0,0.0,0.0,0.0,0.0,0.0,3.018,3.018,48.272,17.725,0.0,110.0,435.8,8750.0,0.0,0.0,110.0,110.0,433.0,0.0,0.0,0.0,1.0,166.7,72.6,72.6,59.5,59.5,34.0,4.1,110.78,52.9,119.4,4.0,-235.615,-48.2,100.0,10.8,30.2,28.0,49.3,0.0,1.0,0.0,0.0,0.0,0.0,0.0,635.0,6959.0,3531.0,6235.0,323.3,305.6,346.3,338.8,25.45,22.69,26.52,24.76,325.0,325.0,355.0,355.0,99.99,99.97,99.98,100.0,3.44,3.39,2.57,2.72,-2.6,-0.3,-0.3,-0.4,85.1,67.8,85.5,74.5,89.4,69.2,88.1,76.2,85.9,66.2,86.4,73.9,83.1,64.7,85.2,72.8,-2.82,2.73,0.08,0.04,0.0,99.66,103.94,93.2,95.26,174.7,27.6,1.5824980252752294,103.34919102274002,60.857189130102284,-129.63661632941964,-21.606102531895317,1,0
62,3.05,135.3,44.05346699047669,-78.68159830669772,55.3,-29.3,-96.1,-202.2,6965.4,6965.0,120.9,0.0,1.0,1.0,0.0,1.0,1.0,0.0,0.0,0.0,100.0,1.0,1.186,26.0,0.0,0.039,48.272,66.0,0.4,26.0,26.0,26.0,26.0,1.27,-0.16,-0.25,384.8,-3.45,-2.13,-1.83,-0.43,-699.69,561.42,6.0,0.0,0.0,0.0,0.0,0.08,-7.49,-7.49,-0.97,-0.99,-0.4,-4.61,33.56,1.04,-0.41,-26.9,100.0,0.0,0.0,94.03,0.0,0.0,0.0,0.0,0.0,0.0,0.0,5015.0,0.0,30.0,4.0,120.9,1.0,0.0,0.0,0.0,0.0,0.0,0.0,0.0,3.063,3.063,48.272,17.725,1.0,110.0,435.8,8750.0,0.0,0.0,110.0,110.0,433.0,0.0,0.0,0.0,1.0,333.3,73.1,73.1,74.6,74.6,34.0,16.9,67.84,22.0,71.8,4.0,-235.665,-50.6,100.0,13.5,28.7,23.2,39.2,0.0,1.0,0.0,0.0,0.0,0.0,0.0,1709.0,4974.0,1789.0,4329.0,320.7,311.2,350.6,344.0,25.45,22.69,26.52,24.76,325.0,325.0,355.0,355.0,99.99,99.97,99.98,100.0,3.61,3.55,2.87,2.89,-0.1,-0.2,-0.2,-0.5,85.1,67.8,85.5,74.5,89.3,69.3,88.1,76.2,85.9,66.3,86.3,73.9,83.1,64.8,85.2,72.8,-2.95,2.86,0.1,0.05,0.0,101.56,103.74,93.02,95.03,174.7,27.6,1.3042239071570494,98.66786876007738,60.857189130102284,0.0,57.61627360806216,1,0
63,3.1,137.0,44.05345395031341,-78.68159012287111,25.1,-38.8,-55.5,44.9,6967.1,6967.0,120.5,0.0,1.0,1.0,0.0,1.0,1.0,0.0,0.0,0.0,100.0,1.0,1.186,26.0,0.0,0.039,48.272,66.0,0.0,26.0,26.0,26.0,26.0,1.39,-0.14,-0.08,384.0,-3.82,-1.65,-1.74,-1.0,-698.78,559.97,6.0,0.0,0.0,0.0,0.0,0.08,-7.49,-7.49,-1.02,-1.38,-0.37,2.71,33.45,1.12,-0.4,-26.73,100.0,0.0,0.0,93.7,0.0,0.0,0.0,0.0,0.0,0.0,0.0,4998.0,0.0,30.0,4.0,120.5,0.0,0.0,0.0,0.0,0.0,0.0,1.0,0.0,3.114,3.114,48.272,17.725,0.0,110.0,435.8,8750.0,0.0,0.0,110.0,110.0,433.0,0.0,0.0,0.0,1.0,333.3,72.5,72.5,80.3,80.3,34.0,19.0,67.8,13.5,104.7,4.0,-235.715,-54.5,100.0,14.8,26.8,20.4,41.4,0.0,1.0,0.0,0.0,0.0,0.0,0.0,2028.0,5491.0,1278.0,5830.0,320.0,310.5,352.1,339.9,25.45,22.69,26.52,24.76,325.0,325.0,355.0,355.0,99.99,99.97,99.98,100.0,3.89,3.85,2.89,2.99,-0.1,-0.1,-0.2,-0.5,85.1,67.8,85.5,74.5,89.3,69.4,88.0,76.3,85.9,66.4,86.3,73.9,83.1,64.8,85.1,72.8,-3.17,3.08,0.1,0.05,0.0,101.25,103.4,92.72,94.67,174.7,27.6,1.3993212640419639,103.34919102274002,66.6188164909085,-3.601016709300069,57.61627417708581,1,0
64,3.15,138.6,44.0534411799466,-78.68158166924802,-57.2,64.7,-11.0,11.2,6968.8,6969.0,120.1,0.0,1.0,1.0,0.0,1.0,1.0,0.0,0.0,0.0,100.0,1.0,1.186,26.0,0.0,0.036,48.272,66.0,0.0,26.0,26.0,26.0,26.0,1.48,-0.16,-0.05,383.0,-3.24,-1.63,-2.97,0.67,-697.84,558.55,5.9,0.0,0.0,0.0,0.0,0.08,-7.49,-7.49,-1.07,-1.34,-0.18,-0.7,33.33,1.16,-0.43,-26.53,100.0,0.0,0.0,93.39,0.0,0.0,0.0,0.0,0.0,0.0,0.0,4981.0,0.0,30.0,4.0,120.1,1.0,0.0,0.0,0.0,0.0,0.0,1.0,0.0,3.164,3.164,48.272,17.725,1.0,110.0,435.8,8750.0,0.0,0.0,110.0,110.0,433.0,0.0,0.0,0.0,1.0,166.7,72.2,72.2,71.7,71.7,34.0,1.4,83.07,21.7,111.0,4.0,-235.765,-58.9,100.0,11.9,30.0,19.8,42.0,0.0,1.0,0.0,0.0,0.0,0.0,0.0,306.0,7168.0,1834.0,6161.0,324.2,305.4,350.5,339.1,25.45,22.69,26.52,24.76,325.0,325.0,355.0,355.0,99.99,99.97,99.98,100.0,4.32,4.18,2.97,3.08,0.1,-0.2,-0.2,-0.4,85.1,67.8,85.5,74.5,89.3,69.5,88.0,76.3,85.8,66.5,86.2,74.0,83.0,64.9,85.1,72.9,-3.44,3.31,0.1,0.04,0.0,100.95,102.97,92.43,94.34,174.7,27.6,1.489462990476769,98.30776708914738,66.61881654781087,-68.41932515852179,18.005086107106933,1,0
65,3.2,140.3,44.053429398833565,-78.6815734854214,32.8,83.1,25.9,-25.0,6970.4,6970.0,119.7,0.0,1.0,1.0,0.0,1.0,1.0,0.0,0.0,0.0,100.0,1.0,1.186,26.0,0.0,0.036,48.272,66.0,0.0,26.0,26.0,26.0,26.0,1.81,-0.2,0.23,379.2,-4.24,-1.93,-2.36,-0.26,-696.93,557.24,5.9,0.0,0.0,0.0,0.0,0.08,-7.49,-7.49,-1.09,0.91,-0.27,-1.94,33.21,1.16,-0.47,-28.7,100.0,0.0,0.0,93.12,0.0,0.0,0.0,0.0,0.0,0.0,0.0,4967.0,0.0,30.0,4.0,119.7,0.0,0.0,0.0,0.0,0.0,0.0,1.0,0.0,3.213,3.213,48.272,17.725,0.0,110.0,435.8,8750.0,0.0,0.0,110.0,110.0,433.0,0.0,0.0,0.0,1.0,333.3,66.3,66.3,68.5,68.5,34.0,16.4,82.01,30.8,123.1,4.0,-235.815,-61.0,100.0,13.6,34.2,21.1,40.7,0.0,1.0,0.0,0.0,0.0,0.0,0.0,2066.0,7687.0,2338.0,6855.0,319.6,303.8,348.9,337.5,25.45,22.69,26.52,24.76,325.0,325.0,355.0,355.0,99.99,99.97,99.98,100.0,4.38,4.33,3.15,3.22,-0.0,-0.3,-0.2,-0.4,85.1,67.8,85.5,74.5,89.2,69.6,88.0,76.4,85.8,66.6,86.2,74.0,83.0,65.1,85.1,72.9,-3.58,3.47,0.1,0.05,0.0,100.45,102.76,92.03,94.21,174.7,27.6,1.8354835875049387,96.50725850688784,68.4193251016192,-7.20203455664759,61.2172900328504,1,0
66,3.25,142.0,44.053417078127566,-78.6815645821375,12.5,-123.8,-49.5,13.6,6972.1,6972.0,119.3,0.0,1.0,1.0,0.0,1.0,1.0,0.0,0.0,0.0,100.0,1.0,1.186,26.0,0.0,0.036,48.272,66.0,0.0,26.0,26.0,26.0,26.0,1.53,-0.17,-0.14,383.4,-3.27,-2.68,-3.21,-0.73,-695.94,555.87,5.9,0.0,0.0,0.0,0.0,0.08,-7.49,-7.49,-1.01,1.32,-0.43,-3.08,33.09,1.27,-0.39,-28.42,100.0,0.0,0.0,92.81,0.0,0.0,0.0,0.0,0.0,0.0,0.0,4950.0,0.0,30.0,4.0,119.3,1.0,0.0,0.0,0.0,0.0,0.0,1.0,0.0,3.264,3.264,48.272,17.725,1.0,110.0,435.8,8750.0,0.0,0.0,110.0,110.0,433.0,0.0,0.0,0.0,1.0,333.3,73.7,73.7,75.0,75.0,34.0,5.9,45.46,45.5,101.4,4.0,-235.865,-58.8,100.0,14.2,28.0,18.7,41.4,0.0,1.0,0.0,0.0,0.0,0.0,0.0,1012.0,5413.0,3406.0,6317.0,322.4,310.6,347.1,339.1,25.45,22.69,26.52,24.76,325.0,325.0,355.0,355.0,99.99,99.97,99.98,100.0,4.54,4.41,3.31,3.46,-0.0,-0.2,-0.2,-0.5,85.1,67.8,85.5,74.5,89.2,69.7,87.9,76.4,85.8,66.7,86.2,74.1,82.9,65.2,85.0,73.0,-3.49,3.38,0.1,0.05,0.0,100.07,102.32,91.76,93.85,174.7,27.6,1.5457684173251827,97.58756363348262,72.7405455510959,-7.2020339876236505,61.2172900328504,1,0
