,Time,Distance,GPS Latitude,GPS Longitude,Damper Velocity (Calc) FL,Damper Velocity (Calc) FR,Damper Velocity (Calc) RL,Damper Velocity (Calc) RR,Corr Dist,Corr Dist (Unstretched),Corr Speed,ABS Active,ABS Enabled,AID Allow Tire Blankets,AID Auto Blip,AID Auto Clutch,AID Auto Shift,AID Fuel Rate,AID Ideal Line,AID Mech Damage,AID Stability,AID Tire Wear Rate,Air Density,Air Temp,Ballast,Best Lap Delta,Best Lap Time,Brake Bias,Brake Pos,Brake Temp FL,Brake Temp FR,Brake Temp RL,Brake Temp RR,CG Accel Lateral,CG Accel Longitudinal,CG Accel Vertical,CG Height,Camber FL,Camber FR,Camber RL,Camber RR,Car Coord X,Car Coord Y,Car Coord Z,Car Damage Front,Car Damage Left,Car Damage Rear,Car Damage Right,Car Pos Norm,Caster FL,Caster FR,Chassis Pitch Angle,Chassis Pitch Rate,Chassis Roll Angle,Chassis Roll Rate,Chassis Velocity X,Chassis Velocity Y,Chassis Velocity Z,Chassis Yaw Rate,Clutch Pos,DRS Active,DRS Available,Drive Train Speed,ERS Heat Charging,ERS Is Charging,ERS Max Energy,ERS Power Level,ERS Recovery Level,Engine Brake Setting,Engine Limiter,Engine RPM,Flags,Fuel Level,Gear,Ground Speed,HR Sample Clock,In Pit,KERS Charge,KERS Deployed Energy,KERS Input,KERS Max Energy,LR Sample Clock,Lap Invalidated,Lap Time,Lap Time2,Last Lap Time,Last Sector Time,MR Sample Clock,Max Fuel,Max Power,Max RPM,Max Sus Travel FL,Max Sus Travel FR,Max Sus Travel RL,Max Sus Travel RR,Max Torque,Max Turbo Boost,Num Tires Off Track,Penalties Enabled,Position,Raw Data Sample Rate,Ride Height FL,Ride Height FR,Ride Height RL,Ride Height RR,Road Temp,Self Align Torque FL,Self Align Torque FR,Self Align Torque RL,Self Align Torque RR,Session Lap Count,Session Time Left,Steering Angle,Surface Grip,Suspension Travel FL,Suspension Travel FR,Suspension Travel RL,Suspension Travel RR,TC Active,TC Enabled,Throttle Pos,Tire Dirt Level FL,Tire Dirt Level FR,Tire Dirt Level RL,Tire Dirt Level RR,Tire Load FL,Tire Load FR,Tire Load RL,Tire Load RR,Tire Loaded Radius FL,Tire Loaded Radius FR,Tire Loaded Radius RL,Tire Loaded Radius RR,Tire Pressure FL,Tire Pressure FR,Tire Pressure RL,Tire Pressure RR,Tire Radius FL,Tire Radius FR,Tire Radius RL,Tire Radius RR,Tire Rubber Grip FL,Tire Rubber Grip FR,Tire Rubber Grip RL,Tire Rubber Grip RR,Tire Slip Angle FL,Tire Slip Angle FR,Tire Slip Angle RL,Tire Slip Angle RR,Tire Slip Ratio FL,Tire Slip Ratio FR,Tire Slip Ratio RL,Tire Slip Ratio RR,Tire Temp Core FL,Tire Temp Core FR,Tire Temp Core RL,Tire Temp Core RR,Tire Temp Inner FL,Tire Temp Inner FR,Tire Temp Inner RL,Tire Temp Inner RR,Tire Temp Middle FL,Tire Temp Middle FR,Tire Temp Middle RL,Tire Temp Middle RR,Tire Temp Outer FL,Tire Temp Outer FR,Tire Temp Outer RL,Tire Temp Outer RR,Toe In FL,Toe In FR,Toe In RL,Toe In RR,Turbo Boost,Wheel Angular Speed FL,Wheel Angular Speed FR,Wheel Angular Speed RL,Wheel Angular Speed RR,Wind Direction,Wind Speed,CG Distance,Lateral Velocity,Longitudinal Velocity,Lateral Acceleration,Longitudinal Acceleration,level,curve_number
75,3.7,156.8,44.05328973418817,-78.6815038779291,41.1,64.7,-1.2,50.2,1728.1,1728.0,100.5,0.0,1.0,1.0,0.0,1.0,1.0,0.0,0.0,0.0,100.0,1.0,1.186,26.0,0.0,-19.227,74.678,66.0,0.0,26.0,26.0,26.0,26.0,1.45,-0.4,0.08,385.7,-0.49,-1.54,-2.4,-0.38,-689.19,541.71,6.0,0.0,0.0,0.0,0.0,0.09,-7.49,-7.49,-0.77,1.66,-0.5,-3.31,27.88,0.86,-0.4,-21.48,100.0,0.0,0.0,78.21,0.0,0.0,0.0,0.0,0.0,0.0,0.0,5243.0,0.0,30.0,3.0,100.5,0.0,0.0,0.0,0.0,0.0,0.0,1.0,0.0,3.731,3.731,74.679,19.926,0.0,110.0,435.8,8750.0,0.0,0.0,110.0,110.0,433.0,0.0,0.0,0.0,1.0,333.3,69.8,69.8,75.3,75.3,34.0,-0.66,-27.56,23.4,85.7,1.0,-80.99,-294.3,100.0,15.4,29.6,13.9,36.1,0.0,1.0,0.0,0.0,0.0,0.0,0.0,404.0,8504.0,1884.0,4985.0,323.5,302.2,350.2,341.9,24.58,23.02,25.31,24.54,325.0,325.0,355.0,355.0,99.69,99.62,99.67,99.64,19.42,17.18,2.79,2.95,-0.9,-1.4,-0.2,-0.6,79.6,69.9,77.9,73.1,84.6,75.4,80.5,75.1,81.7,72.9,79.0,73.4,79.7,71.4,78.3,72.5,-18.67,16.13,0.11,0.06,0.0,79.27,81.75,77.47,78.95,356.7,7.7,1.5062868252759831,77.7819695415909,61.93749428514823,-43.212205063790634,28.80813708854255,0,1
76,3.75,158.2,44.053280471175626,-78.68149632362761,-51.7,29.6,52.6,-30.2,1729.5,1729.0,99.8,0.0,1.0,1.0,0.0,1.0,1.0,0.0,0.0,0.0,100.0,1.0,1.186,26.0,0.0,-19.314,74.678,66.0,0.0,26.0,26.0,26.0,26.0,1.26,-0.29,-0.11,387.9,-0.58,-3.06,-1.71,-0.78,-688.35,540.68,6.0,0.0,0.0,0.0,0.0,0.09,-7.49,-7.49,-0.66,2.41,-0.81,-9.03,27.71,0.74,-0.33,-20.83,100.0,0.0,0.0,77.75,0.0,0.0,0.0,0.0,0.0,0.0,0.0,5212.0,0.0,30.0,3.0,99.8,1.0,0.0,0.0,0.0,0.0,0.0,1.0,0.0,3.78,3.78,74.679,19.926,1.0,110.0,435.8,8750.0,0.0,0.0,110.0,110.0,433.0,0.0,0.0,0.0,1.0,333.3,74.4,74.4,73.5,73.5,34.0,-1.01,-15.3,29.4,74.8,1.0,-81.04,-300.8,100.0,12.8,31.1,16.5,34.6,0.0,1.0,0.0,0.0,0.0,0.0,0.0,681.0,5141.0,2184.0,4332.0,323.5,310.3,349.4,343.3,24.58,23.03,25.31,24.54,325.0,325.0,355.0,355.0,99.69,99.62,99.67,99.64,19.67,17.2,2.62,2.75,-0.2,-1.1,-0.2,-0.5,79.6,69.9,77.9,73.1,84.6,75.8,80.5,75.1,81.7,73.2,79.0,73.4,79.7,71.7,78.2,72.5,-19.12,16.43,0.1,0.07,0.0,79.18,81.32,77.04,78.46,356.7,7.7,1.2976131935210893,75.62135928840138,63.37790113957538,-18.00508553808328,50.414239620438224,0,1
77,3.8,159.6,44.053270848434444,-78.68148804986883,45.1,-86.1,128.7,66.3,1730.8,1731.0,99.2,0.0,1.0,1.0,0.0,1.0,1.0,0.0,0.0,0.0,100.0,1.0,1.186,26.0,0.0,-19.314,74.678,66.0,0.0,26.0,26.0,26.0,26.0,1.39,-0.35,0.11,383.9,0.34,-3.87,-1.56,0.34,-687.43,539.61,6.0,0.0,0.0,0.0,0.0,0.09,-7.49,-7.49,-0.64,-0.49,-0.96,0.79,27.53,0.53,-0.34,-19.89,100.0,0.0,0.0,77.21,0.0,0.0,0.0,0.0,0.0,0.0,0.0,5176.0,0.0,30.0,3.0,99.2,0.0,0.0,0.0,0.0,0.0,0.0,1.0,0.0,3.831,3.831,74.679,19.926,0.0,110.0,435.8,8750.0,0.0,0.0,110.0,110.0,433.0,0.0,0.0,0.0,1.0,166.7,73.8,73.8,73.0,73.0,34.0,-2.76,-16.54,18.1,147.8,1.0,-81.09,-312.2,100.0,15.1,26.7,23.0,37.9,0.0,1.0,0.0,0.0,0.0,0.0,0.0,1382.0,5488.0,1517.0,7379.0,321.3,309.5,350.9,336.1,24.58,23.03,25.31,24.54,325.0,325.0,355.0,355.0,99.69,99.62,99.67,99.64,19.93,17.36,2.07,2.24,-0.2,-1.2,-0.2,-0.3,79.6,69.9,77.9,73.1,84.7,76.1,80.5,75.2,81.8,73.5,78.9,73.4,79.8,72.0,78.2,72.5,-19.87,17.07,0.09,0.05,0.0,78.55,80.65,76.48,77.94,356.7,7.7,1.4376021702821682,75.98146098778257,66.97891824719206,-18.00508553808342,46.81322205760246,0,1
78,3.85,161.0,44.05326149548974,-78.68147959624574,48.2,-24.9,-126.9,69.2,1732.2,1732.0,98.5,0.0,1.0,1.0,0.0,1.0,1.0,0.0,0.0,0.0,100.0,1.0,1.186,26.0,0.0,-19.395,74.678,66.0,0.0,26.0,26.0,26.0,26.0,1.34,-0.43,-0.11,385.3,0.54,-3.33,-2.22,-0.48,-686.49,538.57,6.0,0.0,0.0,0.0,0.0,0.1,-7.49,-7.49,-0.73,-0.98,-1.01,-1.55,27.34,0.4,-0.37,-23.29,100.0,0.0,0.0,76.67,0.0,0.0,0.0,0.0,0.0,0.0,0.0,5140.0,0.0,30.0,3.0,98.5,1.0,0.0,0.0,0.0,0.0,0.0,1.0,0.0,3.881,3.881,74.679,19.926,1.0,110.0,435.8,8750.0,0.0,0.0,110.0,110.0,433.0,0.0,0.0,0.0,1.0,166.7,70.8,70.8,85.2,85.2,34.0,-8.33,-15.56,14.6,75.8,1.0,-81.14,-320.0,100.0,17.5,25.5,16.6,41.3,0.0,1.0,0.0,0.0,0.0,0.0,0.0,3271.0,5306.0,1427.0,4258.0,316.0,310.6,351.6,343.4,24.58,23.03,25.31,24.54,325.0,325.0,355.0,355.0,99.69,99.63,99.67,99.64,20.1,17.54,1.93,2.04,-0.5,-1.3,-0.2,-0.5,79.6,69.9,77.9,73.1,84.9,76.5,80.4,75.2,81.9,73.8,78.9,73.4,79.9,72.3,78.2,72.5,-20.5,17.56,0.11,0.05,0.0,77.58,80.08,75.94,77.41,356.7,7.7,1.4115948427222311,73.82085073459304,68.05922334533562,-43.212205063790634,25.207119525707213,0,1
79,3.9,162.3,44.05325241234152,-78.68147105269048,-9.4,12.9,3.8,-67.3,1733.6,1734.0,97.9,0.0,1.0,1.0,0.0,1.0,1.0,0.0,0.0,0.0,100.0,1.0,1.186,26.0,0.0,-19.482,74.678,66.0,0.0,26.0,26.0,26.0,26.0,1.36,-0.29,0.08,385.6,0.55,-3.15,-1.67,-1.12,-685.54,537.56,6.0,0.0,0.0,0.0,0.0,0.1,-7.49,-7.49,-0.77,-0.23,-0.97,1.07,27.18,0.36,-0.37,-26.2,100.0,0.0,0.0,77.34,0.0,0.0,0.0,0.0,0.0,0.0,0.0,5185.0,0.0,30.0,3.0,97.9,0.0,0.0,0.0,0.0,0.0,0.0,1.0,0.0,3.933,3.933,74.679,19.926,0.0,110.0,435.8,8750.0,0.0,0.0,110.0,110.0,433.0,0.0,0.0,0.0,1.0,166.7,71.3,71.3,81.1,81.1,34.0,-5.65,-18.16,16.5,92.9,1.0,-81.19,-320.0,100.0,17.0,26.1,16.8,38.0,0.0,1.0,13.9,0.0,0.0,0.0,0.0,2496.0,5971.0,1574.0,4870.0,318.8,308.6,350.8,341.7,24.58,23.03,25.31,24.54,325.0,325.0,355.0,355.0,99.69,99.63,99.67,99.64,19.9,17.27,1.97,2.11,-0.6,-1.4,1.8,-0.1,79.6,69.9,77.9,73.1,84.9,76.8,80.4,75.2,82.0,74.2,78.9,73.4,80.0,72.6,78.1,72.5,-20.53,17.57,0.11,0.05,0.0,77.01,79.85,77.19,77.49,356.7,7.7,1.392874725163753,71.6602404814035,69.49963019976278,-57.61627389257413,10.803051550459628,0,1
80,3.95,163.7,44.05324359898978,-78.68146223933874,38.7,83.9,8.4,-12.4,1734.9,1735.0,97.6,0.0,1.0,1.0,0.0,1.0,1.0,0.0,0.0,0.0,100.0,1.0,1.186,26.0,0.0,-19.482,74.678,66.0,0.0,26.0,26.0,26.0,26.0,1.36,0.08,0.12,383.1,0.34,-3.11,-1.78,-0.75,-684.56,536.58,6.0,0.0,0.0,0.0,0.0,0.1,-7.49,-7.49,-0.7,3.84,-0.84,3.49,27.1,0.35,-0.39,-30.4,100.0,0.0,0.0,78.44,0.0,0.0,0.0,0.0,0.0,0.0,0.0,5259.0,0.0,30.0,3.0,97.6,1.0,0.0,0.0,0.0,0.0,0.0,1.0,0.0,3.984,3.984,74.679,19.926,1.0,110.0,435.8,8750.0,0.0,0.0,110.0,110.0,433.0,0.0,0.0,0.0,1.0,166.7,68.9,68.9,74.3,74.3,34.0,-4.36,-18.37,26.7,97.1,1.0,-81.24,-320.0,100.0,18.9,30.3,17.2,37.3,0.0,1.0,45.2,0.0,0.0,0.0,0.0,1951.0,5992.0,3252.0,5286.0,319.6,308.4,346.3,341.2,24.58,23.03,25.31,24.54,325.0,325.0,355.0,355.0,99.69,99.63,99.67,99.64,19.55,16.94,2.07,2.23,-1.0,-1.6,4.6,1.1,79.6,70.0,77.9,73.1,85.1,77.2,80.4,75.2,82.2,74.5,78.8,73.4,80.1,72.9,78.1,72.6,-20.51,17.53,0.11,0.04,0.0,76.61,79.94,78.44,78.44,356.7,7.7,1.3676256797823008,68.05922334533562,69.13952850038159,-68.41932544303347,-14.404068544271524,0,1
81,4.0,165.0,44.05323541516317,-78.68145378571565,-89.9,-225.5,-31.6,43.2,1736.3,1736.0,97.8,0.0,1.0,1.0,0.0,1.0,1.0,0.0,0.0,0.0,100.0,1.0,1.186,26.0,0.0,-19.569,74.678,66.0,0.0,26.0,26.0,26.0,26.0,1.05,0.35,-0.14,389.8,-0.42,-3.43,-2.2,-0.36,-683.62,535.67,6.0,0.0,0.0,0.0,0.0,0.1,-7.49,-7.49,-0.57,1.86,-0.75,-0.84,27.17,0.52,-0.27,-29.81,100.0,0.0,0.0,79.6,0.0,0.0,0.0,0.0,0.0,0.0,0.0,5336.0,0.0,30.0,3.0,97.8,0.0,0.0,0.0,0.0,0.0,0.0,1.0,0.0,4.031,4.031,74.679,19.926,0.0,110.0,435.8,8750.0,0.0,0.0,110.0,110.0,433.0,0.0,0.0,0.0,1.0,333.3,82.6,82.6,84.8,84.8,34.0,-1.27,-8.05,11.9,104.7,1.0,-81.29,-320.0,100.0,14.5,19.1,15.7,39.5,0.0,1.0,71.1,0.0,0.0,0.0,0.0,786.0,3141.0,2315.0,6334.0,323.1,316.5,349.3,338.2,24.58,23.03,25.31,24.54,325.0,325.0,355.0,355.0,99.69,99.63,99.67,99.64,20.06,17.36,2.49,2.59,-0.9,-1.2,6.0,2.6,79.6,70.0,77.9,73.1,85.1,77.5,80.4,75.2,82.2,74.7,78.8,73.4,80.2,73.1,78.1,72.6,-20.58,17.66,0.11,0.04,0.0,76.55,80.02,79.6,79.6,356.7,7.7,1.1156164215356459,64.81830793710016,68.05922334533562,-25.20711952570707,28.808136519519252,0,1
82,4.05,166.4,44.05322741120088,-78.6814452421604,-104.4,-130.9,59.4,131.7,1737.6,1738.0,98.4,0.0,1.0,1.0,0.0,1.0,1.0,0.0,0.0,0.0,100.0,1.0,1.186,26.0,0.0,-19.647,74.678,66.0,0.0,26.0,26.0,26.0,26.0,1.06,0.45,-0.03,389.8,1.48,-2.67,-2.79,-0.33,-682.67,534.78,6.0,0.0,0.0,0.0,0.0,0.1,-7.49,-7.49,-0.67,-5.2,-0.69,-0.28,27.33,0.62,-0.25,-23.3,100.0,0.0,0.0,79.18,0.0,0.0,0.0,0.0,0.0,0.0,0.0,5308.0,0.0,30.0,3.0,98.4,1.0,0.0,0.0,0.0,0.0,0.0,1.0,0.0,4.08,4.08,74.679,19.926,1.0,110.0,435.8,8750.0,0.0,0.0,110.0,110.0,433.0,0.0,0.0,0.0,1.0,333.3,89.8,89.8,77.9,77.9,34.0,0.0,-8.96,28.4,114.7,1.0,-81.34,-320.0,100.0,9.2,12.5,18.6,46.1,0.0,1.0,90.6,0.0,0.0,0.0,0.0,0.0,3454.0,3751.0,6522.0,325.0,315.8,345.6,337.6,24.58,23.04,25.31,24.54,325.0,325.0,355.0,355.0,99.69,99.63,99.67,99.64,0.0,18.05,2.35,2.58,0.0,-1.0,4.9,2.2,79.6,70.0,77.9,73.1,85.1,77.6,80.3,75.2,82.2,74.9,78.8,73.5,80.2,73.3,78.1,72.6,-20.65,17.73,0.11,0.04,0.0,76.55,79.88,79.18,79.18,356.7,7.7,1.1519548602267367,65.53851139276492,72.02034215233351,18.005085822595248,79.22237613995748,0,1
83,4.1,167.8,44.05321904750994,-78.68143579928353,8.5,68.6,6.4,-235.7,1739.0,1739.0,98.8,0.0,1.0,1.0,0.0,1.0,1.0,0.0,0.0,0.0,100.0,1.0,1.186,26.0,0.0,-19.647,74.678,66.0,0.0,26.0,26.0,26.0,26.0,1.02,0.26,-0.18,392.4,0.14,-3.28,-2.16,-0.86,-681.62,533.85,6.0,0.0,0.0,0.0,0.0,0.1,-7.49,-7.49,-1.02,-5.65,-0.71,0.51,27.44,0.69,-0.31,-25.07,100.0,0.0,0.0,82.24,0.0,0.0,0.0,0.0,0.0,0.0,0.0,5513.0,0.0,30.0,3.0,98.8,0.0,0.0,0.0,0.0,0.0,0.0,0.0,0.0,4.131,4.131,74.679,19.926,0.0,110.0,435.8,8750.0,0.0,0.0,110.0,110.0,433.0,0.0,0.0,0.0,1.0,333.3,83.3,83.3,80.3,80.3,34.0,-2.97,-13.62,5.0,31.8,1.0,-81.39,-320.0,100.0,9.7,16.0,18.9,34.3,0.0,1.0,100.0,0.0,0.0,0.0,0.0,1511.0,4781.0,2019.0,3683.0,321.2,312.0,349.6,345.5,24.58,23.04,25.31,24.54,325.0,325.0,355.0,355.0,99.69,99.63,99.67,99.64,20.74,18.12,2.58,2.64,-1.4,-1.6,8.0,5.0,79.6,70.0,77.9,73.1,85.1,77.9,80.3,75.3,82.2,75.1,78.8,73.5,80.2,73.5,78.1,72.7,-20.64,17.69,0.1,0.07,0.0,76.61,79.76,82.24,82.24,356.7,7.7,1.0678951259369995,66.61881651935968,75.98146095933137,-21.606102816407216,28.808137088542765,0,1
84,4.15,169.2,44.05321077375117,-78.68142626647452,61.5,34.1,-79.9,-111.3,1740.4,1740.0,99.2,0.0,1.0,1.0,0.0,1.0,1.0,0.0,0.0,0.0,100.0,1.0,1.186,26.0,0.0,-19.734,74.678,66.0,0.0,26.0,26.0,26.0,26.0,0.79,0.3,-0.29,395.1,0.33,-4.24,-1.86,-0.11,-680.56,532.93,6.0,0.0,0.0,0.0,0.0,0.1,-7.49,-7.49,-1.2,-2.11,-0.44,4.92,27.56,0.9,-0.29,-30.91,100.0,0.0,0.0,82.66,0.0,0.0,0.0,0.0,0.0,0.0,0.0,5541.0,0.0,30.0,3.0,99.2,1.0,0.0,0.0,0.0,0.0,0.0,0.0,0.0,4.181,4.181,74.679,19.926,1.0,110.0,435.8,8750.0,0.0,0.0,110.0,110.0,433.0,0.0,0.0,0.0,1.0,333.3,84.3,84.3,92.2,92.2,34.0,-1.6,-6.22,-0.0,49.1,1.0,-81.44,-320.0,100.0,12.7,17.7,14.9,28.7,1.0,1.0,100.0,0.0,0.0,0.0,0.0,912.0,2541.0,216.0,5714.0,322.6,317.8,354.9,340.3,24.58,23.04,25.31,24.54,325.0,325.0,355.0,355.0,99.69,99.63,99.67,99.64,20.76,18.04,3.23,3.29,-1.3,-1.7,11.2,5.2,79.6,70.0,77.9,73.1,85.2,78.2,80.3,75.3,82.3,75.4,78.8,73.5,80.3,73.7,78.0,72.7,-20.58,17.68,0.11,0.07,0.0,76.85,80.48,85.55,79.77,356.7,7.7,0.893420393767682,63.377901111124196,74.90115586118779,-50.41423962043815,3.6010175628356933,0,1
85,4.2,170.5,44.05320321944968,-78.68141709339413,67.8,35.8,-63.0,151.6,1741.8,1742.0,99.2,0.0,1.0,1.0,0.0,1.0,1.0,0.0,0.0,0.0,100.0,1.0,1.186,26.0,0.0,-19.809,74.678,66.0,0.0,26.0,26.0,26.0,26.0,1.38,0.09,0.13,388.2,-0.78,-3.75,-2.63,-2.33,-679.54,532.09,6.0,0.0,0.0,0.0,0.0,0.1,-7.49,-7.49,-1.34,-2.07,-0.11,8.01,27.54,1.0,-0.31,-31.43,100.0,0.0,0.0,82.77,0.0,0.0,0.0,0.0,0.0,0.0,0.0,5548.0,0.0,30.0,3.0,99.2,0.0,0.0,0.0,0.0,0.0,0.0,0.0,0.0,4.23,4.23,74.679,19.926,0.0,110.0,435.8,8750.0,0.0,0.0,110.0,110.0,433.0,0.0,0.0,0.0,1.0,333.3,74.0,74.0,90.2,90.2,34.0,-6.02,-19.8,1.9,47.1,1.0,-81.49,-320.0,100.0,16.1,19.4,11.8,36.3,0.0,1.0,100.0,0.0,0.0,0.0,0.0,2659.0,6497.0,1198.0,5472.0,318.0,307.6,351.9,340.6,24.58,23.04,25.3,24.54,325.0,325.0,355.0,355.0,99.69,99.63,99.67,99.64,20.86,18.39,3.4,3.5,-1.4,-1.6,8.2,4.6,79.6,70.0,77.9,73.1,85.3,78.4,80.3,75.4,82.5,75.6,78.7,73.6,80.4,73.9,78.0,72.7,-20.54,17.63,0.11,0.07,0.0,76.86,80.48,82.77,82.77,356.7,7.7,1.3890284374338775,61.57739255731587,76.34156271561494,-14.404068544271524,54.01525661425026,0,1
86,4.25,171.9,44.05319539535171,-78.68140720085647,35.7,138.7,7.0,36.7,1743.1,1743.0,99.5,0.0,1.0,1.0,0.0,1.0,1.0,0.0,0.0,0.0,100.0,1.0,1.186,26.0,0.0,-19.809,74.678,66.0,0.0,26.0,26.0,26.0,26.0,1.24,0.15,-0.06,386.7,-1.36,-3.19,-2.55,-1.01,-678.44,531.22,6.0,0.0,0.0,0.0,0.0,0.1,-7.49,-7.49,-1.29,2.9,0.32,5.0,27.61,1.19,-0.36,-38.32,100.0,0.0,0.0,82.92,0.0,0.0,0.0,0.0,0.0,0.0,0.0,5558.0,0.0,30.0,3.0,99.5,1.0,0.0,0.0,0.0,0.0,0.0,0.0,0.0,4.281,4.281,74.679,19.926,1.0,110.0,435.8,8750.0,0.0,0.0,110.0,110.0,433.0,0.0,0.0,0.0,1.0,333.3,71.2,71.2,86.8,86.8,34.0,-3.67,-19.01,-0.3,30.0,1.0,-81.54,-320.0,100.0,17.9,26.4,12.1,38.2,1.0,1.0,100.0,0.0,0.0,0.0,0.0,1849.0,6237.0,822.0,4870.0,320.3,308.0,352.9,342.0,24.58,23.04,25.3,24.54,325.0,325.0,355.0,355.0,99.69,99.63,99.67,99.64,20.94,18.23,4.16,4.15,-1.2,-1.7,10.8,4.8,79.6,70.0,77.9,73.1,85.5,78.8,80.3,75.4,82.6,76.0,78.7,73.7,80.6,74.3,78.0,72.8,-20.53,17.56,0.11,0.05,0.0,76.96,81.04,84.42,81.41,356.7,7.7,1.2504799078753726,61.93749425669704,80.30268152261282,-28.80813680403115,32.4091540823548,0,1
87,4.3,173.3,44.05318775111806,-78.68139703852232,-116.0,-121.8,81.3,36.4,1744.5,1745.0,99.7,0.0,1.0,1.0,0.0,1.0,1.0,0.0,0.0,0.0,100.0,1.0,1.186,26.0,0.0,-19.881,74.678,66.0,0.0,26.0,26.0,26.0,26.0,1.29,0.46,-0.05,387.5,-0.99,-3.85,-3.58,-1.21,-677.31,530.37,5.9,0.0,0.0,0.0,0.0,0.1,-7.49,-7.49,-1.08,1.95,0.62,5.39,27.68,1.48,-0.24,-34.33,100.0,0.0,0.0,82.92,0.0,0.0,0.0,0.0,0.0,0.0,0.0,5558.0,0.0,30.0,3.0,99.7,0.0,0.0,0.0,0.0,0.0,0.0,0.0,0.0,4.331,4.331,74.679,19.926,0.0,110.0,435.8,8750.0,0.0,0.0,110.0,110.0,433.0,0.0,0.0,0.0,1.0,333.3,83.0,83.0,79.5,79.5,34.0,-0.57,-9.65,1.5,40.6,1.0,-81.59,-320.0,100.0,12.1,20.3,16.2,40.0,0.0,1.0,100.0,0.0,0.0,0.0,0.0,478.0,3611.0,2753.0,8151.0,324.1,314.9,347.8,333.4,24.58,23.05,25.3,24.54,325.0,325.0,355.0,355.0,99.69,99.63,99.67,99.64,21.82,18.95,4.61,4.7,-0.8,-1.2,8.7,4.8,79.6,70.0,77.9,73.1,85.5,79.1,80.3,75.5,82.6,76.2,78.7,73.8,80.6,74.5,78.0,72.9,-20.61,17.64,0.12,0.04,0.0,76.92,81.03,82.91,82.91,356.7,7.7,1.3704743704279916,58.69657887691275,79.58247812385042,-118.83356420993586,25.20712009473087,0,1
88,4.35,174.7,44.05318073640953,-78.68138732584897,-61.2,-110.8,75.5,134.0,1745.9,1746.0,100.3,0.0,1.0,1.0,0.0,1.0,1.0,0.0,0.0,0.0,100.0,1.0,1.186,26.0,0.0,-19.959,74.678,66.0,0.0,26.0,26.0,26.0,26.0,1.48,0.3,-0.22,385.3,-0.1,-2.89,-3.98,-0.73,-676.23,529.59,5.9,0.0,0.0,0.0,0.0,0.1,-7.49,-7.49,-1.19,-5.99,0.89,3.02,27.83,1.63,-0.26,-27.61,100.0,0.0,0.0,83.71,0.0,0.0,0.0,0.0,0.0,0.0,0.0,5612.0,0.0,30.0,3.0,100.3,1.0,0.0,0.0,0.0,0.0,0.0,0.0,0.0,4.38,4.38,74.679,19.926,1.0,110.0,435.8,8750.0,0.0,0.0,110.0,110.0,433.0,0.0,0.0,0.0,1.0,333.3,81.5,81.5,74.8,74.8,34.0,-0.93,-25.15,1.0,29.3,1.0,-81.64,-320.0,100.0,9.1,14.8,20.0,46.7,0.0,1.0,100.0,0.0,0.0,0.0,0.0,668.0,7472.0,2059.0,7701.0,323.6,304.3,350.0,335.1,24.58,23.05,25.3,24.54,325.0,325.0,355.0,355.0,99.69,99.64,99.67,99.64,22.36,19.91,4.6,4.66,-1.0,-1.2,8.7,5.7,79.6,70.0,77.9,73.1,85.5,79.4,80.3,75.6,82.6,76.4,78.8,73.9,80.6,74.7,78.0,73.0,-20.63,17.68,0.09,0.03,0.0,76.93,80.54,83.71,83.71,356.7,7.7,1.5260406285548231,50.05413783570346,82.8233935320859,-234.06611199508382,50.41423905141457,0,1
89,4.4,175.9,44.05317525054773,-78.68137635412538,-101.2,-35.4,-204.4,-229.5,1747.1,1747.0,85.9,0.0,1.0,1.0,0.0,1.0,1.0,0.0,0.0,0.0,100.0,1.0,1.186,26.0,0.0,-19.959,74.678,66.0,0.0,26.0,26.0,26.0,26.0,3.42,-1.12,-0.68,412.3,0.32,-2.15,-4.69,-0.21,-675.01,528.98,5.9,0.0,0.0,0.0,0.0,0.1,-7.49,-7.49,-1.1,-1.0,1.81,19.31,23.8,-1.58,-0.71,-219.25,100.0,0.0,0.0,80.49,0.0,0.0,0.0,0.0,0.0,0.0,0.0,5396.0,0.0,30.0,3.0,85.9,0.0,0.0,0.0,0.0,0.0,0.0,0.0,0.0,4.434,4.434,74.679,19.926,0.0,110.0,435.8,8750.0,0.0,0.0,110.0,110.0,433.0,0.0,0.0,0.0,1.0,166.7,112.0,112.0,91.3,91.3,34.0,0.0,38.96,0.0,-12.1,1.0,-81.69,-320.0,100.0,4.0,13.0,9.8,35.2,0.0,1.0,100.0,0.0,0.0,0.0,0.0,0.0,2388.0,0.0,4795.0,325.0,317.9,355.0,342.3,24.58,23.05,25.3,24.54,325.0,325.0,355.0,355.0,99.69,99.64,99.67,99.64,0.0,2.22,0.0,6.87,0.0,0.2,0.0,5.1,79.6,70.1,77.9,73.1,85.5,79.5,80.3,75.7,82.6,76.6,78.8,73.9,80.6,74.8,78.0,73.1,-20.69,17.74,0.13,0.06,0.0,76.56,86.17,82.36,78.62,356.7,7.7,3.6624035823486194,35.28996767740437,84.62390202899188,-291.6823861721697,-57.61627417708567,0,1
90,4.45,177.1,44.05317192305779,-78.68136619179124,12.0,-23.3,-150.1,26.1,1748.3,1748.0,83.9,0.0,1.0,1.0,0.0,1.0,1.0,0.0,0.0,0.0,100.0,1.0,1.186,26.0,0.0,-20.019,74.678,66.0,0.0,26.0,26.0,26.0,26.0,0.96,0.14,-0.27,438.2,-2.45,-0.59,-5.05,2.43,-673.88,528.61,5.9,0.0,0.0,0.0,0.0,0.1,-7.49,-7.49,-1.19,-19.63,4.26,38.08,23.18,2.23,-0.71,-233.73,100.0,0.0,0.0,83.87,0.0,0.0,0.0,0.0,0.0,0.0,0.0,5622.0,0.0,30.0,3.0,83.9,1.0,0.0,0.0,0.0,0.0,0.0,0.0,0.0,4.484,4.484,74.679,19.926,1.0,110.0,435.8,8750.0,0.0,0.0,110.0,110.0,433.0,0.0,0.0,0.0,1.0,166.7,138.4,138.4,123.3,123.3,34.0,0.0,-8.76,0.0,-24.3,1.0,-81.74,-320.0,100.0,4.6,11.8,2.3,36.5,0.0,1.0,100.0,0.0,0.0,0.0,0.0,0.0,3424.0,0.0,7620.0,325.0,316.5,355.0,334.5,24.58,23.05,25.3,24.54,325.0,325.0,355.0,355.0,99.69,99.64,99.67,99.64,0.0,8.77,0.0,15.54,0.0,1.0,0.0,6.6,79.6,70.1,77.9,73.1,85.4,79.5,80.3,75.9,82.5,76.6,78.7,74.2,80.5,74.9,78.0,73.3,-20.69,17.75,0.15,0.05,0.0,76.56,82.05,87.53,80.21,356.7,7.7,1.0070253224224304,20.885899218486486,77.06176611437733,-212.46000974770047,-68.41932458949799,0,1
91,4.5,178.2,44.05317003448242,-78.68135710864301,21.3,-284.3,749.6,-195.3,1749.4,1749.0,81.8,0.0,1.0,1.0,0.0,1.0,1.0,0.0,0.0,0.0,100.0,1.0,1.186,26.0,0.0,-20.073,74.678,66.0,0.0,26.0,26.0,26.0,26.0,0.05,0.03,-0.7,431.5,2.17,-3.77,-1.52,-1.69,-672.87,528.4,5.9,0.0,0.0,0.0,0.0,0.1,-7.49,-7.49,0.21,39.98,-0.5,-146.06,22.7,0.58,0.8,-32.28,100.0,0.0,0.0,82.28,0.0,0.0,0.0,0.0,0.0,0.0,0.0,5515.0,0.0,30.0,3.0,81.8,0.0,0.0,0.0,0.0,0.0,0.0,0.0,0.0,4.53,4.53,74.679,19.926,0.0,110.0,435.8,8750.0,0.0,0.0,110.0,110.0,433.0,0.0,0.0,0.0,1.0,333.3,166.1,166.1,80.4,80.4,34.0,0.0,0.0,0.0,-0.3,1.0,-81.79,-320.0,100.0,5.7,-2.4,39.7,26.7,1.0,1.0,100.0,0.0,0.0,0.0,0.0,0.0,0.0,0.0,263.0,325.0,325.0,355.0,354.0,24.58,23.05,25.3,24.54,325.0,325.0,355.0,355.0,99.69,99.64,99.67,99.64,0.0,0.0,0.0,5.68,0.0,0.0,0.0,10.8,79.6,70.1,77.9,73.1,85.4,79.6,80.2,76.1,82.5,76.6,78.6,74.3,80.5,74.9,77.9,73.5,-20.68,17.95,0.07,0.07,0.0,76.56,78.44,90.79,73.76,356.7,7.7,0.7024243731534378,14.043966702634323,77.78196957004208,-90.02542769041693,64.8183081647096,0,1
92,4.55,179.3,44.05316841570353,-78.68134676644455,-94.1,186.3,1235.6,-271.8,1750.6,1751.0,82.6,0.0,1.0,1.0,0.0,1.0,1.0,0.0,0.0,0.0,100.0,1.0,1.186,26.0,0.0,-20.073,74.678,66.0,0.0,26.0,26.0,26.0,26.0,1.41,0.58,2.94,417.0,7.61,-10.02,3.04,-6.58,-671.72,528.22,5.9,0.0,0.0,0.0,0.0,0.1,-7.49,-7.49,1.57,-4.39,-5.21,2.85,22.92,0.21,0.94,2.45,100.0,0.0,0.0,76.31,0.0,0.0,0.0,0.0,0.0,0.0,0.0,5115.0,0.0,30.0,3.0,82.6,1.0,0.0,0.0,0.0,0.0,0.0,0.0,0.0,4.581,4.581,74.679,19.926,1.0,110.0,435.8,8750.0,0.0,0.0,110.0,110.0,433.0,0.0,0.0,0.0,1.0,333.3,188.6,188.6,34.2,34.2,34.0,0.0,0.0,657.1,0.0,1.0,-81.84,-320.0,100.0,1.0,6.9,101.5,13.2,0.0,1.0,100.0,0.0,0.0,0.0,0.0,0.0,0.0,24313.0,0.0,325.0,325.0,294.2,355.0,24.58,23.05,25.3,24.54,325.0,325.0,355.0,355.0,99.69,99.64,99.68,99.64,0.0,0.0,2.63,0.0,0.0,0.0,1.8,0.0,79.6,70.1,77.9,73.1,85.3,79.5,80.5,76.0,82.4,76.6,78.9,74.3,80.4,74.8,78.2,73.5,-20.72,17.8,-0.07,0.11,0.0,76.56,78.44,62.24,90.37,356.7,7.7,3.3118121927428192,11.883356449444792,83.5435969308483,-32.409153797842954,39.61118806997888,0,1
93,4.6,180.5,44.05316706672112,-78.68133624438175,37.1,-46.0,-773.7,-8.6,1751.7,1752.0,83.2,0.0,1.0,1.0,0.0,1.0,1.0,0.0,0.0,0.0,100.0,1.0,1.186,26.0,0.0,-20.118,74.678,66.0,0.0,26.0,26.0,26.0,26.0,-0.38,0.31,-0.51,433.0,2.07,-5.97,0.42,-3.88,-670.55,528.07,5.9,0.0,0.0,0.0,0.0,0.11,-7.49,-7.49,0.35,-33.24,-1.84,91.17,23.12,-0.13,0.26,13.12,100.0,0.0,0.0,82.34,0.0,0.0,0.0,0.0,0.0,0.0,0.0,5519.0,0.0,30.0,3.0,83.2,0.0,0.0,0.0,0.0,0.0,0.0,1.0,0.0,4.631,4.631,74.679,19.926,0.0,110.0,435.8,8750.0,0.0,0.0,110.0,110.0,433.0,0.0,0.0,0.0,1.0,333.3,172.5,172.5,70.8,70.8,34.0,0.0,0.0,-83.0,0.0,1.0,-81.89,-320.0,100.0,2.8,4.6,62.8,12.7,0.0,1.0,100.0,0.0,0.0,0.0,0.0,0.0,0.0,5826.0,0.0,325.0,325.0,339.1,355.0,24.58,23.06,25.31,24.54,325.0,325.0,355.0,355.0,99.69,99.64,99.68,99.64,0.0,0.0,-2.11,0.0,0.0,0.0,3.3,0.0,79.6,70.1,77.9,73.1,85.2,79.4,80.6,76.0,82.4,76.5,79.0,74.2,80.4,74.8,78.3,73.4,-20.7,17.86,0.03,0.1,0.0,76.56,78.44,68.65,96.02,356.7,7.7,0.7075309180523491,10.803051322850028,81.74308837703997,-10.803050981435813,-14.404068544271524,0,1
94,4.65,181.7,44.053165717738715,-78.68132635184409,8.1,-57.6,-1081.6,152.4,1752.9,1753.0,83.7,0.0,1.0,1.0,0.0,1.0,1.0,0.0,0.0,0.0,100.0,1.0,1.186,26.0,0.0,-20.118,74.678,66.0,0.0,26.0,26.0,26.0,26.0,-0.14,0.5,-0.78,432.4,0.21,-1.12,-4.77,0.84,-669.45,527.92,5.9,0.0,0.0,0.0,0.0,0.11,-7.49,-7.49,-1.24,-32.64,2.42,78.72,23.27,-0.31,0.05,10.25,100.0,0.0,0.0,79.78,0.0,0.0,0.0,0.0,0.0,0.0,0.0,5348.0,0.0,30.0,3.0,83.7,1.0,0.0,0.0,0.0,0.0,0.0,1.0,0.0,4.68,4.68,74.679,19.926,1.0,110.0,435.8,8750.0,0.0,0.0,110.0,110.0,433.0,0.0,0.0,0.0,1.0,333.3,132.3,132.3,112.3,112.3,34.0,0.0,0.0,0.0,4.5,1.0,-81.94,-320.0,100.0,3.2,1.7,8.8,20.3,1.0,1.0,100.0,0.0,0.0,0.0,0.0,0.0,0.0,0.0,4760.0,325.0,325.0,355.0,342.5,24.58,23.06,25.3,24.54,325.0,325.0,355.0,355.0,99.69,99.64,99.68,99.64,0.0,0.0,0.0,-2.66,0.0,0.0,0.0,15.4,79.6,70.1,77.9,73.1,85.2,79.4,80.5,76.1,82.3,76.5,79.0,74.3,80.3,74.7,78.3,73.5,-20.69,17.9,0.13,0.08,0.0,76.56,78.44,89.91,69.65,356.7,7.7,0.9370165420097983,10.80305135130121,82.10319007642114,-7.202033987623899,32.40915408235466,0,1
95,4.7,182.8,44.0531643687563,-78.68131573984914,89.5,920.2,-48.8,193.0,1754.1,1754.0,84.1,0.0,1.0,1.0,0.0,1.0,1.0,0.0,0.0,0.0,100.0,1.0,1.186,26.0,0.0,-20.157,74.678,66.0,0.0,26.0,26.0,26.0,26.0,0.72,0.11,0.37,425.8,-4.23,1.0,-6.67,3.57,-668.27,527.77,5.8,0.0,0.0,0.0,0.0,0.11,-7.49,-7.49,-2.68,-22.12,5.12,22.41,23.34,-0.54,-0.54,-14.98,100.0,0.0,0.0,82.71,0.0,0.0,0.0,0.0,0.0,0.0,0.0,5545.0,0.0,30.0,3.0,84.1,0.0,0.0,0.0,0.0,0.0,0.0,1.0,0.0,4.731,4.731,74.679,19.926,0.0,110.0,435.8,8750.0,0.0,0.0,110.0,110.0,433.0,0.0,0.0,0.0,1.0,333.3,86.1,86.1,148.6,148.6,34.0,0.0,-47.72,0.0,-42.7,1.0,-81.99,-320.0,100.0,7.7,47.8,6.3,30.0,0.0,1.0,100.0,0.0,0.0,0.0,0.0,0.0,13775.0,0.0,5602.0,325.0,288.1,355.0,340.4,24.58,23.06,25.3,24.54,325.0,325.0,355.0,355.0,99.69,99.64,99.68,99.64,0.0,15.16,0.0,-1.1,0.0,-1.9,0.0,5.7,79.6,70.1,77.9,73.1,85.1,79.8,80.5,76.1,82.2,76.9,78.9,74.4,80.2,75.1,78.2,73.5,-20.64,17.34,0.13,0.07,0.0,76.56,68.27,97.01,68.41,356.7,7.7,0.8169455306200041,10.082847924087638,84.98400378527543,-21.60610310091899,3.6010169938120384,0,1
96,4.75,184.0,44.05316319963821,-78.68130512785419,89.7,57.0,44.6,-194.3,1755.2,1755.0,83.9,0.0,1.0,1.0,0.0,1.0,1.0,0.0,0.0,0.0,100.0,1.0,1.186,26.0,0.0,-20.157,74.678,66.0,0.0,26.0,26.0,26.0,26.0,0.75,-0.1,-0.17,428.4,-3.04,-0.46,-6.19,2.95,-667.09,527.64,5.8,0.0,0.0,0.0,0.0,0.11,-7.49,-7.49,-2.73,7.92,3.89,-50.88,23.28,-0.4,-0.92,-37.99,100.0,0.0,0.0,89.35,0.0,0.0,0.0,0.0,0.0,0.0,0.0,5990.0,0.0,30.0,3.0,83.9,1.0,0.0,0.0,0.0,0.0,0.0,1.0,0.0,4.781,4.781,74.679,19.926,1.0,110.0,435.8,8750.0,0.0,0.0,110.0,110.0,433.0,0.0,0.0,0.0,1.0,333.3,85.1,85.1,153.7,153.7,34.0,0.0,-28.36,0.0,-0.4,1.0,-82.04,-320.0,100.0,12.2,50.6,8.5,20.3,1.0,1.0,100.0,0.0,0.0,0.0,0.0,0.0,8573.0,0.0,1350.0,325.0,300.8,355.0,351.3,24.58,23.07,25.3,24.54,325.0,325.0,355.0,355.0,99.69,99.64,99.68,99.64,0.0,15.25,0.0,1.93,0.0,-1.4,0.0,16.5,79.6,70.2,77.9,73.1,85.1,80.3,80.4,76.1,82.2,77.3,78.8,74.4,80.2,75.6,78.1,73.5,-20.59,17.36,0.12,0.1,0.0,76.56,69.61,100.4,78.31,356.7,7.7,0.7754998388136519,8.642441041209311,82.46329177580235,-18.005085822595195,-5.690235127531196e-07,0,1
97,4.8,185.2,44.05316221038445,-78.68129514538437,-39.2,-734.3,-75.1,-304.7,1756.4,1756.0,83.7,0.0,1.0,1.0,0.0,1.0,1.0,0.0,0.0,0.0,100.0,1.0,1.186,26.0,0.0,-20.184,74.678,66.0,0.0,26.0,26.0,26.0,26.0,0.12,-0.04,-0.99,427.3,-1.18,-2.34,-3.6,-0.05,-665.98,527.53,5.8,0.0,0.0,0.0,0.0,0.11,-7.49,-7.49,-1.99,16.77,1.27,-57.31,23.24,0.27,-0.32,-44.77,100.0,0.0,0.0,91.72,0.0,0.0,0.0,0.0,0.0,0.0,0.0,6148.0,0.0,30.0,3.0,83.7,0.0,0.0,0.0,0.0,0.0,0.0,1.0,0.0,4.83,4.83,74.679,19.926,0.0,110.0,435.8,8750.0,0.0,0.0,110.0,110.0,433.0,0.0,0.0,0.0,1.0,333.3,102.3,102.3,137.3,137.3,34.0,0.0,-1.02,0.0,0.0,1.0,-82.09,-320.0,100.0,10.2,13.9,4.8,5.0,0.0,1.0,100.0,0.0,0.0,0.0,0.0,0.0,503.0,0.0,0.0,325.0,322.7,355.0,355.0,24.58,23.07,25.3,24.54,325.0,325.0,355.0,355.0,99.69,99.64,99.68,99.64,0.0,16.55,0.0,0.0,0.0,-1.1,0.0,0.0,79.6,70.2,77.9,73.1,85.0,80.5,80.3,76.1,82.1,77.5,78.8,74.3,80.1,75.8,78.1,73.5,-20.61,17.75,0.13,0.11,0.0,76.56,69.83,95.85,87.59,356.7,7.7,0.9980480950335009,8.282339341828118,84.98400372837308,-10.803050981435822,32.40915408235466,0,1
98,4.85,186.3,44.05316113119852,-78.6812839038643,78.8,-234.1,330.9,-29.8,1757.5,1758.0,84.2,0.0,1.0,1.0,0.0,1.0,1.0,0.0,0.0,0.0,100.0,1.0,1.186,26.0,0.0,-20.211,74.678,66.0,0.0,26.0,26.0,26.0,26.0,0.67,0.89,-0.13,403.4,1.06,-4.91,0.16,-3.31,-664.73,527.41,5.8,0.0,0.0,0.0,0.0,0.11,-7.49,-7.49,-1.03,18.99,-1.42,-31.83,23.37,1.11,0.55,-42.95,100.0,0.0,0.0,91.3,0.0,0.0,0.0,0.0,0.0,0.0,0.0,6120.0,0.0,30.0,3.0,84.2,1.0,0.0,0.0,0.0,0.0,0.0,1.0,0.0,4.884,4.884,74.679,19.926,1.0,110.0,435.8,8750.0,0.0,0.0,110.0,110.0,433.0,0.0,0.0,0.0,1.0,166.7,101.8,101.8,87.6,87.6,34.0,-10.79,0.0,-12.0,-0.8,1.0,-82.14,-320.0,100.0,14.2,2.2,21.3,3.6,1.0,1.0,100.0,0.0,0.0,0.0,0.0,4120.0,0.0,9113.0,2042.0,314.5,325.0,331.9,350.4,24.58,23.07,25.3,24.54,325.0,325.0,355.0,355.0,99.69,99.64,99.68,99.64,21.03,0.0,5.54,5.6,6.4,0.0,24.9,55.4,79.6,70.2,77.9,73.1,85.0,80.4,80.5,76.0,82.2,77.5,79.0,74.3,80.2,75.7,78.3,73.5,-20.55,17.88,0.08,0.11,0.0,69.18,69.83,74.59,108.01,356.7,7.7,1.1215614116043757,7.562135943065729,85.70420718403781,-36.01017107616677,-36.01017050714319,0,1
99,4.9,187.5,44.053160321809074,-78.68127374153015,145.3,57.2,771.5,633.4,1758.7,1759.0,85.0,0.0,1.0,1.0,0.0,1.0,1.0,0.0,0.0,0.0,100.0,1.0,1.186,26.0,0.0,-20.211,74.678,66.0,0.0,26.0,26.0,26.0,26.0,1.48,0.67,0.53,376.1,-0.19,-5.22,-1.33,-1.94,-663.6,527.32,5.7,0.0,0.0,0.0,0.0,0.11,-7.49,-7.49,-0.41,7.03,-0.8,49.73,23.57,1.32,0.61,-38.52,100.0,0.0,0.0,73.25,0.0,0.0,0.0,0.0,0.0,0.0,0.0,4910.0,0.0,30.0,3.0,85.0,0.0,0.0,0.0,0.0,0.0,0.0,1.0,0.0,4.931,4.931,74.679,19.926,0.0,110.0,435.8,8750.0,0.0,0.0,110.0,110.0,433.0,0.0,0.0,0.0,1.0,333.3,90.8,90.8,42.9,42.9,34.0,-10.55,0.0,98.2,-9.4,1.0,-82.19,-320.0,100.0,21.4,5.0,59.9,35.2,1.0,1.0,100.0,0.0,0.0,0.0,0.0,4066.0,0.0,10702.0,7587.0,314.3,325.0,327.9,336.1,24.58,23.07,25.3,24.54,325.0,325.0,355.0,355.0,99.69,99.64,99.68,99.64,20.59,0.0,4.99,4.83,-1.5,0.0,2.3,23.6,79.6,70.2,77.9,73.1,85.3,80.3,80.6,76.4,82.4,77.4,79.1,74.6,80.4,75.7,78.4,73.8,-20.47,17.84,0.0,0.05,0.0,65.8,69.83,66.69,79.8,356.7,7.7,1.7088592686350739,4.681322234211441,81.38298667765876,-64.81830816470963,-21.606102531895175,0,1
100,4.95,188.7,44.053159962080436,-78.681263579196,-109.2,901.1,-263.7,719.9,1759.9,1760.0,84.6,0.0,1.0,1.0,0.0,1.0,1.0,0.0,0.0,0.0,100.0,1.0,1.186,26.0,0.0,-20.238,74.678,66.0,0.0,26.0,26.0,26.0,26.0,2.71,-0.49,1.43,353.8,-2.44,-0.79,-3.3,0.15,-662.47,527.28,5.7,0.0,0.0,0.0,0.0,0.11,-7.49,-7.49,-0.65,-11.56,2.12,30.38,23.48,0.6,-0.03,-11.07,100.0,0.0,0.0,65.31,0.0,0.0,0.0,0.0,0.0,0.0,0.0,5504.0,0.0,30.0,0.0,84.6,1.0,0.0,0.0,0.0,0.0,0.0,1.0,0.0,4.98,4.98,74.679,19.926,1.0,110.0,435.8,8750.0,0.0,0.0,110.0,110.0,433.0,0.0,0.0,0.0,1.0,333.3,52.3,52.3,22.2,22.2,34.0,0.0,-49.66,25.5,325.6,1.0,-82.24,-320.0,100.0,16.0,50.1,46.7,71.2,0.0,1.0,100.0,0.0,0.0,0.0,0.0,0.0,13581.0,2219.0,13384.0,325.0,288.2,349.1,320.0,24.58,23.08,25.3,24.54,325.0,325.0,355.0,355.0,99.69,99.64,99.68,99.64,0.0,18.08,2.05,2.45,0.0,-1.2,0.0,-0.3,79.6,70.2,77.9,73.1,85.3,80.7,80.7,76.5,82.5,77.8,79.1,74.7,80.5,76.1,78.4,73.9,-20.53,17.32,0.04,-0.02,0.0,66.09,68.54,65.3,65.33,356.7,7.7,3.1030791159749698,1.0803051265947656,83.5435969308483,-25.207119810219098,39.61118806997874,0,1
101,5.0,189.8,44.05316005201259,-78.68125287726889,28.6,164.6,-428.3,-306.8,1761.1,1761.0,83.8,0.0,1.0,1.0,0.0,1.0,1.0,0.0,0.0,0.0,100.0,1.0,1.186,26.0,0.0,-20.259,74.678,66.0,0.0,26.0,26.0,26.0,26.0,1.5,-0.37,0.47,366.3,-2.45,4.68,-3.82,-0.95,-661.28,527.29,5.7,0.0,0.0,0.0,0.0,0.11,-7.49,-7.49,-0.97,-2.57,1.36,-43.33,23.26,-0.02,-0.68,-15.78,100.0,0.0,0.0,65.53,0.0,0.0,0.0,0.0,0.0,0.0,0.0,7357.0,0.0,30.0,0.0,83.8,0.0,0.0,0.0,0.0,0.0,0.0,1.0,0.0,5.031,5.031,74.679,19.926,0.0,110.0,435.8,8750.0,0.0,0.0,110.0,110.0,433.0,0.0,0.0,0.0,1.0,333.3,50.1,50.1,46.8,46.8,34.0,-1.9,-35.19,17.3,97.8,1.0,-82.29,-320.0,100.0,17.4,58.3,25.3,55.9,0.0,1.0,100.0,0.0,0.0,0.0,0.0,1053.0,12208.0,2167.0,5373.0,321.8,291.2,349.8,340.3,24.58,23.08,25.3,24.54,325.0,325.0,355.0,355.0,99.69,99.65,99.68,99.64,20.25,17.59,1.56,1.54,-0.4,-1.7,0.1,-0.2,79.6,70.3,77.9,73.1,85.3,81.3,80.6,76.5,82.4,78.4,79.1,74.7,80.4,76.8,78.4,73.9,-20.52,17.29,0.09,0.02,0.0,65.99,67.21,64.85,66.2,356.7,7.7,1.614868415692127,2.1606102531895313,85.34410548465664,28.80813708854289,-7.2020345566474475,0,1
102,5.05,191.0,44.053160501673396,-78.68124226527394,-56.7,-771.9,88.7,-803.2,1762.2,1762.0,83.4,0.0,1.0,1.0,0.0,1.0,1.0,0.0,0.0,0.0,100.0,1.0,1.186,26.0,0.0,-20.259,74.678,66.0,0.0,26.0,26.0,26.0,26.0,0.86,-0.16,-0.49,389.7,-0.42,6.78,-3.02,-1.93,-660.1,527.34,5.7,0.0,0.0,0.0,0.0,0.11,-7.49,-7.49,-0.96,0.24,-0.91,-33.33,23.16,-0.04,-0.56,-19.93,100.0,0.0,0.0,65.19,0.0,0.0,0.0,0.0,0.0,0.0,1.0,8763.0,0.0,30.0,0.0,83.4,1.0,0.0,0.0,0.0,0.0,0.0,1.0,0.0,5.081,5.081,74.679,19.926,1.0,110.0,435.8,8750.0,0.0,0.0,110.0,110.0,433.0,0.0,0.0,0.0,1.0,166.7,86.9,86.9,69.5,69.5,34.0,-2.87,-4.44,65.4,82.9,1.0,-82.34,-320.0,100.0,14.6,19.7,29.7,15.7,0.0,1.0,100.0,0.0,0.0,0.0,0.0,1538.0,2542.0,5216.0,5143.0,321.5,317.6,341.8,342.1,24.58,23.08,25.3,24.54,325.0,325.0,355.0,355.0,99.69,99.65,99.68,99.64,19.8,17.31,1.63,1.11,-0.2,-1.4,0.0,0.1,79.6,70.3,77.9,73.1,85.3,81.5,80.6,76.5,82.4,78.7,79.1,74.7,80.4,77.1,78.3,73.9,-20.56,17.68,0.08,0.1,0.0,65.71,67.56,64.28,66.1,356.7,7.7,1.002646498024104,3.9611188354490543,82.82339347518355,25.207119810219098,-21.606103100919114,0,1
103,5.1,192.2,44.053161041266364,-78.68123219287196,28.1,-297.6,-47.0,187.2,1763.4,1763.0,83.8,0.0,1.0,1.0,0.0,1.0,1.0,0.0,0.0,0.0,100.0,1.0,1.186,26.0,0.0,-20.271,74.678,66.0,0.0,26.0,26.0,26.0,26.0,0.34,0.48,-0.41,396.8,0.9,6.35,-1.74,5.37,-658.98,527.4,5.7,0.0,0.0,0.0,0.0,0.11,-7.49,-7.49,-1.18,-5.76,-1.74,-6.45,23.27,0.09,-0.49,-22.37,100.0,0.0,0.0,81.58,0.0,0.0,0.0,0.0,0.0,0.0,0.0,7011.0,0.0,30.0,2.0,83.8,0.0,0.0,0.0,0.0,0.0,0.0,0.0,0.0,5.13,5.13,74.679,19.926,0.0,110.0,435.8,8750.0,0.0,0.0,110.0,110.0,433.0,0.0,0.0,0.0,1.0,333.3,100.3,100.3,96.1,96.1,34.0,-5.54,0.0,-0.6,-0.2,1.0,-82.39,-320.0,100.0,16.0,4.9,27.4,25.1,1.0,1.0,100.0,0.0,0.0,0.0,0.0,2349.0,0.0,3290.0,1901.0,318.6,325.0,346.6,349.6,24.58,23.09,25.3,24.54,325.0,325.0,355.0,355.0,99.7,99.65,99.68,99.64,19.44,0.0,1.53,1.79,-1.3,0.0,28.1,25.3,79.6,70.3,77.9,73.1,85.4,81.5,80.7,76.5,82.5,78.6,79.1,74.8,80.6,77.1,78.4,73.9,-20.54,17.84,0.08,0.08,0.0,65.37,67.66,80.97,82.18,356.7,7.7,0.717007670809734,4.681322234211441,83.18349517456473,10.8030509814358,28.808137088542622,0,1
104,5.15,193.3,44.05316167079148,-78.68122149094485,-130.6,-25.9,-252.1,-172.5,1764.6,1765.0,84.3,0.0,1.0,1.0,0.0,1.0,1.0,0.0,0.0,0.0,100.0,1.0,1.186,26.0,0.0,-20.271,74.678,66.0,0.0,26.0,26.0,26.0,26.0,0.15,0.21,-0.91,407.3,1.61,6.61,-1.32,9.16,-657.79,527.47,5.7,0.0,0.0,0.0,0.0,0.11,-7.49,-7.49,-1.54,-6.76,-1.63,4.59,23.43,0.47,-0.27,-24.8,100.0,0.0,0.0,72.69,0.0,0.0,0.0,0.0,0.0,0.0,0.0,6247.0,0.0,30.0,2.0,84.3,1.0,0.0,0.0,0.0,0.0,0.0,0.0,0.0,5.181,5.181,74.679,19.926,1.0,110.0,435.8,8750.0,0.0,0.0,110.0,110.0,433.0,0.0,0.0,0.0,1.0,333.3,109.1,109.1,111.5,111.5,34.0,-0.68,0.0,-0.4,0.4,1.0,-82.44,-320.0,100.0,9.4,3.6,14.8,16.5,1.0,1.0,100.0,0.0,0.0,0.0,0.0,451.0,0.0,926.0,761.0,323.8,325.0,352.7,353.0,24.58,23.09,25.3,24.54,325.0,325.0,355.0,355.0,99.7,99.65,99.68,99.64,20.15,0.0,2.42,2.5,-1.0,0.0,13.4,9.2,79.6,70.3,77.9,73.1,85.4,81.4,80.7,76.5,82.6,78.6,79.1,74.8,80.6,77.0,78.4,74.0,-20.62,17.87,0.12,0.1,0.0,65.52,67.66,72.56,72.8,356.7,7.7,0.9458858282054976,5.041423933592634,85.70420718403781,14.404068544271444,3.6010175628356933,0,1
105,5.2,194.5,44.05316230031661,-78.68121078901774,66.3,6.3,-68.9,20.4,1765.7,1766.0,84.8,0.0,1.0,1.0,0.0,1.0,1.0,0.0,0.0,0.0,100.0,1.0,1.186,26.0,0.0,-20.286,74.678,66.0,0.0,26.0,26.0,26.0,26.0,0.92,0.4,-0.28,395.1,-0.29,7.11,-2.09,9.7,-656.6,527.54,5.7,0.0,0.0,0.0,0.0,0.11,-7.49,-7.49,-1.91,-6.62,-1.04,20.27,23.56,0.76,-0.1,-27.53,100.0,0.0,0.0,70.3,0.0,0.0,0.0,0.0,0.0,0.0,0.0,6041.0,0.0,30.0,2.0,84.8,0.0,0.0,0.0,0.0,0.0,0.0,0.0,0.0,5.231,5.231,74.679,19.926,0.0,110.0,435.8,8750.0,0.0,0.0,110.0,110.0,433.0,0.0,0.0,0.0,1.0,333.3,91.0,91.0,102.9,102.9,34.0,-8.09,-5.41,5.4,33.3,1.0,-82.49,-320.0,100.0,12.7,3.9,11.3,17.5,0.0,1.0,100.0,0.0,0.0,0.0,0.0,3417.0,3220.0,2663.0,4863.0,316.8,316.9,348.3,342.5,24.58,23.09,25.3,24.54,325.0,325.0,355.0,355.0,99.7,99.65,99.68,99.64,20.43,17.95,2.93,3.14,-1.5,-2.5,8.5,3.6,79.6,70.3,77.9,73.1,85.5,81.4,80.7,76.5,82.7,78.6,79.1,74.8,80.7,77.0,78.4,74.0,-20.58,17.85,0.12,0.1,0.0,65.65,68.23,69.98,70.61,356.7,7.7,1.041537325303323,6.121729088638586,83.5435969308483,36.01017136067861,7.202034556647732,0,1
106,5.25,195.7,44.05316319963821,-78.68120062668359,158.3,269.2,-50.3,404.8,1766.9,1767.0,85.0,0.0,1.0,1.0,0.0,1.0,1.0,0.0,0.0,0.0,100.0,1.0,1.186,26.0,0.0,-20.301,74.678,66.0,0.0,26.0,26.0,26.0,26.0,1.29,-0.31,0.08,384.4,-0.85,-3.93,-2.49,10.66,-655.47,527.64,5.6,0.0,0.0,0.0,0.0,0.11,-7.49,-7.49,-2.18,-4.4,0.23,24.88,23.57,0.88,-0.23,-37.25,100.0,0.0,0.0,71.68,0.0,0.0,0.0,0.0,0.0,0.0,0.0,6161.0,0.0,30.0,2.0,85.0,1.0,0.0,0.0,0.0,0.0,0.0,0.0,0.0,5.28,5.28,74.679,19.926,1.0,110.0,435.8,8750.0,0.0,0.0,110.0,110.0,433.0,0.0,0.0,0.0,1.0,333.3,70.6,70.6,103.3,103.3,34.0,-8.95,-20.81,0.0,93.6,1.0,-82.54,-320.0,100.0,20.7,17.3,8.8,37.7,0.0,1.0,100.0,0.0,0.0,0.0,0.0,3653.0,6773.0,0.0,8069.0,315.6,307.3,355.0,334.2,24.58,23.09,25.3,24.54,325.0,325.0,355.0,355.0,99.7,99.65,99.68,99.65,19.97,17.62,0.0,3.71,-1.2,-1.8,0.0,0.5,79.6,70.3,77.9,73.1,85.7,81.6,80.7,76.5,82.8,78.8,79.1,74.8,80.9,77.3,78.4,74.0,-20.48,17.66,0.12,0.06,0.0,65.92,69.59,72.68,70.69,356.7,7.7,1.329135057095403,8.642441069660496,86.42441063970259,50.414239620438195,25.20712009473087,0,1
107,5.3,196.9,44.053164458688464,-78.68118920529919,76.1,464.0,-39.5,344.8,1768.1,1768.0,85.0,0.0,1.0,1.0,0.0,1.0,1.0,0.0,0.0,0.0,100.0,1.0,1.186,26.0,0.0,-20.301,74.678,66.0,0.0,26.0,26.0,26.0,26.0,1.66,0.09,0.64,371.2,-1.79,-2.85,-2.94,11.14,-654.2,527.78,5.6,0.0,0.0,0.0,0.0,0.11,-7.49,-7.49,-2.15,3.92,0.92,-5.31,23.58,1.1,-0.51,-56.05,100.0,0.0,0.0,77.06,0.0,0.0,0.0,0.0,0.0,0.0,0.0,6623.0,0.0,30.0,2.0,85.0,0.0,0.0,0.0,0.0,0.0,0.0,0.0,0.0,5.334,5.334,74.679,19.926,0.0,110.0,435.8,8750.0,0.0,0.0,110.0,110.0,433.0,0.0,0.0,0.0,1.0,166.7,54.4,54.4,91.4,91.4,34.0,-6.59,-32.93,0.0,69.8,1.0,-82.59,-320.0,100.0,24.5,40.5,6.9,55.0,0.0,1.0,100.0,0.0,0.0,0.0,0.0,2932.0,9600.0,0.0,10937.0,317.4,298.9,355.0,326.6,24.58,23.1,25.3,24.54,325.0,325.0,355.0,355.0,99.7,99.65,99.68,99.65,19.74,17.13,0.0,5.54,-0.8,-1.8,0.0,4.3,79.6,70.4,77.9,73.1,85.9,82.0,80.6,76.6,83.0,79.2,79.0,74.9,81.0,77.6,78.3,74.2,-20.41,17.41,0.12,0.01,0.0,65.58,70.68,82.0,72.13,356.7,7.7,1.7813758727455584,11.163153050682405,86.06430894032138,50.41423933592634,-36.010171645190354,0,1
108,5.35,198.1,44.053165987535195,-78.6811791328972,28.1,-54.8,167.7,-11.3,1769.3,1769.0,85.1,0.0,1.0,1.0,0.0,1.0,1.0,0.0,0.0,0.0,100.0,1.0,1.186,26.0,0.0,-20.31,74.678,66.0,0.0,26.0,26.0,26.0,26.0,1.59,0.09,0.47,370.8,-2.14,-4.4,-2.69,10.33,-653.08,527.95,5.6,0.0,0.0,0.0,0.0,0.11,-7.49,-7.49,-1.77,9.3,0.17,-21.09,23.57,1.55,-0.6,-64.3,100.0,0.0,0.0,72.93,0.0,0.0,0.0,0.0,0.0,0.0,0.0,6268.0,0.0,30.0,2.0,85.1,1.0,0.0,0.0,0.0,0.0,0.0,0.0,0.0,5.381,5.381,74.679,19.926,1.0,110.0,435.8,8750.0,0.0,0.0,110.0,110.0,433.0,0.0,0.0,0.0,1.0,333.3,60.2,60.2,81.0,81.0,34.0,-10.14,-16.12,-3.5,7.9,1.0,-82.64,-320.0,100.0,25.9,37.8,15.2,54.4,1.0,1.0,100.0,0.0,0.0,0.0,0.0,4262.0,5400.0,2847.0,8537.0,314.4,309.9,347.8,332.4,24.58,23.1,25.3,24.55,325.0,325.0,355.0,355.0,99.7,99.65,99.68,99.65,20.49,17.8,7.77,7.61,-0.9,-1.3,20.1,1.8,79.6,70.4,77.9,73.2,86.0,82.4,80.6,76.7,83.2,79.5,79.1,75.1,81.2,78.0,78.3,74.5,-20.39,17.45,0.11,0.01,0.0,64.91,71.0,74.87,71.0,356.7,7.7,1.6604517457607735,13.68386500325313,82.82339347518355,46.81322234211439,-36.010171645190354,0,1
109,5.4,199.2,44.053167876110564,-78.68116852090226,-58.9,-437.1,157.0,-156.0,1770.5,1770.0,85.0,0.0,1.0,1.0,0.0,1.0,1.0,0.0,0.0,0.0,100.0,1.0,1.186,26.0,0.0,-20.322,74.678,66.0,0.0,26.0,26.0,26.0,26.0,1.23,0.19,-0.07,381.4,-0.6,-4.39,-2.53,9.96,-651.9,528.16,5.6,0.0,0.0,0.0,0.0,0.12,-7.49,-7.49,-1.34,6.58,-0.2,3.81,23.51,2.2,-0.45,-61.8,100.0,0.0,0.0,70.77,0.0,0.0,0.0,0.0,0.0,0.0,0.0,6082.0,0.0,30.0,2.0,85.0,0.0,0.0,0.0,0.0,0.0,0.0,0.0,0.0,5.433,5.433,74.679,19.926,0.0,110.0,435.8,8750.0,0.0,0.0,110.0,110.0,433.0,0.0,0.0,0.0,1.0,166.7,79.3,79.3,85.1,85.1,34.0,-5.58,-5.85,-5.9,-10.2,1.0,-82.69,-320.0,100.0,22.9,15.9,23.1,46.6,1.0,1.0,100.0,0.0,0.0,0.0,0.0,2488.0,2464.0,3120.0,6875.0,318.4,318.4,347.0,337.1,24.58,23.1,25.3,24.55,325.0,325.0,355.0,355.0,99.7,99.65,99.68,99.65,21.97,19.27,8.95,8.56,-0.6,-0.7,12.4,2.7,79.6,70.4,77.9,73.2,86.2,82.6,80.7,76.8,83.3,79.7,79.1,75.3,81.4,78.1,78.4,74.7,-20.45,17.7,0.1,0.02,0.0,64.24,70.64,70.63,70.91,356.7,7.7,1.2465552534885889,15.844475284893845,82.46329177580235,39.611188354490544,-3.6010164247883836,0,1
110,5.45,200.4,44.05316994455026,-78.68115853843243,-236.6,-51.0,-84.6,-79.0,1771.6,1772.0,85.0,0.0,1.0,1.0,0.0,1.0,1.0,0.0,0.0,0.0,100.0,1.0,1.186,26.0,0.0,-20.322,74.678,66.0,0.0,26.0,26.0,26.0,26.0,0.88,0.12,-0.39,389.5,-0.13,-4.19,-3.18,10.25,-650.79,528.39,5.6,0.0,0.0,0.0,0.0,0.12,-7.49,-7.49,-1.17,0.98,0.18,5.17,23.43,2.89,-0.26,-57.21,100.0,0.0,0.0,70.3,0.0,0.0,0.0,0.0,0.0,0.0,0.0,6042.0,0.0,30.0,2.0,85.0,1.0,0.0,0.0,0.0,0.0,0.0,0.0,0.0,5.481,5.481,74.679,19.926,1.0,110.0,435.8,8750.0,0.0,0.0,110.0,110.0,433.0,0.0,0.0,0.0,1.0,333.3,89.0,89.0,85.5,85.5,34.0,-0.45,-5.76,-2.4,-12.2,1.0,-82.74,-320.0,100.0,11.1,13.4,18.9,42.6,1.0,1.0,100.0,0.0,0.0,0.0,0.0,333.0,2462.0,1575.0,6379.0,324.1,318.5,351.1,338.3,24.58,23.11,25.3,24.55,325.0,325.0,355.0,355.0,99.7,99.65,99.68,99.65,24.07,21.14,10.33,9.95,0.3,-0.2,12.2,2.1,79.6,70.4,77.9,73.2,86.2,82.7,80.7,76.9,83.4,79.8,79.1,75.4,81.4,78.2,78.4,74.9,-20.61,17.73,0.1,0.04,0.0,63.84,69.71,70.68,69.92,356.7,7.7,0.97,17.644983838702185,82.46329183270471,36.01017079165492,-7.202033987623793,0,1
111,5.5,201.6,44.053172282786434,-78.68114792643748,-67.6,58.4,36.1,-133.9,1772.8,1773.0,84.9,0.0,1.0,1.0,0.0,1.0,1.0,0.0,0.0,0.0,100.0,1.0,1.186,26.0,0.0,-20.328,74.678,66.0,0.0,26.0,26.0,26.0,26.0,1.08,0.14,-0.17,390.1,-0.72,-4.91,-3.09,10.63,-649.61,528.65,5.6,0.0,0.0,0.0,0.0,0.12,-7.49,-7.49,-1.22,-2.76,0.49,5.36,23.32,3.49,-0.19,-51.43,100.0,0.0,0.0,71.48,0.0,0.0,0.0,0.0,0.0,0.0,0.0,6144.0,0.0,30.0,2.0,84.9,0.0,0.0,0.0,0.0,0.0,0.0,0.0,0.0,5.531,5.531,74.679,19.926,0.0,110.0,435.8,8750.0,0.0,0.0,110.0,110.0,433.0,0.0,0.0,0.0,1.0,333.3,89.1,89.1,70.2,70.2,34.0,0.0,-13.0,-5.7,-9.4,1.0,-82.79,-320.0,100.0,7.7,16.3,20.7,36.0,1.0,1.0,100.0,0.0,0.0,0.0,0.0,0.0,4651.0,2834.0,5564.0,325.0,312.1,347.7,340.5,24.58,23.11,25.3,24.55,325.0,325.0,355.0,355.0,99.7,99.65,99.68,99.65,0.0,22.95,11.53,11.14,0.0,-0.7,10.2,5.6,79.6,70.4,77.9,73.2,86.2,83.0,80.8,77.0,83.3,80.0,79.2,75.6,81.4,78.4,78.5,75.1,-20.65,17.67,0.1,0.06,0.0,63.65,67.9,72.1,70.87,356.7,7.7,1.102225022397877,19.445492364059337,81.74308837703997,39.6111880699787,-14.40406911329518,0,1
112,5.55,202.8,44.05317480088693,-78.68113812383197,-19.4,42.0,-26.1,-75.1,1774.0,1774.0,84.8,0.0,1.0,1.0,0.0,1.0,1.0,0.0,0.0,0.0,100.0,1.0,1.186,26.0,0.0,-20.328,74.678,66.0,0.0,26.0,26.0,26.0,26.0,1.2,0.08,-0.19,391.7,-0.25,-3.09,-3.29,-2.71,-648.52,528.93,5.6,0.0,0.0,0.0,0.0,0.12,-7.49,-7.49,-1.39,-4.33,0.77,2.99,23.21,3.95,-0.18,-46.82,100.0,0.0,0.0,72.08,0.0,0.0,0.0,0.0,0.0,0.0,0.0,6195.0,0.0,30.0,2.0,84.8,1.0,0.0,0.0,0.0,0.0,0.0,0.0,0.0,5.58,5.58,74.679,19.926,1.0,110.0,435.8,8750.0,0.0,0.0,110.0,110.0,433.0,0.0,0.0,0.0,1.0,333.3,84.7,84.7,73.1,73.1,34.0,0.0,-16.18,-3.7,-17.2,1.0,-82.84,-320.0,100.0,6.7,18.4,19.4,32.2,1.0,1.0,100.0,0.0,0.0,0.0,0.0,0.0,5603.0,2152.0,5451.0,325.0,310.0,349.7,340.5,24.58,23.11,25.3,24.55,325.0,325.0,355.0,355.0,99.7,99.65,99.68,99.65,0.0,24.4,12.46,11.97,0.0,-1.0,12.6,6.4,79.6,70.5,77.9,73.2,86.1,83.4,80.9,77.2,83.3,80.4,79.3,75.8,81.3,78.7,78.5,75.3,-20.66,17.66,0.11,0.06,0.0,63.65,66.54,72.08,72.08,356.7,7.7,1.217579566188592,21.606102645700055,81.0228849213752,46.81322262662622,7.202033987623793,0,1
113,5.6,203.9,44.05317767871607,-78.68112769170135,190.4,257.6,13.5,114.9,1775.2,1775.0,84.2,0.0,1.0,1.0,0.0,1.0,1.0,0.0,0.0,0.0,100.0,1.0,1.186,26.0,0.0,-20.343,74.678,66.0,0.0,26.0,26.0,26.0,26.0,1.75,-0.16,0.45,380.5,-0.23,-3.6,-3.4,-0.61,-647.36,529.25,5.5,0.0,0.0,0.0,0.0,0.12,-7.49,-7.49,-1.56,-2.92,1.04,6.76,23.02,4.1,-0.37,-45.37,100.0,0.0,0.0,68.32,0.0,0.0,0.0,0.0,0.0,0.0,0.0,5872.0,0.0,30.0,2.0,84.2,0.0,0.0,0.0,0.0,0.0,0.0,1.0,0.0,5.631,5.631,74.679,19.926,0.0,110.0,435.8,8750.0,0.0,0.0,110.0,110.0,433.0,0.0,0.0,0.0,1.0,166.7,66.2,66.2,71.2,71.2,34.0,-4.24,-26.13,-3.1,-22.5,1.0,-82.89,-320.0,100.0,16.3,31.3,20.0,37.9,1.0,1.0,100.0,0.0,0.0,0.0,0.0,1909.0,8175.0,1726.0,6782.0,319.2,302.9,350.4,337.3,24.58,23.12,25.3,24.55,325.0,325.0,355.0,355.0,99.7,99.66,99.68,99.65,27.89,24.9,12.81,12.36,0.7,-2.0,9.4,3.4,79.6,70.5,77.9,73.2,86.2,83.8,80.9,77.4,83.4,80.8,79.3,75.9,81.4,79.1,78.6,75.5,-20.54,17.51,0.11,0.06,0.0,61.81,65.35,68.32,68.32,356.7,7.7,1.8140011025354974,24.12681462672196,82.46329177580235,39.61118835449053,-25.207119525707213,0,1
114,5.65,205.1,44.05318082634169,-78.6811175293672,79.2,127.3,-148.0,-0.0,1776.3,1776.0,83.4,0.0,1.0,1.0,0.0,1.0,1.0,0.0,0.0,0.0,100.0,1.0,1.186,26.0,0.0,-20.355,74.678,66.0,0.0,26.0,26.0,26.0,26.0,1.61,-0.13,0.29,380.2,-1.4,-3.77,-2.98,-0.6,-646.23,529.6,5.5,0.0,0.0,0.0,0.0,0.12,-7.49,-7.49,-1.49,4.66,0.99,-7.42,22.76,4.32,-0.46,-50.56,100.0,0.0,0.0,71.36,0.0,0.0,0.0,0.0,0.0,0.0,0.0,6133.0,0.0,30.0,2.0,83.4,1.0,0.0,0.0,0.0,0.0,0.0,1.0,0.0,5.681,5.681,74.679,19.926,1.0,110.0,435.8,8750.0,0.0,0.0,110.0,110.0,433.0,0.0,0.0,0.0,1.0,333.3,59.4,59.4,79.5,79.5,34.0,-8.41,-25.9,-2.4,-15.9,1.0,-82.94,-320.0,100.0,20.2,37.7,12.6,37.9,1.0,1.0,100.0,0.0,0.0,0.0,0.0,3589.0,8103.0,1575.0,5351.0,315.6,302.9,351.1,341.0,24.58,23.12,25.3,24.55,325.0,325.0,355.0,355.0,99.7,99.66,99.68,99.65,28.38,25.27,13.98,13.34,-0.1,-2.2,16.7,7.4,79.6,70.5,77.9,73.2,86.4,84.4,80.9,77.6,83.5,81.3,79.3,76.1,81.5,79.6,78.6,75.7,-20.46,17.45,0.12,0.06,0.0,60.4,64.65,72.08,70.63,356.7,7.7,1.6410667262485095,25.567221481149108,78.50217296880447,39.611188354490565,-54.01525661425012,0,1
115,5.7,206.3,44.05318406389947,-78.68110808649034,4.2,-99.4,112.8,-28.2,1777.5,1777.0,82.8,0.0,1.0,1.0,0.0,1.0,1.0,0.0,0.0,0.0,100.0,1.0,1.186,26.0,0.0,-20.355,74.678,66.0,0.0,26.0,26.0,26.0,26.0,1.38,-0.07,0.04,382.7,-2.12,-3.01,-2.96,-0.62,-645.18,529.96,5.5,0.0,0.0,0.0,0.0,0.12,-7.49,-7.49,-1.09,8.33,0.97,2.6,22.52,4.57,-0.41,-50.78,100.0,0.0,0.0,68.5,0.0,0.0,0.0,0.0,0.0,0.0,0.0,5887.0,0.0,30.0,2.0,82.8,0.0,0.0,0.0,0.0,0.0,0.0,1.0,0.0,5.73,5.73,74.679,19.926,0.0,110.0,435.8,8750.0,0.0,0.0,110.0,110.0,433.0,0.0,0.0,0.0,1.0,333.3,67.9,67.9,73.6,73.6,34.0,-2.64,-18.68,-5.3,-15.7,1.0,-82.99,-320.0,100.0,20.4,32.7,18.3,36.5,1.0,1.0,100.0,0.0,0.0,0.0,0.0,1488.0,6300.0,2722.0,5222.0,321.2,308.2,348.6,341.6,24.58,23.13,25.3,24.55,325.0,325.0,355.0,355.0,99.7,99.66,99.68,99.65,28.99,25.72,14.59,13.91,-0.3,-1.6,11.7,4.7,79.6,70.5,77.9,73.2,86.5,84.9,81.0,77.8,83.7,81.8,79.4,76.3,81.7,80.0,78.6,75.9,-20.48,17.51,0.11,0.06,0.0,59.44,64.29,68.5,68.5,356.7,7.7,1.3823530663329104,28.087933462171016,77.06176611437733,57.61627360806212,-7.202033987623935,0,1
116,5.75,207.4,44.05318784105022,-78.68109828388484,-197.0,-46.9,80.5,102.9,1778.6,1779.0,82.2,0.0,1.0,1.0,0.0,1.0,1.0,0.0,0.0,0.0,100.0,1.0,1.186,26.0,0.0,-20.367,74.678,66.0,0.0,26.0,26.0,26.0,26.0,1.41,0.04,0.12,384.6,-0.59,-2.49,-3.43,-1.59,-644.09,530.38,5.5,0.0,0.0,0.0,0.0,0.12,-7.49,-7.49,-0.69,4.94,1.14,-1.37,22.32,4.78,-0.33,-42.36,100.0,0.0,0.0,67.98,0.0,0.0,0.0,0.0,0.0,0.0,0.0,5842.0,0.0,30.0,2.0,82.2,1.0,0.0,0.0,0.0,0.0,0.0,1.0,0.0,5.781,5.781,74.679,19.926,1.0,110.0,435.8,8750.0,0.0,0.0,110.0,110.0,433.0,0.0,0.0,0.0,1.0,333.3,79.0,79.0,61.0,61.0,34.0,0.0,-16.24,-6.2,-22.8,1.0,-83.04,-320.0,100.0,10.6,30.3,22.3,41.7,1.0,1.0,95.7,0.0,0.0,0.0,0.0,0.0,5560.0,3074.0,6810.0,325.0,309.5,347.4,337.0,24.58,23.13,25.3,24.55,325.0,325.0,355.0,355.0,99.7,99.66,99.68,99.65,0.0,26.86,14.79,14.25,0.0,-1.3,11.1,5.3,79.6,70.6,77.8,73.2,86.5,85.4,81.1,78.0,83.6,82.2,79.5,76.6,81.7,80.4,78.7,76.1,-20.62,17.52,0.1,0.04,0.0,59.32,63.03,67.98,67.98,356.7,7.7,1.4156623891309679,31.32884884195532,77.78196957004208,39.61118806997874,-28.808136519519252,0,1
117,5.8,208.5,44.05319188799744,-78.68108866114365,-31.8,-162.6,30.1,45.6,1779.8,1780.0,81.8,0.0,1.0,1.0,0.0,1.0,1.0,0.0,0.0,0.0,100.0,1.0,1.186,26.0,0.0,-20.379,74.678,66.0,0.0,26.0,26.0,26.0,26.0,1.22,0.09,-0.11,389.6,-0.6,-2.4,-2.81,-1.26,-643.02,530.83,5.5,0.0,0.0,0.0,0.0,0.12,-7.49,-7.49,-0.59,-1.93,1.06,-3.04,22.2,4.83,-0.3,-31.3,100.0,0.0,0.0,66.53,0.0,0.0,0.0,0.0,0.0,0.0,0.0,5718.0,0.0,30.0,2.0,81.8,0.0,0.0,0.0,0.0,0.0,0.0,1.0,0.0,5.831,5.831,74.679,19.926,0.0,110.0,435.8,8750.0,0.0,0.0,110.0,110.0,433.0,0.0,0.0,0.0,1.0,333.3,89.1,89.1,61.2,61.2,34.0,0.0,-11.73,-7.4,-16.7,1.0,-83.09,-320.0,100.0,9.0,22.2,23.8,44.0,1.0,1.0,87.9,0.0,0.0,0.0,0.0,0.0,4364.0,3390.0,5312.0,325.0,313.2,346.7,340.7,24.58,23.14,25.3,24.55,325.0,325.0,355.0,355.0,99.7,99.66,99.68,99.65,0.0,27.97,14.39,13.98,0.0,-1.2,10.0,5.0,79.6,70.6,77.8,73.2,86.4,85.7,81.3,78.3,83.6,82.5,79.6,76.8,81.6,80.7,78.8,76.4,-20.63,17.62,0.08,0.04,0.0,59.32,61.7,66.53,66.53,356.7,7.7,1.2282507887235408,32.04905226916889,74.18095246242541,25.20711981021897,-46.81322262662604,0,1
97,4.8,157.6,44.05331608431122,-78.68149335586631,146.9,20.7,36.1,-117.4,3510.4,3510.0,106.8,0.0,1.0,1.0,0.0,1.0,1.0,0.0,0.0,0.0,100.0,1.0,1.186,26.0,0.0,-18.012,74.678,66.0,0.0,26.0,26.0,26.0,26.0,1.48,-0.49,0.19,381.7,0.8,-2.4,-1.1,-0.8,-688.02,544.64,5.9,0.0,0.0,0.0,0.0,0.09,-7.49,-7.49,-1.08,0.03,-0.95,4.73,29.64,0.42,-0.45,-19.24,100.0,0.0,0.0,83.15,0.0,0.0,0.0,0.0,0.0,0.0,0.0,5574.0,0.0,30.0,3.0,106.8,0.0,0.0,0.0,0.0,0.0,0.0,1.0,0.0,4.809,4.809,84.921,21.577,0.0,110.0,435.8,8750.0,0.0,0.0,110.0,110.0,433.0,0.0,0.0,0.0,1.0,333.3,64.1,64.1,78.9,78.9,34.0,-8.45,-25.76,3.0,88.4,2.0,-166.99,-320.0,100.0,20.7,28.4,21.4,37.9,0.0,1.0,0.0,0.0,0.0,0.0,0.0,3285.0,7883.0,373.0,4983.0,316.0,303.0,353.7,342.7,25.05,22.73,27.38,26.3,325.0,325.0,355.0,355.0,100.0,99.86,100.0,100.0,20.33,17.79,1.57,1.71,-0.7,-1.8,-0.1,-0.4,82.5,68.0,90.9,84.1,103.7,84.6,107.8,98.9,99.4,81.0,106.1,96.3,96.9,79.4,104.8,94.6,-20.47,17.53,0.1,0.05,0.0,84.09,86.18,82.51,83.78,356.7,7.7,1.5705413079572277,72.74054560799826,81.02288497827756,-46.8132223421145,18.005084969059766,0,1
98,4.85,159.1,44.05330718102732,-78.68148319353216,-67.0,-26.5,-126.9,8.8,3511.9,3512.0,106.1,0.0,1.0,1.0,0.0,1.0,1.0,0.0,0.0,0.0,100.0,1.0,1.186,26.0,0.0,-18.117,74.678,66.0,0.0,26.0,26.0,26.0,26.0,1.26,-0.3,-0.01,385.5,0.13,-3.47,-1.87,0.37,-686.89,543.65,5.9,0.0,0.0,0.0,0.0,0.09,-7.49,-7.49,-1.01,1.11,-0.98,-2.98,29.45,0.38,-0.39,-22.23,100.0,0.0,0.0,83.28,0.0,0.0,0.0,0.0,0.0,0.0,0.0,5582.0,0.0,30.0,3.0,106.1,1.0,0.0,0.0,0.0,0.0,0.0,1.0,0.0,4.86,4.86,84.921,21.577,1.0,110.0,435.8,8750.0,0.0,0.0,110.0,110.0,433.0,0.0,0.0,0.0,1.0,333.3,72.3,72.3,81.3,81.3,34.0,-3.56,-16.6,23.9,111.4,2.0,-167.04,-320.0,100.0,17.3,27.1,15.0,38.3,0.0,1.0,8.3,0.0,0.0,0.0,0.0,1713.0,5625.0,2138.0,6116.0,320.5,310.0,350.0,340.0,25.05,22.73,27.39,26.3,325.0,325.0,355.0,355.0,100.0,99.87,100.0,100.0,20.21,17.57,1.71,1.87,-0.5,-1.3,0.3,-0.0,82.6,68.1,90.9,84.1,103.7,84.9,107.7,98.9,99.4,81.3,106.0,96.3,97.0,79.7,104.8,94.6,-20.52,17.55,0.11,0.05,0.0,83.65,86.23,82.76,83.79,356.7,7.7,1.2952605915413316,68.41932507316803,79.58247806694806,-57.616273892573844,-5.690236548616667e-07,0,1
99,4.9,160.5,44.053298997200706,-78.68147348085883,-30.9,-37.7,137.6,13.0,3513.4,3513.0,105.9,0.0,1.0,1.0,0.0,1.0,1.0,0.0,0.0,0.0,100.0,1.0,1.186,26.0,0.0,-18.213,74.678,66.0,0.0,26.0,26.0,26.0,26.0,1.32,0.04,0.11,384.3,-0.03,-3.29,-1.26,-2.05,-685.81,542.74,5.9,0.0,0.0,0.0,0.0,0.09,-7.49,-7.49,-1.02,-0.96,-1.04,1.1,29.42,0.35,-0.39,-21.7,100.0,0.0,0.0,84.44,0.0,0.0,0.0,0.0,0.0,0.0,0.0,5661.0,0.0,30.0,3.0,105.9,0.0,0.0,0.0,0.0,0.0,0.0,1.0,0.0,4.909,4.909,84.921,21.577,0.0,110.0,435.8,8750.0,0.0,0.0,110.0,110.0,433.0,0.0,0.0,0.0,1.0,333.3,74.6,74.6,72.8,72.8,34.0,-2.6,-17.01,22.5,118.7,2.0,-167.09,-320.0,100.0,15.8,25.2,21.9,38.9,0.0,1.0,45.6,0.0,0.0,0.0,0.0,1323.0,5687.0,2505.0,6026.0,321.4,309.5,348.5,339.9,25.06,22.74,27.39,26.31,325.0,325.0,355.0,355.0,100.0,99.87,100.0,100.0,20.13,17.52,1.58,1.77,-0.8,-1.4,3.1,0.8,82.6,68.1,90.9,84.2,103.8,85.2,107.7,98.9,99.5,81.6,106.0,96.3,97.0,80.0,104.7,94.5,-20.55,17.58,0.1,0.05,0.0,83.3,85.99,84.44,84.44,356.7,7.7,1.3251792331605563,66.97891821874087,81.0228849213752,7.202033987623793,75.62135971516923,0,1
100,4.95,162.0,44.05329045364545,-78.68146295879603,-19.5,-5.5,-73.7,-56.6,3514.8,3515.0,106.0,0.0,1.0,1.0,0.0,1.0,1.0,0.0,0.0,0.0,100.0,1.0,1.186,26.0,0.0,-18.303,74.678,66.0,0.0,26.0,26.0,26.0,26.0,1.12,0.24,-0.13,387.7,0.73,-3.05,-1.93,-1.13,-684.64,541.79,5.9,0.0,0.0,0.0,0.0,0.1,-7.49,-7.49,-1.06,1.15,-1.05,-2.0,29.45,0.4,-0.37,-25.99,100.0,0.0,0.0,85.64,0.0,0.0,0.0,0.0,0.0,0.0,0.0,5741.0,0.0,30.0,3.0,106.0,1.0,0.0,0.0,0.0,0.0,0.0,1.0,0.0,4.959,4.959,84.921,21.577,1.0,110.0,435.8,8750.0,0.0,0.0,110.0,110.0,433.0,0.0,0.0,0.0,1.0,333.3,77.1,77.1,77.3,77.3,34.0,-1.04,-14.27,13.0,97.2,2.0,-167.14,-320.0,100.0,14.8,24.9,18.2,36.1,0.0,1.0,56.6,0.0,0.0,0.0,0.0,637.0,4865.0,2152.0,5776.0,323.3,311.2,349.8,341.1,25.06,22.74,27.39,26.31,325.0,325.0,355.0,355.0,100.0,99.87,100.0,100.0,20.1,17.37,1.93,2.01,-0.8,-1.7,4.8,2.1,82.6,68.2,91.0,84.2,103.8,85.6,107.6,98.9,99.5,81.9,105.9,96.2,97.1,80.3,104.7,94.5,-20.57,17.58,0.09,0.05,0.0,83.13,86.16,85.64,85.64,356.7,7.7,1.1527792503337315,69.1395284719304,87.14461403846498,-36.01017107616677,25.20712009473101,0,1
101,5.0,163.5,44.053281730225876,-78.68145171727596,9.5,-0.9,17.1,5.2,3516.3,3516.0,106.3,0.0,1.0,1.0,0.0,1.0,1.0,0.0,0.0,0.0,100.0,1.0,1.186,26.0,0.0,-18.402,74.678,66.0,0.0,26.0,26.0,26.0,26.0,1.37,0.13,0.1,385.0,0.08,-2.26,-2.53,-0.72,-683.39,540.82,5.9,0.0,0.0,0.0,0.0,0.1,-7.49,-7.49,-0.99,2.31,-1.16,-0.02,29.51,0.48,-0.32,-27.82,100.0,0.0,0.0,85.36,0.0,0.0,0.0,0.0,0.0,0.0,0.0,5722.0,0.0,30.0,3.0,106.3,0.0,0.0,0.0,0.0,0.0,0.0,1.0,0.0,5.013,5.013,84.921,21.577,0.0,110.0,435.8,8750.0,0.0,0.0,110.0,110.0,433.0,0.0,0.0,0.0,1.0,166.7,73.7,73.7,73.0,73.0,34.0,-2.25,-21.82,23.1,104.2,2.0,-167.19,-320.0,100.0,15.3,24.9,19.1,36.4,0.0,1.0,49.6,0.0,0.0,0.0,0.0,1168.0,7047.0,3046.0,5712.0,321.8,306.4,347.9,340.8,25.07,22.75,27.4,26.31,325.0,325.0,355.0,355.0,100.0,99.87,100.0,100.0,20.14,17.52,2.12,2.26,-1.1,-1.5,4.3,1.5,82.7,68.2,91.0,84.2,103.9,86.0,107.5,98.9,99.6,82.3,105.9,96.2,97.2,80.7,104.6,94.5,-20.55,17.57,0.1,0.06,0.0,83.11,86.46,85.36,85.36,356.7,7.7,1.3797825915701358,63.377901111124196,83.5435969308483,-72.02034186782171,-18.00508553808342,0,1
102,5.05,165.0,44.05327462558519,-78.68144209453477,-2.7,57.3,15.4,60.8,3517.8,3518.0,106.3,0.0,1.0,1.0,0.0,1.0,1.0,0.0,0.0,0.0,100.0,1.0,1.186,26.0,0.0,-18.402,74.678,66.0,0.0,26.0,26.0,26.0,26.0,1.21,0.02,-0.04,385.1,-0.09,-3.51,-1.34,-0.19,-682.32,540.03,5.9,0.0,0.0,0.0,0.0,0.1,-7.49,-7.49,-0.89,3.13,-1.1,-1.68,29.52,0.52,-0.32,-28.59,100.0,0.0,0.0,85.73,0.0,0.0,0.0,0.0,0.0,0.0,0.0,5747.0,0.0,30.0,3.0,106.3,1.0,0.0,0.0,0.0,0.0,0.0,1.0,0.0,5.059,5.059,84.921,21.577,1.0,110.0,435.8,8750.0,0.0,0.0,110.0,110.0,433.0,0.0,0.0,0.0,1.0,333.3,74.0,74.0,74.5,74.5,34.0,-1.42,-17.77,8.7,114.8,2.0,-167.24,-320.0,100.0,15.1,27.7,19.8,39.4,0.0,1.0,41.7,0.0,0.0,0.0,0.0,917.0,5809.0,1326.0,6319.0,323.1,308.6,351.8,340.0,25.07,22.76,27.4,26.32,325.0,325.0,355.0,355.0,100.0,99.87,100.0,100.0,20.17,17.44,2.27,2.33,-1.1,-1.5,4.4,1.5,82.7,68.2,91.0,84.2,103.9,86.4,107.5,98.8,99.6,82.6,105.8,96.2,97.2,81.0,104.6,94.5,-20.56,17.56,0.11,0.05,0.0,83.2,86.63,85.74,85.74,356.7,7.7,1.2108261642366338,61.93749428514823,85.34410548465664,-14.404068259759626,57.616273608062016,0,1
103,5.1,166.5,44.05326626189425,-78.6814304033539,-66.6,-167.0,47.6,41.2,3519.3,3519.0,106.5,0.0,1.0,1.0,0.0,1.0,1.0,0.0,0.0,0.0,100.0,1.0,1.186,26.0,0.0,-18.498,74.678,66.0,0.0,26.0,26.0,26.0,26.0,1.29,0.08,-0.08,386.4,-0.96,-3.13,-2.14,-0.36,-681.02,539.1,5.9,0.0,0.0,0.0,0.0,0.1,-7.49,-7.49,-0.81,-0.87,-1.24,-1.71,29.57,0.61,-0.24,-23.2,100.0,0.0,0.0,84.84,0.0,0.0,0.0,0.0,0.0,0.0,0.0,5687.0,0.0,30.0,3.0,106.5,0.0,0.0,0.0,0.0,0.0,0.0,1.0,0.0,5.111,5.111,84.921,21.577,0.0,110.0,435.8,8750.0,0.0,0.0,110.0,110.0,433.0,0.0,0.0,0.0,1.0,166.7,81.8,81.8,76.2,76.2,34.0,-2.12,-12.17,18.8,153.2,2.0,-167.29,-320.0,100.0,11.8,19.4,22.2,41.5,0.0,1.0,31.3,0.0,0.0,0.0,0.0,1224.0,4399.0,2046.0,7490.0,322.1,313.3,350.0,336.4,25.08,22.76,27.41,26.32,325.0,325.0,355.0,355.0,100.0,99.87,100.0,100.0,20.65,17.97,2.26,2.37,-0.9,-1.1,3.2,0.9,82.7,68.3,91.0,84.3,103.9,86.7,107.4,98.8,99.6,82.9,105.8,96.2,97.2,81.2,104.5,94.5,-20.61,17.65,0.09,0.05,0.0,83.21,86.45,84.83,84.83,356.7,7.7,1.2949517365523706,61.93749428514823,89.3052242916545,-57.616273892573844,0.0,0,1
104,5.15,167.9,44.053259157253564,-78.68141979135895,47.8,27.8,10.8,41.9,3520.8,3521.0,106.4,0.0,1.0,1.0,0.0,1.0,1.0,0.0,0.0,0.0,100.0,1.0,1.186,26.0,0.0,-18.591,74.678,66.0,0.0,26.0,26.0,26.0,26.0,1.48,-0.14,0.08,383.5,0.12,-2.77,-1.9,-0.61,-679.84,538.31,5.9,0.0,0.0,0.0,0.0,0.1,-7.49,-7.49,-1.01,-4.59,-1.27,0.59,29.55,0.5,-0.34,-20.55,100.0,0.0,0.0,84.19,0.0,0.0,0.0,0.0,0.0,0.0,0.0,5644.0,0.0,30.0,3.0,106.4,1.0,0.0,0.0,0.0,0.0,0.0,1.0,0.0,5.16,5.16,84.921,21.577,1.0,110.0,435.8,8750.0,0.0,0.0,110.0,110.0,433.0,0.0,0.0,0.0,1.0,333.3,75.6,75.6,75.3,75.3,34.0,-6.32,-16.95,31.1,111.6,2.0,-167.34,-320.0,100.0,14.2,20.8,22.8,43.6,0.0,1.0,20.2,0.0,0.0,0.0,0.0,2625.0,5732.0,3077.0,5891.0,317.6,309.7,348.0,340.7,25.08,22.77,27.41,26.33,325.0,325.0,355.0,355.0,100.0,99.87,100.0,100.0,20.49,17.98,1.86,1.99,-1.3,-1.4,2.7,0.5,82.8,68.3,91.1,84.3,104.0,87.0,107.4,98.8,99.7,83.2,105.7,96.2,97.3,81.5,104.5,94.5,-20.57,17.63,0.1,0.03,0.0,83.17,85.97,84.19,84.19,356.7,7.7,1.4887578715157144,56.17586689589085,85.34410548465664,-54.015256898761876,-7.202033987623935,0,1
105,5.2,169.4,44.0532522324772,-78.68140908943184,40.8,65.4,-107.7,-187.4,3522.2,3522.0,106.2,0.0,1.0,1.0,0.0,1.0,1.0,0.0,0.0,0.0,100.0,1.0,1.186,26.0,0.0,-18.687,74.678,66.0,0.0,26.0,26.0,26.0,26.0,1.09,-0.08,-0.31,388.6,-0.7,-3.94,-3.28,-1.33,-678.65,537.54,5.8,0.0,0.0,0.0,0.0,0.1,-7.49,-7.49,-1.17,-1.1,-1.19,1.46,29.48,0.51,-0.38,-24.21,100.0,0.0,0.0,84.07,0.0,0.0,0.0,0.0,0.0,0.0,0.0,5636.0,0.0,30.0,3.0,106.2,0.0,0.0,0.0,0.0,0.0,0.0,0.0,0.0,5.209,5.209,84.921,21.577,0.0,110.0,435.8,8750.0,0.0,0.0,110.0,110.0,433.0,0.0,0.0,0.0,1.0,166.7,75.7,75.7,81.8,81.8,34.0,-3.21,-13.44,16.2,77.9,2.0,-167.39,-320.0,100.0,16.2,24.1,17.4,34.2,0.0,1.0,9.5,0.0,0.0,0.0,0.0,1679.0,4683.0,1975.0,4347.0,321.1,312.0,350.5,344.3,25.09,22.77,27.42,26.33,325.0,325.0,355.0,355.0,100.0,99.87,100.0,100.0,20.33,17.67,1.97,2.1,-0.9,-1.5,2.5,0.5,82.8,68.3,91.1,84.3,104.1,87.3,107.3,98.8,99.8,83.5,105.6,96.2,97.4,81.8,104.4,94.5,-20.54,17.59,0.11,0.07,0.0,83.11,86.11,83.7,84.44,356.7,7.7,1.1360457737256893,56.535968595272045,88.5850208928921,0.0,64.81830816470975,0,1
106,5.25,170.9,44.053245037904354,-78.68139766804744,-112.4,-107.3,8.2,46.0,3523.7,3524.0,105.9,0.0,1.0,1.0,0.0,1.0,1.0,0.0,0.0,0.0,100.0,1.0,1.186,26.0,0.0,-18.777,74.678,66.0,0.0,26.0,26.0,26.0,26.0,1.08,-0.21,-0.24,390.9,-0.44,-3.43,-2.44,-0.71,-677.38,536.74,5.8,0.0,0.0,0.0,0.0,0.1,-7.49,-7.49,-1.27,-4.19,-1.07,0.39,29.4,0.59,-0.32,-20.96,100.0,0.0,0.0,82.12,0.0,0.0,0.0,0.0,0.0,0.0,0.0,5505.0,0.0,30.0,3.0,105.9,1.0,0.0,0.0,0.0,0.0,0.0,0.0,0.0,5.259,5.259,84.921,21.577,1.0,110.0,435.8,8750.0,0.0,0.0,110.0,110.0,433.0,0.0,0.0,0.0,1.0,333.3,84.8,84.8,82.3,82.3,34.0,-1.6,-7.98,22.3,128.5,2.0,-167.44,-320.0,100.0,10.6,18.7,17.8,36.5,0.0,1.0,0.0,0.0,0.0,0.0,0.0,1027.0,3199.0,1846.0,6449.0,323.0,316.8,350.0,339.2,25.09,22.78,27.42,26.34,325.0,325.0,355.0,355.0,100.0,99.87,100.0,100.0,20.02,18.0,2.04,2.23,-0.4,-0.8,-0.1,-0.4,82.8,68.4,91.1,84.3,104.1,87.6,107.3,98.8,99.8,83.7,105.6,96.2,97.4,82.0,104.3,94.5,-20.62,17.67,0.1,0.05,0.0,83.03,86.01,81.31,82.92,356.7,7.7,1.1260994627474077,56.17586689589085,91.82593630112761,-43.212205063790705,14.404067975248012,0,1
