,Time,Distance,GPS Latitude,GPS Longitude,Damper Velocity (Calc) FL,Damper Velocity (Calc) FR,Damper Velocity (Calc) RL,Damper Velocity (Calc) RR,Corr Dist,Corr Dist (Unstretched),Corr Speed,ABS Active,ABS Enabled,AID Allow Tire Blankets,AID Auto Blip,AID Auto Clutch,AID Auto Shift,AID Fuel Rate,AID Ideal Line,AID Mech Damage,AID Stability,AID Tire Wear Rate,Air Density,Air Temp,Ballast,Best Lap Delta,Best Lap Time,Brake Bias,Brake Pos,Brake Temp FL,Brake Temp FR,Brake Temp RL,Brake Temp RR,CG Accel Lateral,CG Accel Longitudinal,CG Accel Vertical,CG Height,Camber FL,Camber FR,Camber RL,Camber RR,Car Coord X,Car Coord Y,Car Coord Z,Car Damage Front,Car Damage Left,Car Damage Rear,Car Damage Right,Car Pos Norm,Caster FL,Caster FR,Chassis Pitch Angle,Chassis Pitch Rate,Chassis Roll Angle,Chassis Roll Rate,Chassis Velocity X,Chassis Velocity Y,Chassis Velocity Z,Chassis Yaw Rate,Clutch Pos,DRS Active,DRS Available,Drive Train Speed,ERS Heat Charging,ERS Is Charging,ERS Max Energy,ERS Power Level,ERS Recovery Level,Engine Brake Setting,Engine Limiter,Engine RPM,Flags,Fuel Level,Gear,Ground Speed,HR Sample Clock,In Pit,KERS Charge,KERS Deployed Energy,KERS Input,KERS Max Energy,LR Sample Clock,Lap Invalidated,Lap Time,Lap Time2,Last Lap Time,Last Sector Time,MR Sample Clock,Max Fuel,Max Power,Max RPM,Max Sus Travel FL,Max Sus Travel FR,Max Sus Travel RL,Max Sus Travel RR,Max Torque,Max Turbo Boost,Num Tires Off Track,Penalties Enabled,Position,Raw Data Sample Rate,Ride Height FL,Ride Height FR,Ride Height RL,Ride Height RR,Road Temp,Self Align Torque FL,Self Align Torque FR,Self Align Torque RL,Self Align Torque RR,Session Lap Count,Session Time Left,Steering Angle,Surface Grip,Suspension Travel FL,Suspension Travel FR,Suspension Travel RL,Suspension Travel RR,TC Active,TC Enabled,Throttle Pos,Tire Dirt Level FL,Tire Dirt Level FR,Tire Dirt Level RL,Tire Dirt Level RR,Tire Load FL,Tire Load FR,Tire Load RL,Tire Load RR,Tire Loaded Radius FL,Tire Loaded Radius FR,Tire Loaded Radius RL,Tire Loaded Radius RR,Tire Pressure FL,Tire Pressure FR,Tire Pressure RL,Tire Pressure RR,Tire Radius FL,Tire Radius FR,Tire Radius RL,Tire Radius RR,Tire Rubber Grip FL,Tire Rubber Grip FR,Tire Rubber Grip RL,Tire Rubber Grip RR,Tire Slip Angle FL,Tire Slip Angle FR,Tire Slip Angle RL,Tire Slip Angle RR,Tire Slip Ratio FL,Tire Slip Ratio FR,Tire Slip Ratio RL,Tire Slip Ratio RR,Tire Temp Core FL,Tire Temp Core FR,Tire Temp Core RL,Tire Temp Core RR,Tire Temp Inner FL,Tire Temp Inner FR,Tire Temp Inner RL,Tire Temp Inner RR,Tire Temp Middle FL,Tire Temp Middle FR,Tire Temp Middle RL,Tire Temp Middle RR,Tire Temp Outer FL,Tire Temp Outer FR,Tire Temp Outer RL,Tire Temp Outer RR,Toe In FL,Toe In FR,Toe In RL,Toe In RR,Turbo Boost,Wheel Angular Speed FL,Wheel Angular Speed FR,Wheel Angular Speed RL,Wheel Angular Speed RR,Wind Direction,Wind Speed,CG Distance,Lateral Velocity,Longitudinal Velocity,Lateral Acceleration,Longitudinal Acceleration,level,curve_number
741,37.0,1326.6,44.05543236791427,-78.68393645294096,11.4,27.9,-32.2,27.4,6434.7,6435.0,147.5,0.0,1.0,1.0,0.0,1.0,1.0,0.0,0.0,0.0,100.0,1.0,1.186,26.0,0.0,-1.77,50.194,66.0,0.0,26.0,26.0,26.0,26.0,-0.07,0.4,-0.01,385.3,-2.46,-2.46,-1.37,-1.56,-959.68,779.96,5.6,0.0,0.0,0.0,0.0,0.77,-7.49,-7.49,-1.18,-0.83,0.75,-1.75,40.98,-0.1,-0.4,-2.0,100.0,0.0,0.0,117.53,0.0,0.0,0.0,0.0,0.0,0.0,0.0,6269.0,0.0,30.0,4.0,147.5,1.0,0.0,0.0,0.0,0.0,0.0,0.0,0.0,37.034,37.034,50.194,16.866,1.0,110.0,435.8,8750.0,0.0,0.0,110.0,110.0,433.0,0.0,0.0,0.0,1.0,333.3,76.8,76.8,74.5,74.5,34.0,-18.9,11.11,-17.5,11.6,3.0,-221.365,-2.5,100.0,17.9,17.1,31.5,28.4,0.0,1.0,100.0,0.0,0.0,0.0,0.0,3612.0,3344.0,4176.0,4089.0,315.9,315.9,344.7,344.4,25.15,22.88,26.19,24.76,325.0,325.0,355.0,355.0,100.0,99.95,100.0,100.0,-0.11,-0.04,-0.16,0.0,-0.1,-0.1,2.2,2.0,83.2,69.0,83.5,74.5,88.7,71.1,88.0,77.4,85.2,68.0,86.2,74.9,82.5,66.4,85.0,73.8,-0.14,0.14,0.08,0.07,0.0,125.52,125.76,117.53,117.53,174.7,27.6,0.406201920231798,141.88007407992868,34.56976422173962,57.61627332355033,18.005086107107005,1,10
742,37.05,1328.6,44.05545071407503,-78.68393195633293,32.5,31.2,5.4,20.4,6436.8,6437.0,148.2,0.0,1.0,1.0,0.0,1.0,1.0,0.0,0.0,0.0,100.0,1.0,1.186,26.0,0.0,-1.767,50.194,66.0,0.0,26.0,26.0,26.0,26.0,-0.02,0.43,0.01,383.6,-2.45,-2.55,-1.37,-1.53,-959.18,782.0,5.6,0.0,0.0,0.0,0.0,0.77,-7.49,-7.49,-1.16,1.62,0.7,-0.05,41.18,-0.02,-0.37,-1.48,100.0,0.0,0.0,118.1,0.0,0.0,0.0,0.0,0.0,0.0,0.0,6300.0,0.0,30.0,4.0,148.2,0.0,0.0,0.0,0.0,0.0,0.0,0.0,0.0,37.086,37.086,50.194,16.866,0.0,110.0,435.8,8750.0,0.0,0.0,110.0,110.0,433.0,0.0,0.0,0.0,1.0,333.3,74.9,74.9,72.8,72.8,34.0,-15.3,14.71,-16.0,16.7,3.0,-221.415,-1.4,100.0,19.5,18.7,31.8,29.4,0.0,1.0,100.0,0.0,0.0,0.0,0.0,3663.0,3470.0,4651.0,4350.0,315.7,315.5,343.6,343.8,25.15,22.88,26.19,24.76,325.0,325.0,355.0,355.0,100.0,99.95,100.0,100.0,-0.02,0.02,-0.08,0.09,-0.1,-0.1,2.1,2.0,83.2,69.0,83.5,74.5,88.6,71.0,88.0,77.3,85.2,68.0,86.1,74.9,82.4,66.4,85.0,73.8,-0.09,0.08,0.08,0.07,0.0,126.3,126.43,118.1,118.1,174.7,27.6,0.4305810028322197,146.92149801352133,36.37027283245032,57.616273892573986,18.005086107107005,1,10
743,37.1,1330.7,44.05546906023579,-78.68392736979273,-13.5,26.8,39.6,60.5,6438.9,6439.0,149.0,0.0,1.0,1.0,0.0,1.0,1.0,0.0,0.0,0.0,100.0,1.0,1.186,26.0,0.0,-1.764,50.194,66.0,0.0,26.0,26.0,26.0,26.0,0.04,0.39,0.13,381.6,-2.62,-2.43,-1.49,-1.58,-958.67,784.04,5.6,0.0,0.0,0.0,0.0,0.77,-7.49,-7.49,-1.08,1.06,0.7,-1.11,41.39,0.02,-0.35,-0.97,100.0,0.0,0.0,118.41,0.0,0.0,0.0,0.0,0.0,0.0,0.0,6316.0,0.0,30.0,4.0,149.0,1.0,0.0,0.0,0.0,0.0,0.0,0.0,0.0,37.137,37.137,50.194,16.866,1.0,110.0,435.8,8750.0,0.0,0.0,110.0,110.0,433.0,0.0,0.0,0.0,1.0,333.3,74.8,74.8,67.7,67.7,34.0,-14.1,17.62,-16.1,23.3,3.0,-221.465,-0.3,100.0,18.8,20.0,33.7,32.4,0.0,1.0,100.0,0.0,0.0,0.0,0.0,3234.0,3828.0,5070.0,4888.0,316.9,314.5,342.5,342.4,25.15,22.88,26.2,24.76,325.0,325.0,355.0,355.0,100.0,99.95,100.0,100.0,-0.03,0.06,-0.02,0.13,-0.1,-0.1,1.8,1.7,83.2,69.0,83.5,74.5,88.5,71.0,87.9,77.3,85.1,67.9,86.1,74.9,82.4,66.4,85.0,73.8,-0.01,0.03,0.07,0.07,0.0,126.93,127.05,118.41,118.41,174.7,27.6,0.4130375285612677,147.64170146918607,36.37027283245032,14.404068828783352,-5.690235838073932e-07,1,10
744,37.15,1332.8,44.055487586260874,-78.6839228731847,19.0,20.5,19.6,32.5,6440.9,6441.0,149.7,0.0,1.0,1.0,0.0,1.0,1.0,0.0,0.0,0.0,100.0,1.0,1.186,26.0,0.0,-1.764,50.194,66.0,0.0,26.0,26.0,26.0,26.0,0.01,0.41,0.07,380.9,-2.56,-2.4,-1.61,-1.52,-958.17,786.1,5.5,0.0,0.0,0.0,0.0,0.78,-7.49,-7.49,-1.01,1.65,0.62,-2.19,41.59,0.03,-0.36,-0.38,100.0,0.0,0.0,119.1,0.0,0.0,0.0,0.0,0.0,0.0,0.0,6353.0,0.0,30.0,4.0,149.7,0.0,0.0,0.0,0.0,0.0,0.0,0.0,0.0,37.188,37.188,50.194,16.866,0.0,110.0,435.8,8750.0,0.0,0.0,110.0,110.0,433.0,0.0,0.0,0.0,1.0,166.7,73.8,73.8,68.9,68.9,34.0,-14.4,15.03,-13.7,23.4,3.0,-221.515,0.8,100.0,19.8,21.1,34.7,34.1,0.0,1.0,98.4,0.0,0.0,0.0,0.0,3433.0,3521.0,4385.0,5041.0,316.3,315.3,344.1,342.0,25.15,22.88,26.2,24.76,325.0,325.0,355.0,355.0,100.0,99.95,100.0,100.0,-0.02,0.04,-0.01,0.13,-0.1,-0.1,1.9,1.8,83.2,69.0,83.5,74.5,88.5,71.0,87.9,77.3,85.0,67.9,86.1,74.9,82.3,66.3,85.0,73.7,0.03,-0.02,0.07,0.06,0.0,127.59,127.62,119.1,119.1,174.7,27.6,0.41605288125429435,148.36190489639966,36.37027277554796,-32.4091540823548,-7.20203455664759,1,10
745,37.2,1334.9,44.055506112285954,-78.68391828664451,-7.4,-23.7,26.0,29.7,6443.0,6443.0,150.4,0.0,1.0,1.0,0.0,1.0,1.0,0.0,0.0,0.0,100.0,1.0,1.186,26.0,0.0,-1.761,50.194,66.0,0.0,26.0,26.0,26.0,26.0,-0.01,0.39,0.05,380.5,-2.53,-2.46,-1.52,-1.53,-957.66,788.16,5.5,0.0,0.0,0.0,0.0,0.78,-7.49,-7.49,-0.97,-0.18,0.51,-1.6,41.79,0.03,-0.35,0.49,100.0,0.0,0.0,119.27,0.0,0.0,0.0,0.0,0.0,0.0,0.0,6362.0,0.0,30.0,4.0,150.4,1.0,0.0,0.0,0.0,0.0,0.0,0.0,0.0,37.239,37.239,50.194,16.866,1.0,110.0,435.8,8750.0,0.0,0.0,110.0,110.0,433.0,0.0,0.0,0.0,1.0,166.7,75.3,75.3,66.6,66.6,34.0,-16.4,10.59,-19.4,21.8,3.0,-221.57,2.1,100.0,19.4,19.9,36.0,35.5,0.0,1.0,93.4,0.0,0.0,0.0,0.0,3361.0,3092.0,5307.0,4989.0,316.5,316.5,341.9,342.0,25.15,22.88,26.2,24.76,325.0,325.0,355.0,355.0,100.0,99.95,100.0,100.0,-0.08,-0.02,-0.04,0.1,-0.0,-0.1,1.6,1.6,83.2,69.0,83.5,74.5,88.4,70.9,87.9,77.3,85.0,67.9,86.0,74.9,82.3,66.3,84.9,73.7,0.11,-0.12,0.06,0.05,0.0,128.18,128.16,119.27,119.27,174.7,27.6,0.39331920878594273,144.4007860609506,35.65006937678556,-75.62135943065755,-18.00508553808342,1,10
746,37.25,1337.0,44.05552364905727,-78.6839139699008,-0.7,-4.7,-0.8,-18.8,6445.1,6445.0,151.0,0.0,1.0,1.0,0.0,1.0,1.0,0.0,0.0,0.0,100.0,1.0,1.186,26.0,0.0,-1.758,50.194,66.0,0.0,26.0,26.0,26.0,26.0,-0.04,0.36,-0.03,381.6,-2.54,-2.41,-1.5,-1.55,-957.18,790.11,5.5,0.0,0.0,0.0,0.0,0.78,-7.49,-7.49,-0.99,-0.1,0.47,-0.74,41.96,0.01,-0.37,1.38,100.0,0.0,0.0,119.9,0.0,0.0,0.0,0.0,0.0,0.0,0.0,6396.0,0.0,30.0,4.0,151.0,0.0,0.0,0.0,0.0,0.0,0.0,0.0,0.0,37.287,37.287,50.194,16.866,0.0,110.0,435.8,8750.0,0.0,0.0,110.0,110.0,433.0,0.0,0.0,0.0,1.0,333.3,74.9,74.9,68.8,68.8,34.0,-19.8,8.76,-17.2,15.9,3.0,-221.62,3.1,100.0,19.4,19.7,36.0,34.6,0.0,1.0,85.9,0.0,0.0,0.0,0.0,3457.0,3363.0,4361.0,4336.0,316.2,315.8,344.2,343.8,25.15,22.88,26.2,24.76,325.0,325.0,355.0,355.0,100.0,99.95,100.0,100.0,-0.14,-0.09,-0.09,0.06,-0.1,-0.1,1.7,1.7,83.2,69.0,83.5,74.5,88.3,70.9,87.8,77.3,84.9,67.8,86.0,74.9,82.2,66.3,84.9,73.7,0.19,-0.19,0.07,0.07,0.0,128.72,128.63,119.9,119.9,174.7,27.6,0.363455636907725,140.7997689533339,34.56976422173962,14.404068259759697,3.6010169938119674,1,10
747,37.3,1339.1,44.055541275760746,-78.6839096531571,-7.0,-15.8,-9.2,-2.1,6447.2,6447.0,151.6,0.0,1.0,1.0,0.0,1.0,1.0,0.0,0.0,0.0,100.0,1.0,1.186,26.0,0.0,-1.755,50.194,66.0,0.0,26.0,26.0,26.0,26.0,-0.09,0.32,-0.05,382.3,-2.46,-2.29,-1.48,-1.51,-956.7,792.07,5.5,0.0,0.0,0.0,0.0,0.78,-7.49,-7.49,-0.99,-0.55,0.42,-1.26,42.11,-0.01,-0.36,1.94,100.0,0.0,0.0,120.12,0.0,0.0,0.0,0.0,0.0,0.0,0.0,6407.0,0.0,30.0,4.0,151.6,1.0,0.0,0.0,0.0,0.0,0.0,0.0,0.0,37.336,37.336,50.194,16.866,1.0,110.0,435.8,8750.0,0.0,0.0,110.0,110.0,433.0,0.0,0.0,0.0,1.0,333.3,76.8,76.8,69.4,69.4,34.0,-17.8,5.59,-22.4,14.0,3.0,-221.665,3.2,100.0,19.0,18.9,35.5,34.5,0.0,1.0,78.1,0.0,0.0,0.0,0.0,3154.0,2746.0,4640.0,4540.0,317.0,317.6,343.5,343.2,25.15,22.88,26.2,24.76,325.0,325.0,355.0,355.0,100.0,99.95,100.0,100.0,-0.16,-0.11,-0.14,0.01,-0.1,-0.1,1.4,1.6,83.2,69.0,83.5,74.5,88.3,70.9,87.8,77.3,84.9,67.8,86.0,74.9,82.2,66.2,84.9,73.7,0.19,-0.19,0.06,0.06,0.0,129.21,129.04,120.12,120.12,174.7,27.6,0.3361547262794322,145.84119288692656,36.010171076166756,100.82847895636405,28.808137088542765,1,10
748,37.35,1341.2,44.055560071582306,-78.68390497668474,15.0,9.4,0.5,-15.2,6449.3,6449.0,152.1,0.0,1.0,1.0,0.0,1.0,1.0,0.0,0.0,0.0,100.0,1.0,1.186,26.0,0.0,-1.755,50.194,66.0,0.0,26.0,26.0,26.0,26.0,-0.11,0.26,0.03,381.4,-2.45,-2.41,-1.45,-1.63,-956.18,794.16,5.5,0.0,0.0,0.0,0.0,0.78,-7.49,-7.49,-1.04,-0.3,0.35,-1.39,42.27,-0.04,-0.38,2.22,100.0,0.0,0.0,120.49,0.0,0.0,0.0,0.0,0.0,0.0,0.0,6427.0,0.0,30.0,4.0,152.1,0.0,0.0,0.0,0.0,0.0,0.0,1.0,0.0,37.386,37.386,50.194,16.866,0.0,110.0,435.8,8750.0,0.0,0.0,110.0,110.0,433.0,0.0,0.0,0.0,1.0,333.3,73.6,73.6,69.3,69.3,34.0,-22.4,10.22,-23.8,9.9,3.0,-221.715,2.0,100.0,19.8,19.3,35.5,33.7,0.0,1.0,64.8,0.0,0.0,0.0,0.0,3985.0,3768.0,4512.0,3919.0,314.9,314.7,343.8,344.8,25.15,22.88,26.2,24.76,325.0,325.0,355.0,355.0,100.0,99.95,100.0,100.0,-0.13,-0.08,-0.18,-0.05,-0.1,-0.1,1.4,1.5,83.2,69.0,83.5,74.5,88.2,70.8,87.8,77.2,84.8,67.8,85.9,74.8,82.1,66.2,84.8,73.7,0.12,-0.14,0.06,0.05,0.0,129.72,129.54,120.49,120.49,174.7,27.6,0.28390139133156783,150.88261684897032,37.450577930593894,7.202034556647163,3.6010169938120384,1,10
749,37.4,1343.3,44.05557895733603,-78.6839003002124,20.6,14.6,-2.9,-11.6,6451.5,6451.0,152.6,0.0,1.0,1.0,0.0,1.0,1.0,0.0,0.0,0.0,100.0,1.0,1.186,26.0,0.0,-1.752,50.194,66.0,0.0,26.0,26.0,26.0,26.0,-0.1,0.23,0.06,380.9,-2.45,-2.4,-1.4,-1.54,-955.66,796.26,5.4,0.0,0.0,0.0,0.0,0.78,-7.49,-7.49,-0.99,1.06,0.29,-1.07,42.39,-0.07,-0.36,1.69,100.0,0.0,0.0,120.03,0.0,0.0,0.0,0.0,0.0,0.0,0.0,6403.0,0.0,30.0,4.0,152.6,1.0,0.0,0.0,0.0,0.0,0.0,1.0,0.0,37.437,37.437,50.194,16.866,1.0,110.0,435.8,8750.0,0.0,0.0,110.0,110.0,433.0,0.0,0.0,0.0,1.0,333.3,73.9,73.9,68.2,68.2,34.0,-16.9,11.53,-30.5,12.0,3.0,-221.77,0.0,100.0,20.8,20.1,35.4,33.2,0.0,1.0,30.9,0.0,0.0,0.0,0.0,3474.0,3411.0,5013.0,4712.0,316.2,315.7,342.7,342.9,25.15,22.88,26.2,24.76,325.0,325.0,355.0,355.0,100.0,99.95,100.0,100.0,-0.08,-0.03,-0.21,-0.05,-0.0,-0.0,0.8,1.0,83.2,69.0,83.5,74.5,88.2,70.8,87.7,77.2,84.8,67.7,85.9,74.8,82.0,66.2,84.8,73.6,0.03,-0.04,0.07,0.06,0.0,130.19,129.98,120.03,120.03,174.7,27.6,0.2578759391645526,146.56139634259128,36.37027277554796,-43.21220506379035,-7.202033987623722,1,10
750,37.45,1345.4,44.05559667397167,-78.68389589353653,-5.1,6.8,30.2,28.4,6453.6,6454.0,152.6,0.0,1.0,1.0,0.0,1.0,1.0,0.0,0.0,0.0,100.0,1.0,1.186,26.0,0.0,-1.749,50.194,66.0,0.0,26.0,26.0,26.0,26.0,-0.05,-0.17,0.04,380.7,-2.52,-2.49,-1.43,-1.6,-955.17,798.23,5.4,0.0,0.0,0.0,0.0,0.78,-7.49,-7.49,-1.01,-1.57,0.23,-1.2,42.39,-0.07,-0.41,0.39,100.0,0.0,0.0,118.79,0.0,0.0,0.0,0.0,0.0,0.0,0.0,6336.0,0.0,30.0,4.0,152.6,0.0,0.0,0.0,0.0,0.0,0.0,1.0,0.0,37.484,37.484,50.194,16.866,0.0,110.0,435.8,8750.0,0.0,0.0,110.0,110.0,433.0,0.0,0.0,0.0,1.0,333.3,73.5,73.5,67.2,67.2,34.0,-13.1,17.22,-27.3,12.6,3.0,-221.815,-2.6,100.0,20.5,20.4,36.9,34.6,0.0,1.0,0.0,0.0,0.0,0.0,0.0,3632.0,3549.0,4677.0,4049.0,316.0,315.3,343.3,344.4,25.15,22.88,26.2,24.76,325.0,325.0,355.0,355.0,100.0,99.95,100.0,100.0,0.02,0.08,-0.17,-0.03,-0.0,-0.0,-0.3,-0.3,83.2,69.0,83.5,74.5,88.1,70.8,87.7,77.2,84.7,67.7,85.9,74.8,82.0,66.1,84.7,73.6,-0.12,0.13,0.06,0.06,0.0,130.02,129.99,118.79,118.79,174.7,27.6,0.1816590212458495,146.56139634259128,36.73037453183152,43.21220506379035,14.404069113295037,1,10
751,37.5,1347.5,44.055615559725396,-78.68389112713201,72.0,40.3,-41.0,-16.4,6455.7,6456.0,152.3,0.0,1.0,1.0,0.0,1.0,1.0,0.0,0.0,0.0,100.0,1.0,1.186,26.0,0.0,-1.749,50.194,66.0,0.0,26.0,26.0,26.0,26.0,-0.02,-0.14,0.08,379.4,-2.52,-2.64,-1.53,-1.45,-954.64,800.33,5.4,0.0,0.0,0.0,0.0,0.78,-7.49,-7.49,-1.06,0.13,0.23,1.35,42.31,-0.05,-0.47,-1.0,100.0,0.0,0.0,118.62,0.0,0.0,0.0,0.0,0.0,0.0,0.0,6327.0,0.0,30.0,4.0,152.3,1.0,0.0,0.0,0.0,0.0,0.0,1.0,0.0,37.536,37.536,50.194,16.866,1.0,110.0,435.8,8750.0,0.0,0.0,110.0,110.0,433.0,0.0,0.0,0.0,1.0,333.3,68.2,68.2,72.4,72.4,34.0,-15.3,25.72,-20.3,13.4,3.0,-221.865,-4.1,100.0,24.1,22.4,34.9,33.8,0.0,1.0,0.0,0.0,0.0,0.0,0.0,4661.0,4133.0,3861.0,4140.0,313.2,313.7,345.4,344.3,25.15,22.88,26.2,24.76,325.0,325.0,355.0,355.0,100.0,99.95,100.0,100.0,0.07,0.16,-0.14,-0.0,-0.0,-0.0,-0.2,-0.3,83.2,69.0,83.5,74.5,88.0,70.7,87.6,77.1,84.7,67.7,85.8,74.7,81.9,66.1,84.7,73.6,-0.22,0.23,0.08,0.05,0.0,129.81,129.91,118.62,118.62,174.7,27.6,0.16248076809271922,150.88261684897032,37.810679686877464,-7.202034556647163,-3.6010175628356222,1,10
752,37.55,1349.7,44.05563435554696,-78.68388645065966,28.4,62.6,-16.8,14.6,6457.8,6458.0,152.1,0.0,1.0,1.0,0.0,1.0,1.0,0.0,0.0,0.0,100.0,1.0,1.186,26.0,0.0,-1.746,50.194,66.0,0.0,26.0,26.0,26.0,26.0,0.07,-0.17,0.26,376.7,-2.78,-2.66,-1.54,-1.51,-954.12,802.42,5.4,0.0,0.0,0.0,0.0,0.79,-7.49,-7.49,-0.99,2.39,0.31,1.45,42.24,-0.01,-0.48,-2.17,100.0,0.0,0.0,118.5,0.0,0.0,0.0,0.0,0.0,0.0,0.0,6321.0,0.0,30.0,4.0,152.1,0.0,0.0,0.0,0.0,0.0,0.0,1.0,0.0,37.587,37.587,50.194,16.866,0.0,110.0,435.8,8750.0,0.0,0.0,110.0,110.0,433.0,0.0,0.0,0.0,1.0,333.3,64.4,64.4,68.5,68.5,34.0,-16.7,36.58,-22.1,23.4,3.0,-221.915,-4.0,100.0,25.6,25.6,34.0,34.5,0.0,1.0,0.0,0.0,0.0,0.0,0.0,4756.0,5217.0,4861.0,4692.0,312.9,310.8,343.0,342.9,25.15,22.88,26.2,24.76,325.0,325.0,355.0,355.0,100.0,99.95,100.0,100.0,0.08,0.19,-0.06,0.1,-0.0,-0.0,-0.2,-0.3,83.2,69.0,83.5,74.5,88.0,70.7,87.5,77.1,84.6,67.6,85.7,74.7,81.9,66.1,84.6,73.5,-0.23,0.24,0.07,0.04,0.0,129.59,129.81,118.5,118.5,174.7,27.6,0.31843366656181316,145.84119288692656,36.37027277554796,-50.41423933592597,-14.404069113295037,1,10
753,37.6,1351.8,44.05565198225043,-78.6838820439838,-0.9,58.3,20.7,21.8,6459.9,6460.0,151.8,0.0,1.0,1.0,0.0,1.0,1.0,0.0,0.0,0.0,100.0,1.0,1.186,26.0,0.0,-1.746,50.194,66.0,0.0,26.0,26.0,26.0,26.0,0.1,-0.15,0.24,376.0,-2.92,-2.48,-1.67,-1.51,-953.63,804.38,5.4,0.0,0.0,0.0,0.0,0.79,-7.49,-7.49,-0.82,4.12,0.35,-1.05,42.17,0.03,-0.47,-2.58,100.0,0.0,0.0,118.38,0.0,0.0,0.0,0.0,0.0,0.0,0.0,6315.0,0.0,30.0,4.0,151.8,1.0,0.0,0.0,0.0,0.0,0.0,1.0,0.0,37.634,37.634,50.194,16.866,1.0,110.0,435.8,8750.0,0.0,0.0,110.0,110.0,433.0,0.0,0.0,0.0,1.0,333.3,64.3,64.3,64.8,64.8,34.0,-12.8,34.77,-15.6,34.2,3.0,-221.965,-2.7,100.0,25.5,28.5,35.1,35.6,0.0,1.0,0.0,0.0,0.0,0.0,0.0,3720.0,5272.0,4748.0,5249.0,315.6,310.6,343.4,341.5,25.16,22.88,26.21,24.76,325.0,325.0,355.0,355.0,100.0,99.95,100.0,100.0,0.09,0.17,0.04,0.2,-0.0,-0.0,-0.1,-0.3,83.2,69.0,83.5,74.5,87.9,70.7,87.5,77.0,84.5,67.6,85.7,74.7,81.8,66.1,84.6,73.5,-0.15,0.17,0.06,0.05,0.0,129.4,129.63,118.39,118.39,174.7,27.6,0.30016662039607267,145.84119291537772,36.37027277554796,43.21220563281429,7.2020345566474475,1,10
754,37.65,1353.9,44.055670778072,-78.68387736751144,-28.9,-42.3,38.8,58.8,6462.0,6462.0,151.6,0.0,1.0,1.0,0.0,1.0,1.0,0.0,0.0,0.0,100.0,1.0,1.186,26.0,0.0,-1.743,50.194,66.0,0.0,26.0,26.0,26.0,26.0,0.1,-0.13,0.08,377.0,-2.63,-2.47,-1.74,-1.67,-953.11,806.47,5.4,0.0,0.0,0.0,0.0,0.79,-7.49,-7.49,-0.69,0.65,0.22,-2.61,42.09,0.06,-0.46,-1.71,100.0,0.0,0.0,118.08,0.0,0.0,0.0,0.0,0.0,0.0,0.0,6299.0,0.0,30.0,4.0,151.6,0.0,0.0,0.0,0.0,0.0,0.0,1.0,0.0,37.686,37.686,50.194,16.866,0.0,110.0,435.8,8750.0,0.0,0.0,110.0,110.0,433.0,0.0,0.0,0.0,1.0,333.3,68.6,68.6,65.2,65.2,34.0,-10.8,19.63,-14.1,39.1,3.0,-222.015,-1.3,100.0,24.1,26.4,37.0,38.5,0.0,1.0,0.0,0.0,0.0,0.0,0.0,3571.0,3597.0,4860.0,5250.0,316.0,315.1,342.9,341.4,25.16,22.88,26.21,24.76,325.0,325.0,355.0,355.0,100.0,99.95,100.0,100.0,0.08,0.13,0.08,0.24,-0.0,-0.0,-0.1,-0.2,83.2,69.0,83.5,74.5,87.9,70.7,87.4,77.0,84.5,67.6,85.6,74.6,81.8,66.0,84.5,73.5,-0.06,0.07,0.06,0.05,0.0,129.08,129.21,118.08,118.08,174.7,27.6,0.1824828759089466,150.162413450208,37.090476231212705,-3.601017278323013,-7.202033987624006,1,10
755,37.7,1356.0,44.0556894839614,-78.68387278097126,-5.4,-47.7,-25.1,-27.8,6464.1,6464.0,151.3,0.0,1.0,1.0,0.0,1.0,1.0,0.0,0.0,0.0,100.0,1.0,1.186,26.0,0.0,-1.74,50.194,66.0,0.1,26.0,26.0,26.0,26.0,0.06,-0.15,-0.01,379.1,-2.58,-2.57,-1.56,-1.44,-952.6,808.55,5.4,0.0,0.0,0.0,0.0,0.79,-7.49,-7.49,-0.72,-0.62,0.15,0.04,42.02,0.06,-0.5,-1.06,100.0,0.0,0.0,117.8,0.0,0.0,0.0,0.0,0.0,0.0,0.0,6284.0,0.0,30.0,4.0,151.3,1.0,0.0,0.0,0.0,0.0,0.0,1.0,0.0,37.737,37.737,50.194,16.866,1.0,110.0,435.8,8750.0,0.0,0.0,110.0,110.0,433.0,0.0,0.0,0.0,1.0,333.3,68.5,68.5,70.0,70.0,34.0,-14.4,23.19,-11.9,22.4,3.0,-222.07,-0.9,100.0,23.8,24.0,35.7,37.1,0.0,1.0,0.0,0.0,0.0,0.0,0.0,4197.0,3971.0,4030.0,4007.0,314.4,314.2,345.0,344.6,25.16,22.88,26.21,24.76,325.0,325.0,355.0,355.0,100.0,99.95,100.0,100.0,0.06,0.14,0.04,0.17,-0.0,-0.0,-0.2,-0.3,83.2,69.0,83.5,74.5,87.8,70.6,87.4,77.0,84.4,67.6,85.6,74.6,81.7,66.0,84.4,73.4,-0.03,0.06,0.07,0.05,0.0,128.85,128.95,117.8,117.8,174.7,27.6,0.16186414056238646,145.48109118754542,35.65006937678556,-50.414239620438366,-14.404068544271453,1,10
756,37.75,1358.1,44.055707110664876,-78.68386846422754,-24.9,-2.1,-34.9,-64.9,6466.2,6466.0,151.0,0.0,1.0,1.0,0.0,1.0,1.0,0.0,0.0,0.0,100.0,1.0,1.186,26.0,0.0,-1.74,50.194,66.0,3.3,26.0,26.0,26.0,26.0,0.08,-0.2,-0.08,381.3,-2.72,-2.58,-1.52,-1.46,-952.12,810.51,5.4,0.0,0.0,0.0,0.0,0.79,-7.49,-7.49,-0.72,0.06,0.16,-0.34,41.94,0.06,-0.48,-0.99,100.0,0.0,0.0,117.55,0.0,0.0,0.0,0.0,0.0,0.0,0.0,6270.0,0.0,30.0,4.0,151.0,0.0,0.0,0.0,0.0,0.0,0.0,1.0,0.0,37.784,37.784,50.194,16.866,0.0,110.0,435.8,8750.0,0.0,0.0,110.0,110.0,433.0,0.0,0.0,0.0,1.0,333.3,70.8,70.8,69.6,69.6,34.0,-9.9,21.85,-12.4,24.7,3.0,-222.115,-0.9,100.0,22.5,23.9,34.0,33.9,0.0,1.0,0.0,0.0,0.0,0.0,0.0,3096.0,3846.0,4133.0,4140.0,317.2,314.3,344.8,344.4,25.16,22.88,26.21,24.76,325.0,325.0,355.0,355.0,100.0,99.95,100.0,100.0,0.07,0.12,0.03,0.2,-0.2,-0.1,-0.2,-0.3,83.2,69.0,83.5,74.5,87.8,70.6,87.3,76.9,84.4,67.5,85.5,74.5,81.7,66.0,84.4,73.4,-0.04,0.04,0.07,0.07,0.0,128.44,128.54,117.55,117.55,174.7,27.6,0.22978250586152119,145.12098948816416,35.65006937678556,36.01017107616627,10.803051550459628,1,10
757,37.8,1360.2,44.05572572662212,-78.68386387768736,-22.7,-34.4,-25.8,7.2,6468.3,6468.0,150.6,0.0,1.0,1.0,0.0,1.0,1.0,0.0,0.0,0.0,100.0,1.0,1.186,26.0,0.0,-1.737,50.194,66.0,14.9,26.0,26.0,26.0,26.0,0.07,-0.34,-0.08,382.3,-2.6,-2.53,-1.67,-1.39,-951.61,812.58,5.4,0.0,0.0,0.0,0.0,0.79,-7.49,-7.49,-0.79,-2.55,0.16,-0.45,41.81,0.05,-0.49,-0.55,100.0,0.0,0.0,116.86,0.0,0.0,0.0,0.0,0.0,0.0,0.0,6233.0,0.0,30.0,4.0,150.6,1.0,0.0,0.0,0.0,0.0,0.0,1.0,0.0,37.836,37.836,50.194,16.866,1.0,110.0,435.8,8750.0,0.0,0.0,110.0,110.0,433.0,0.0,0.0,0.0,1.0,333.3,71.4,71.4,74.5,74.5,34.0,-13.5,19.97,-10.7,23.2,3.0,-222.165,-0.5,100.0,21.4,22.1,32.7,34.2,0.0,1.0,0.0,0.0,0.0,0.0,0.0,3869.0,3757.0,3302.0,4238.0,315.4,314.9,346.9,344.0,25.16,22.88,26.21,24.76,325.0,325.0,355.0,355.0,100.0,99.95,100.0,100.0,0.04,0.12,0.02,0.17,-0.6,-0.6,-0.5,-0.5,83.2,69.0,83.5,74.5,87.7,70.6,87.3,76.9,84.3,67.5,85.4,74.5,81.6,66.0,84.3,73.4,-0.03,0.04,0.07,0.06,0.0,127.36,127.33,116.86,116.86,174.7,27.6,0.35623026261113755,149.08210829516204,36.73037453183152,-14.404068544271809,-3.6010169938118963,1,10
758,37.85,1362.2,44.05574434257936,-78.68385929114716,51.8,41.1,-51.2,-65.8,6470.4,6470.0,149.5,0.0,1.0,1.0,0.0,1.0,1.0,0.0,0.0,0.0,100.0,1.0,1.186,26.0,0.0,-1.74,50.194,66.0,45.3,26.0,26.0,26.0,26.0,-0.02,-0.84,-0.02,382.0,-2.57,-2.59,-1.5,-1.49,-951.1,814.65,5.4,0.0,0.0,0.0,0.0,0.79,-7.49,-7.49,-0.88,-0.82,0.13,-0.34,41.51,0.05,-0.56,-0.22,100.0,0.0,0.0,115.2,0.0,0.0,0.0,0.0,0.0,0.0,0.0,6145.0,0.0,30.0,4.0,149.5,0.0,0.0,0.0,0.0,0.0,0.0,0.0,0.0,37.887,37.887,50.194,16.866,0.0,110.0,435.8,8750.0,0.0,0.0,110.0,110.0,433.0,0.0,0.0,0.0,1.0,333.3,66.5,66.5,76.7,76.7,34.0,-22.1,15.8,-10.5,14.3,3.0,-222.215,2.6,100.0,24.0,24.2,30.2,30.9,0.0,1.0,0.0,0.0,0.0,0.0,0.0,4674.0,4730.0,3385.0,3127.0,313.2,312.1,346.7,346.9,25.16,22.88,26.21,24.76,325.0,325.0,355.0,355.0,100.0,99.95,100.0,100.0,-0.1,-0.02,-0.02,0.14,-1.9,-2.0,-1.2,-1.2,83.2,69.0,83.6,74.5,87.7,70.6,87.2,76.9,84.3,67.5,85.4,74.5,81.6,66.0,84.3,73.3,0.13,-0.13,0.08,0.06,0.0,124.84,124.74,115.2,115.2,174.7,27.6,0.8404760555780276,143.68058263373698,35.28996767740437,-72.02034186782186,-21.606103100919043,1,10
759,37.9,1364.3,44.055761609554196,-78.68385506433562,42.0,37.3,1.8,-19.2,6472.4,6472.0,147.8,0.0,1.0,1.0,0.0,1.0,1.0,0.0,0.0,0.0,100.0,1.0,1.186,26.0,0.0,-1.734,50.194,66.0,58.0,26.0,26.0,26.0,26.0,-0.09,-1.07,0.16,380.2,-2.72,-2.62,-1.43,-1.43,-950.63,816.57,5.4,0.0,0.0,0.0,0.0,0.79,-7.49,-7.49,-0.91,-0.64,0.11,-0.77,41.02,0.06,-0.62,1.48,100.0,0.0,0.0,113.71,0.0,0.0,0.0,0.0,0.0,0.0,0.0,6065.0,0.0,30.0,4.0,147.8,1.0,0.0,0.0,0.0,0.0,0.0,0.0,0.0,37.936,37.936,50.194,16.866,1.0,110.0,435.8,8750.0,0.0,0.0,110.0,110.0,433.0,0.0,0.0,0.0,1.0,166.7,63.7,63.7,75.9,75.9,34.0,-34.0,4.84,-13.4,17.8,3.0,-222.265,7.6,100.0,26.1,26.1,30.2,30.0,0.0,1.0,0.0,0.0,0.0,0.0,0.0,5012.0,4958.0,3783.0,3835.0,312.3,311.4,345.6,345.0,25.16,22.88,26.21,24.76,325.0,325.0,355.0,355.0,100.0,99.95,100.0,100.0,-0.3,-0.21,-0.05,0.14,-2.4,-2.5,-1.3,-1.3,83.2,69.0,83.6,74.5,87.6,70.6,87.1,76.8,84.3,67.5,85.3,74.4,81.6,66.0,84.2,73.3,0.4,-0.41,0.08,0.07,0.0,122.72,122.51,113.71,113.71,174.7,27.6,1.0856334556377674,141.88007410837986,34.56976422173962,3.6010172783244343,3.6010169938118963,1,10
760,37.95,1366.3,44.05577977585064,-78.68385065765975,73.2,22.3,-13.6,-25.5,6474.5,6474.0,145.7,0.0,1.0,1.0,0.0,1.0,1.0,0.0,0.0,0.0,100.0,1.0,1.186,26.0,0.0,-1.731,50.194,66.0,66.5,26.0,26.0,26.0,26.0,-0.23,-1.27,0.18,379.1,-2.65,-2.81,-1.42,-1.55,-950.14,818.59,5.4,0.0,0.0,0.0,0.0,0.8,-7.49,-7.49,-0.92,0.71,0.03,-1.45,40.42,0.04,-0.7,4.62,100.0,0.0,0.0,111.67,0.0,0.0,0.0,0.0,0.0,0.0,0.0,5957.0,0.0,30.0,4.0,145.7,0.0,0.0,0.0,0.0,0.0,0.0,0.0,0.0,37.986,37.986,50.194,16.866,0.0,110.0,435.8,8750.0,0.0,0.0,110.0,110.0,433.0,0.0,0.0,0.0,1.0,333.3,59.0,59.0,79.6,79.6,34.0,-60.6,-3.99,-16.9,9.4,3.0,-222.315,12.7,100.0,29.8,27.2,29.6,28.7,0.0,1.0,0.0,0.0,0.0,0.0,0.0,6447.0,5221.0,3710.0,3156.0,308.7,310.8,345.9,346.8,25.16,22.88,26.21,24.76,325.0,325.0,355.0,355.0,100.0,99.95,100.0,100.0,-0.52,-0.41,-0.17,0.02,-2.4,-3.0,-1.8,-1.7,83.2,69.0,83.6,74.5,87.7,70.6,87.1,76.8,84.3,67.5,85.3,74.4,81.6,66.0,84.2,73.3,0.7,-0.7,0.08,0.06,0.0,121.26,120.12,111.84,111.5,174.7,27.6,1.3031500297356402,144.04068436156942,35.65006937678556,-3.601017562835409,10.803051550459415,1,10
761,38.0,1368.3,44.055797582418435,-78.68384616105172,77.0,44.1,0.3,-47.4,6476.5,6476.0,143.3,0.0,1.0,1.0,0.0,1.0,1.0,0.0,0.0,0.0,100.0,1.0,1.186,26.0,0.0,-1.731,50.194,66.0,68.0,26.0,26.0,26.0,26.0,-0.42,-1.3,0.27,377.5,-2.58,-2.86,-1.24,-1.67,-949.64,820.57,5.4,0.0,0.0,0.0,0.0,0.8,-7.49,-7.49,-0.8,4.25,-0.04,-0.88,39.77,-0.03,-0.71,8.44,100.0,0.0,0.0,110.03,0.0,0.0,0.0,0.0,0.0,0.0,0.0,5869.0,0.0,30.0,4.0,143.3,1.0,0.0,0.0,0.0,0.0,0.0,0.0,0.0,38.037,38.037,50.194,16.866,1.0,110.0,435.8,8750.0,0.0,0.0,110.0,110.0,433.0,0.0,0.0,0.0,1.0,333.3,54.8,54.8,79.3,79.3,34.0,-80.3,-11.98,-31.1,1.3,3.0,-222.365,15.8,100.0,33.6,29.4,29.6,26.3,0.0,1.0,0.0,0.0,0.0,0.0,0.0,7085.0,5508.0,4253.0,3076.0,307.1,309.9,344.6,347.1,25.16,22.88,26.21,24.76,325.0,325.0,355.0,355.0,100.0,99.95,100.0,100.0,-0.7,-0.57,-0.42,-0.22,-2.3,-2.9,-1.7,-1.8,83.3,69.0,83.6,74.5,87.7,70.6,87.1,76.8,84.3,67.6,85.3,74.4,81.6,66.0,84.1,73.2,0.9,-0.88,0.08,0.07,0.0,119.67,118.27,110.45,109.6,174.7,27.6,1.392587519691312,141.51997235209632,35.65006937678556,-90.02542797492879,-10.803051550459415,1,10
762,38.05,1370.3,44.055815119189745,-78.68384175437585,-7.4,-15.5,50.0,8.6,6478.4,6478.0,141.0,0.0,1.0,1.0,0.0,1.0,1.0,0.0,0.0,0.0,100.0,1.0,1.186,26.0,0.0,-1.728,50.194,66.0,70.3,26.0,26.0,26.0,26.0,-0.48,-1.34,0.19,378.3,-2.57,-2.79,-1.12,-1.66,-949.15,822.52,5.4,0.0,0.0,0.0,0.0,0.8,-7.49,-7.49,-0.56,3.74,-0.05,-0.52,39.11,-0.14,-0.66,10.78,100.0,0.0,0.0,108.44,0.0,0.0,0.0,0.0,0.0,0.0,0.0,5784.0,0.0,30.0,4.0,141.0,0.0,0.0,0.0,0.0,0.0,0.0,0.0,0.0,38.088,38.088,50.194,16.866,0.0,110.0,435.8,8750.0,0.0,0.0,110.0,110.0,433.0,0.0,0.0,0.0,1.0,166.7,59.3,59.3,75.1,75.1,34.0,-55.8,-11.86,-50.9,-8.8,3.0,-222.415,17.3,100.0,33.2,28.6,32.1,26.8,0.0,1.0,0.0,0.0,0.0,0.0,0.0,5404.0,4268.0,4966.0,3762.0,311.2,313.3,342.8,345.3,25.16,22.88,26.21,24.76,325.0,325.0,355.0,355.0,100.0,99.95,100.0,100.0,-0.84,-0.74,-0.65,-0.46,-3.1,-4.1,-1.6,-1.6,83.3,69.0,83.6,74.5,87.7,70.7,87.0,76.7,84.3,67.6,85.2,74.4,81.6,66.0,84.1,73.2,1.0,-0.98,0.08,0.09,0.0,116.73,114.69,108.89,107.98,174.7,27.6,1.4360013927569848,135.03814156407654,34.56976422173962,-90.02542740590542,-3.6010169938118963,1,10
763,38.1,1372.2,44.055831306978654,-78.68383752756431,-65.0,-52.0,48.9,5.2,6480.3,6480.0,138.7,0.0,1.0,1.0,0.0,1.0,1.0,0.0,0.0,0.0,100.0,1.0,1.186,26.0,0.0,-1.728,50.194,66.0,68.7,26.0,26.0,26.0,26.0,-0.55,-1.33,0.03,380.8,-2.44,-2.75,-1.02,-1.69,-948.68,824.32,5.4,0.0,0.0,0.0,0.0,0.8,-7.49,-7.49,-0.51,-1.12,-0.15,-2.66,38.5,-0.25,-0.68,11.18,100.0,0.0,0.0,106.26,0.0,0.0,0.0,0.0,0.0,0.0,0.0,5668.0,0.0,30.0,4.0,138.7,1.0,0.0,0.0,0.0,0.0,0.0,0.0,0.0,38.136,38.136,50.194,16.866,1.0,110.0,435.8,8750.0,0.0,0.0,110.0,110.0,433.0,0.0,0.0,0.0,1.0,333.3,63.3,63.3,74.4,74.4,34.0,-56.3,-10.92,-50.8,-9.6,3.0,-222.465,18.9,100.0,30.0,26.0,34.5,27.0,0.0,1.0,0.0,0.0,0.0,0.0,0.0,5272.0,3694.0,4515.0,2565.0,311.7,314.9,343.8,348.3,25.16,22.88,26.21,24.76,325.0,325.0,355.0,355.0,100.0,99.95,100.0,100.0,-1.05,-0.96,-0.8,-0.64,-3.5,-5.2,-1.6,-1.9,83.3,69.0,83.6,74.5,87.7,70.7,87.0,76.7,84.3,67.6,85.2,74.3,81.6,66.1,84.1,73.2,1.08,-1.08,0.07,0.07,0.0,114.62,111.48,106.95,105.56,174.7,27.6,1.4395485403417283,132.51742961150578,35.28996767740437,-46.8132223421145,10.803051550459415,1,10
764,38.15,1374.1,44.055848214224845,-78.68383294102411,-15.4,-37.3,-67.6,-95.3,6482.2,6482.0,136.4,0.0,1.0,1.0,0.0,1.0,1.0,0.0,0.0,0.0,100.0,1.0,1.186,26.0,0.0,-1.725,50.194,66.0,68.7,26.0,26.0,26.0,26.0,-0.58,-1.26,-0.13,384.6,-2.26,-2.79,-0.88,-1.73,-948.17,826.2,5.4,0.0,0.0,0.0,0.0,0.8,-7.49,-7.49,-0.6,-1.89,-0.28,-2.34,37.86,-0.37,-0.71,13.2,100.0,0.0,0.0,103.73,0.0,0.0,0.0,0.0,0.0,0.0,0.0,5533.0,0.0,30.0,4.0,136.4,0.0,0.0,0.0,0.0,0.0,0.0,0.0,0.0,38.187,38.187,50.194,16.866,0.0,110.0,435.8,8750.0,0.0,0.0,110.0,110.0,433.0,0.0,0.0,0.0,1.0,333.3,64.5,64.5,81.5,81.5,34.0,-65.7,-11.28,-39.8,-8.4,3.0,-222.515,20.7,100.0,29.2,24.1,31.1,22.3,0.0,1.0,0.0,0.0,0.0,0.0,0.0,5440.0,3500.0,3426.0,1825.0,311.2,315.3,346.5,350.3,25.16,22.88,26.21,24.76,325.0,325.0,355.0,355.0,100.0,99.95,100.0,100.0,-1.26,-1.2,-1.07,-0.91,-3.3,-5.8,-2.1,-2.9,83.3,69.0,83.6,74.5,87.7,70.7,87.0,76.7,84.3,67.7,85.2,74.3,81.6,66.1,84.1,73.1,1.18,-1.19,0.08,0.08,0.0,112.79,108.81,104.71,102.75,174.7,27.6,1.3931618714277247,130.3568193298651,35.65006937678556,-46.81322262662604,7.202033987623864,1,10
765,38.2,1376.0,44.055863862420786,-78.68382862428041,-13.3,-57.5,-48.8,-68.2,6484.1,6484.0,134.3,0.0,1.0,1.0,0.0,1.0,1.0,0.0,0.0,0.0,100.0,1.0,1.186,26.0,0.0,-1.719,50.194,66.0,65.0,26.0,26.0,26.0,26.0,-0.7,-1.22,-0.14,386.9,-2.15,-2.88,-0.78,-1.66,-947.69,827.94,5.4,0.0,0.0,0.0,0.0,0.8,-7.49,-7.49,-0.7,-2.31,-0.36,-0.18,37.27,-0.5,-0.7,14.41,100.0,0.0,0.0,101.88,0.0,0.0,0.0,0.0,0.0,0.0,0.0,5434.0,0.0,30.0,4.0,134.3,1.0,0.0,0.0,0.0,0.0,0.0,0.0,0.0,38.234,38.234,50.194,16.866,1.0,110.0,435.8,8750.0,0.0,0.0,110.0,110.0,433.0,0.0,0.0,0.0,1.0,166.7,66.3,66.3,86.5,86.5,34.0,-86.2,0.1,-47.5,-9.2,3.0,-222.565,21.9,100.0,28.6,21.3,28.7,18.9,0.0,1.0,0.0,0.0,0.0,0.0,0.0,6124.0,2887.0,3559.0,1652.0,309.6,317.1,346.2,350.7,25.16,22.88,26.21,24.76,325.0,325.0,355.0,355.0,100.0,99.95,100.0,100.0,-1.5,-1.44,-1.35,-1.18,-3.0,-10.1,-2.0,-3.4,83.3,69.0,83.6,74.5,87.7,70.8,86.9,76.6,84.3,67.7,85.1,74.3,81.6,66.1,84.0,73.1,1.25,-1.27,0.09,0.08,0.0,111.61,101.95,103.13,100.62,174.7,27.6,1.4135062787267696,127.83610734884317,36.010171076166756,-10.803051265947374,21.606103100919043,1,10
766,38.25,1377.8,44.05588014014185,-78.68382394780805,21.5,-16.1,-52.0,-40.9,6485.9,6486.0,132.2,0.0,1.0,1.0,0.0,1.0,1.0,0.0,0.0,0.0,100.0,1.0,1.186,26.0,0.0,-1.713,50.194,66.0,52.7,26.0,26.0,26.0,26.0,-0.8,-1.11,-0.11,388.0,-2.18,-2.83,-0.72,-1.69,-947.17,829.75,5.4,0.0,0.0,0.0,0.0,0.8,-7.49,-7.49,-0.77,-0.22,-0.34,0.59,36.67,-0.64,-0.7,17.85,100.0,0.0,0.0,100.38,0.0,0.0,0.0,0.0,0.0,0.0,0.0,5355.0,0.0,30.0,4.0,132.2,0.0,0.0,0.0,0.0,0.0,0.0,0.0,0.0,38.286,38.286,50.194,16.866,0.0,110.0,435.8,8750.0,0.0,0.0,110.0,110.0,433.0,0.0,0.0,0.0,1.0,333.3,65.4,65.4,90.3,90.3,34.0,-100.7,-9.07,-46.3,-8.7,3.0,-222.615,22.8,100.0,29.6,20.5,26.1,16.8,0.0,1.0,0.0,0.0,0.0,0.0,0.0,6188.0,3363.0,3235.0,1284.0,309.3,315.8,347.1,351.7,25.16,22.88,26.21,24.76,325.0,325.0,355.0,355.0,100.0,99.95,100.0,100.0,-1.65,-1.59,-1.71,-1.54,-2.4,-6.9,-2.0,-3.3,83.3,69.0,83.6,74.5,87.7,70.8,86.9,76.6,84.4,67.8,85.1,74.2,81.7,66.2,84.0,73.1,1.3,-1.33,0.09,0.1,0.0,110.7,104.81,101.81,98.96,174.7,27.6,1.3726616480400406,129.27651420327035,37.810679686877464,-43.21220506379049,18.00508553808335,1,10
767,38.3,1379.6,44.05589614806644,-78.68381918140354,19.6,-0.5,22.4,-24.0,6487.7,6488.0,130.3,0.0,1.0,1.0,0.0,1.0,1.0,0.0,0.0,0.0,100.0,1.0,1.186,26.0,0.0,-1.71,50.194,66.0,42.9,26.0,26.0,26.0,26.0,-1.11,-0.9,0.04,386.2,-2.07,-2.91,-0.67,-1.83,-946.64,831.53,5.5,0.0,0.0,0.0,0.0,0.8,-7.49,-7.49,-0.7,2.49,-0.4,-2.02,36.16,-0.77,-0.64,21.06,100.0,0.0,0.0,99.84,0.0,0.0,0.0,0.0,0.0,0.0,0.0,5326.0,0.0,30.0,4.0,130.3,1.0,0.0,0.0,0.0,0.0,0.0,0.0,0.0,38.337,38.337,50.194,16.866,1.0,110.0,435.8,8750.0,0.0,0.0,110.0,110.0,433.0,0.0,0.0,0.0,1.0,333.3,64.5,64.5,86.7,86.7,34.0,-125.4,-27.69,-86.0,-16.6,3.0,-222.665,24.2,100.0,30.6,20.4,27.2,15.6,0.0,1.0,0.0,0.0,0.0,0.0,0.0,6870.0,3165.0,4775.0,1722.0,307.7,316.3,343.3,350.6,25.17,22.88,26.21,24.76,325.0,325.0,355.0,355.0,100.0,99.95,100.0,100.0,-1.84,-1.74,-2.07,-1.87,-1.8,-3.2,-1.4,-2.5,83.3,69.0,83.6,74.5,87.8,70.9,86.9,76.6,84.4,67.8,85.1,74.2,81.7,66.2,84.0,73.0,1.41,-1.42,0.09,0.1,0.0,110.09,106.65,101.2,98.48,174.7,27.6,1.4295803580072022,123.51488684246412,37.81067962997509,-79.22237613995762,18.005084969059766,1,10
768,38.35,1381.4,44.05591098687294,-78.68381450493119,39.1,-14.5,70.1,14.7,6489.5,6490.0,128.9,0.0,1.0,1.0,0.0,1.0,1.0,0.0,0.0,0.0,100.0,1.0,1.186,26.0,0.0,-1.707,50.194,66.0,36.4,26.0,26.0,26.0,26.0,-1.26,-0.75,0.04,384.7,-2.07,-3.19,-0.51,-2.04,-946.12,833.18,5.5,0.0,0.0,0.0,0.0,0.8,-7.49,-7.49,-0.52,4.07,-0.5,-1.81,35.77,-0.87,-0.57,22.46,100.0,0.0,0.0,99.28,0.0,0.0,0.0,0.0,0.0,0.0,0.0,5296.0,0.0,30.0,4.0,128.9,0.0,0.0,0.0,0.0,0.0,0.0,1.0,0.0,38.384,38.384,50.194,16.866,0.0,110.0,435.8,8750.0,0.0,0.0,110.0,110.0,433.0,0.0,0.0,0.0,1.0,333.3,64.8,64.8,83.9,83.9,34.0,-132.2,-20.48,-105.8,-23.9,3.0,-222.715,25.2,100.0,32.6,19.7,30.7,16.3,0.0,1.0,0.0,0.0,0.0,0.0,0.0,6910.0,2428.0,5483.0,2041.0,307.5,318.3,341.6,349.8,25.17,22.88,26.21,24.76,325.0,325.0,355.0,355.0,100.0,99.95,100.0,100.0,-1.98,-1.91,-2.3,-2.12,-1.5,-3.3,-1.1,-1.8,83.3,69.0,83.6,74.5,87.8,70.9,86.9,76.5,84.4,67.8,85.1,74.2,81.7,66.2,84.0,73.0,1.46,-1.47,0.08,0.09,0.0,109.2,105.35,100.5,98.06,174.7,27.6,1.4668674105044395,121.35427658927459,39.61118818378344,-7.20203427213562,43.21220563281436,1,10
769,38.4,1383.2,44.05592645520456,-78.68380928886587,-32.2,-71.2,123.6,33.9,6491.3,6491.0,127.5,0.0,1.0,1.0,0.0,1.0,1.0,0.0,0.0,0.0,100.0,1.0,1.186,26.0,0.0,-1.701,50.194,66.0,45.3,26.0,26.0,26.0,26.0,-1.17,-0.78,-0.03,385.3,-2.0,-3.18,-0.58,-2.06,-945.54,834.9,5.5,0.0,0.0,0.0,0.0,0.81,-7.49,-7.49,-0.37,0.55,-0.57,0.38,35.37,-0.94,-0.5,19.41,100.0,0.0,0.0,97.94,0.0,0.0,0.0,0.0,0.0,0.0,0.0,5224.0,0.0,30.0,4.0,127.5,1.0,0.0,0.0,0.0,0.0,0.0,1.0,0.0,38.436,38.436,50.194,16.866,1.0,110.0,435.8,8750.0,0.0,0.0,110.0,110.0,433.0,0.0,0.0,0.0,1.0,333.3,71.0,71.0,78.3,78.3,34.0,-96.0,-0.04,-119.3,-27.0,3.0,-222.765,26.9,100.0,31.0,16.2,36.9,18.0,0.0,1.0,0.0,0.0,0.0,0.0,0.0,5708.0,944.0,6008.0,2232.0,310.6,322.3,340.2,349.2,25.17,22.88,26.21,24.76,325.0,325.0,355.0,355.0,100.0,99.95,100.0,100.0,-2.27,-2.29,-2.37,-2.19,-2.3,-9.5,-1.2,-1.9,83.3,69.0,83.6,74.5,87.8,70.9,86.9,76.5,84.4,67.8,85.1,74.2,81.7,66.2,84.0,73.0,1.54,-1.57,0.07,0.09,0.0,106.8,96.48,99.06,96.82,174.7,27.6,1.406484980367725,122.79468341525056,42.13190019325653,-43.21220563281457,25.20712009473087,1,10
770,38.45,1384.9,44.0559416537397,-78.6838039828684,-34.9,-24.6,8.6,26.6,6493.1,6493.0,125.9,0.0,1.0,1.0,0.0,1.0,1.0,0.0,0.0,0.0,100.0,1.0,1.186,26.0,0.0,-1.698,50.194,66.0,46.5,26.0,26.0,26.0,26.0,-1.17,-0.94,0.02,385.5,-1.97,-2.93,-0.7,-2.15,-944.95,836.59,5.5,0.0,0.0,0.0,0.0,0.81,-7.49,-7.49,-0.48,-3.99,-0.47,1.69,34.92,-0.9,-0.56,17.12,100.0,0.0,0.0,96.35,0.0,0.0,0.0,0.0,0.0,0.0,0.0,5140.0,0.0,30.0,4.0,125.9,0.0,0.0,0.0,0.0,0.0,0.0,1.0,0.0,38.487,38.487,50.194,16.866,0.0,110.0,435.8,8750.0,0.0,0.0,110.0,110.0,433.0,0.0,0.0,0.0,1.0,333.3,69.5,69.5,80.3,80.3,34.0,-105.7,-3.18,-79.5,-20.2,3.0,-222.815,28.6,100.0,29.2,14.9,37.3,19.4,0.0,1.0,0.0,0.0,0.0,0.0,0.0,6305.0,2535.0,4440.0,1804.0,309.1,318.2,343.9,350.2,25.17,22.87,26.21,24.76,325.0,325.0,355.0,355.0,100.0,99.95,100.0,100.0,-2.48,-2.46,-2.23,-2.09,-2.4,-8.2,-1.4,-1.9,83.3,69.0,83.6,74.5,87.9,70.9,86.9,76.5,84.5,67.8,85.1,74.1,81.8,66.2,84.0,73.0,1.64,-1.69,0.07,0.09,0.0,105.2,97.83,97.34,95.36,174.7,27.6,1.500966355385756,117.03305602599313,42.13190019325653,-79.22237642446916,18.005084969059695,1,10
771,38.5,1386.6,44.05595568315675,-78.68379876680308,30.4,80.4,-91.2,-89.4,6494.8,6495.0,124.3,0.0,1.0,1.0,0.0,1.0,1.0,0.0,0.0,0.0,100.0,1.0,1.186,26.0,0.0,-1.695,50.194,66.0,26.4,26.0,26.0,26.0,26.0,-1.26,-0.74,-0.0,385.8,-2.05,-2.98,-0.59,-2.03,-944.37,838.15,5.5,0.0,0.0,0.0,0.0,0.81,-7.49,-7.49,-0.6,-0.17,-0.44,-0.32,34.5,-0.91,-0.62,22.58,100.0,0.0,0.0,94.93,0.0,0.0,0.0,0.0,0.0,0.0,0.0,5063.0,0.0,30.0,4.0,124.3,1.0,0.0,0.0,0.0,0.0,0.0,1.0,0.0,38.534,38.534,50.194,16.866,1.0,110.0,435.8,8750.0,0.0,0.0,110.0,110.0,433.0,0.0,0.0,0.0,1.0,333.3,64.2,64.2,84.0,84.0,34.0,-143.6,-42.56,-72.5,-8.4,3.0,-222.865,29.1,100.0,30.7,18.9,32.8,14.9,0.0,1.0,0.0,0.0,0.0,0.0,0.0,7313.0,3507.0,4156.0,1068.0,306.6,315.5,344.8,352.3,25.17,22.87,26.21,24.76,325.0,325.0,355.0,355.0,100.0,99.95,100.0,100.0,-2.36,-2.25,-2.42,-2.29,-1.4,-2.2,-1.4,-3.3,83.3,69.0,83.6,74.5,87.9,70.9,86.9,76.5,84.5,67.8,85.1,74.1,81.8,66.2,84.0,72.9,1.68,-1.7,0.08,0.09,0.0,105.79,103.06,96.72,93.14,174.7,27.6,1.4612323566086265,114.87244577280364,43.9324086901625,-3.601016993811754,50.4142390514145,1,10
772,38.55,1388.3,44.05597034209893,-78.68379301114481,82.6,37.0,4.7,-11.0,6496.5,6496.0,123.4,0.0,1.0,1.0,0.0,1.0,1.0,0.0,0.0,0.0,100.0,1.0,1.186,26.0,0.0,-1.689,50.194,66.0,8.4,26.0,26.0,26.0,26.0,-1.44,-0.33,0.13,383.9,-2.08,-3.4,-0.45,-2.06,-943.73,839.78,5.5,0.0,0.0,0.0,0.0,0.81,-7.49,-7.49,-0.4,6.25,-0.57,-2.31,34.24,-1.0,-0.56,26.88,100.0,0.0,0.0,95.8,0.0,0.0,0.0,0.0,0.0,0.0,0.0,5110.0,0.0,30.0,4.0,123.4,0.0,0.0,0.0,0.0,0.0,0.0,1.0,0.0,38.586,38.586,50.194,16.866,0.0,110.0,435.8,8750.0,0.0,0.0,110.0,110.0,433.0,0.0,0.0,0.0,1.0,333.3,63.1,63.1,83.0,83.0,34.0,-154.8,-21.62,-111.2,-22.2,3.0,-222.915,27.7,100.0,34.9,20.8,33.0,14.3,0.0,1.0,0.0,0.0,0.0,0.0,0.0,7405.0,1896.0,5690.0,1775.0,306.0,319.6,341.0,350.6,25.17,22.87,26.21,24.75,325.0,325.0,355.0,355.0,100.0,99.95,100.0,100.0,-2.22,-2.16,-2.75,-2.6,-0.4,-0.9,-0.6,-1.0,83.3,69.0,83.6,74.5,87.9,70.9,86.9,76.4,84.5,67.8,85.1,74.1,81.8,66.2,84.0,72.9,1.63,-1.64,0.08,0.1,0.0,106.14,103.21,97.01,94.6,174.7,27.6,1.4830374236680612,116.67295432661196,47.17332409839798,-28.80813708854319,36.010171645190496,1,10
773,38.6,1390.1,44.055984821176786,-78.68378698569005,-64.4,-128.2,143.0,121.6,6498.2,6498.0,122.9,0.0,1.0,1.0,0.0,1.0,1.0,0.0,0.0,0.0,100.0,1.0,1.186,26.0,0.0,-1.686,50.194,66.0,1.2,26.0,26.0,26.0,26.0,-1.38,-0.16,0.04,383.8,-1.88,-3.34,-0.41,-2.26,-943.06,841.39,5.5,0.0,0.0,0.0,0.0,0.81,-7.49,-7.49,-0.08,4.12,-0.65,-0.76,34.11,-1.06,-0.41,22.46,100.0,0.0,0.0,95.73,0.0,0.0,0.0,0.0,0.0,0.0,0.0,5107.0,0.0,30.0,4.0,122.9,1.0,0.0,0.0,0.0,0.0,0.0,1.0,0.0,38.637,38.637,50.194,16.866,1.0,110.0,435.8,8750.0,0.0,0.0,110.0,110.0,433.0,0.0,0.0,0.0,1.0,333.3,72.5,72.5,74.9,74.9,34.0,-108.8,-4.29,-139.1,-44.4,3.0,-222.97,25.5,100.0,31.6,14.4,40.2,20.4,0.0,1.0,0.0,0.0,0.0,0.0,0.0,5615.0,504.0,6713.0,2954.0,310.8,323.6,338.4,347.4,25.17,22.87,26.21,24.75,325.0,325.0,355.0,355.0,100.0,99.95,100.0,100.0,-2.33,-2.37,-2.77,-2.57,-0.1,-0.5,-0.4,-0.3,83.3,69.0,83.6,74.5,88.0,70.9,87.0,76.4,84.6,67.8,85.2,74.1,81.8,66.2,84.1,72.9,1.48,-1.52,0.05,0.1,0.0,105.63,103.28,96.58,94.89,174.7,27.6,1.389820132247335,111.99163206394933,47.533425854681546,-57.616273892573986,25.20712009473087,1,10
774,38.65,1391.8,44.05599831100087,-78.68378114009961,-59.6,-55.9,88.9,43.7,6499.9,6500.0,122.6,0.0,1.0,1.0,0.0,1.0,1.0,0.0,0.0,0.0,100.0,1.0,1.186,26.0,0.0,-1.68,50.194,66.0,0.0,26.0,26.0,26.0,26.0,-1.29,-0.15,0.01,384.1,-1.9,-3.3,-0.66,-2.49,-942.41,842.89,5.6,0.0,0.0,0.0,0.0,0.81,-7.49,-7.49,-0.02,-1.06,-0.58,3.53,34.02,-0.98,-0.38,17.32,100.0,0.0,0.0,95.4,0.0,0.0,0.0,0.0,0.0,0.0,0.0,5089.0,0.0,30.0,4.0,122.6,0.0,0.0,0.0,0.0,0.0,0.0,1.0,0.0,38.686,38.686,50.194,16.866,0.0,110.0,435.8,8750.0,0.0,0.0,110.0,110.0,433.0,0.0,0.0,0.0,1.0,166.7,74.9,74.9,71.7,71.7,34.0,-107.1,-9.51,-125.6,-32.1,3.0,-223.015,24.6,100.0,28.7,11.6,44.6,22.6,0.0,1.0,0.0,0.0,0.0,0.0,0.0,5567.0,967.0,6066.0,2358.0,310.9,322.5,339.9,348.9,25.17,22.87,26.22,24.75,325.0,325.0,355.0,355.0,100.0,99.95,100.0,100.0,-2.43,-2.41,-2.46,-2.34,-0.1,-0.1,-0.3,-0.2,83.3,68.9,83.6,74.5,88.0,70.8,87.0,76.4,84.6,67.8,85.2,74.0,81.9,66.2,84.1,72.9,1.42,-1.45,0.05,0.07,0.0,105.04,103.54,96.05,94.75,174.7,27.6,1.298730149030198,110.91132693735456,49.694036107871064,39.61118863900239,75.6213591461453,1,10
775,38.7,1393.5,44.056012520282245,-78.68377457505188,5.7,50.8,-77.5,-19.3,6501.6,6502.0,122.2,0.0,1.0,1.0,0.0,1.0,1.0,0.0,0.0,0.0,100.0,1.0,1.186,26.0,0.0,-1.674,50.194,66.0,0.1,26.0,26.0,26.0,26.0,-1.31,-0.18,0.06,383.7,-1.89,-3.17,-0.71,-2.28,-941.68,844.47,5.6,0.0,0.0,0.0,0.0,0.81,-7.49,-7.49,-0.07,-0.02,-0.41,2.48,33.94,-0.86,-0.41,17.82,100.0,0.0,0.0,95.16,0.0,0.0,0.0,0.0,0.0,0.0,0.0,5076.0,0.0,30.0,4.0,122.2,1.0,0.0,0.0,0.0,0.0,0.0,1.0,0.0,38.736,38.736,50.194,16.866,1.0,110.0,435.8,8750.0,0.0,0.0,110.0,110.0,433.0,0.0,0.0,0.0,1.0,333.3,69.7,69.7,76.2,76.2,34.0,-139.9,-28.41,-100.5,-25.7,3.0,-223.065,25.4,100.0,28.9,14.1,40.7,21.6,0.0,1.0,0.0,0.0,0.0,0.0,0.0,6862.0,2320.0,5126.0,2040.0,307.7,318.7,342.4,349.8,25.17,22.87,26.22,24.75,325.0,325.0,355.0,355.0,100.0,99.95,100.0,100.0,-2.28,-2.18,-2.26,-2.13,-0.1,-0.0,-0.4,-0.2,83.3,68.9,83.6,74.5,88.0,70.8,87.0,76.4,84.6,67.7,85.2,74.0,81.9,66.2,84.1,72.9,1.46,-1.48,0.06,0.08,0.0,104.88,103.37,95.81,94.5,174.7,27.6,1.3236691429507603,115.95275092784956,55.095561769296076,-28.80813680403108,36.01017107616677,1,10
776,38.75,1395.1,44.05602726915659,-78.68376738047904,60.0,49.5,-26.2,5.8,6503.3,6503.0,121.8,0.0,1.0,1.0,0.0,1.0,1.0,0.0,0.0,0.0,100.0,1.0,1.186,26.0,0.0,-1.671,50.194,66.0,7.4,26.0,26.0,26.0,26.0,-1.35,-0.24,0.14,382.1,-1.99,-3.23,-0.63,-2.34,-940.88,846.11,5.6,0.0,0.0,0.0,0.0,0.81,-7.49,-7.49,0.05,3.49,-0.36,-0.06,33.83,-0.75,-0.41,19.52,100.0,0.0,0.0,94.84,0.0,0.0,0.0,0.0,0.0,0.0,0.0,5059.0,0.0,30.0,4.0,121.8,0.0,0.0,0.0,0.0,0.0,0.0,1.0,0.0,38.79,38.79,50.194,16.866,0.0,110.0,435.8,8750.0,0.0,0.0,110.0,110.0,433.0,0.0,0.0,0.0,1.0,166.7,67.2,67.2,76.3,76.3,34.0,-140.2,-23.71,-115.3,-32.3,3.0,-223.12,27.1,100.0,31.9,16.6,39.4,21.9,0.0,1.0,0.0,0.0,0.0,0.0,0.0,6888.0,2078.0,5738.0,2492.0,307.6,319.3,340.9,348.5,25.18,22.87,26.22,24.75,325.0,325.0,355.0,355.0,100.0,99.95,100.0,100.0,-2.06,-2.02,-2.14,-1.99,-0.4,-0.5,-0.5,-0.3,83.3,68.9,83.6,74.4,88.0,70.8,87.0,76.4,84.6,67.7,85.2,74.0,81.9,66.1,84.1,72.8,1.54,-1.58,0.07,0.08,0.0,104.41,102.4,95.6,94.07,174.7,27.6,1.3782960494755836,108.03051325695145,53.29505321548774,-126.03559905109549,-14.404068544271311,1,10
777,38.8,1396.8,44.05603949993042,-78.68376126509212,-10.0,-5.5,61.5,27.9,6505.0,6505.0,121.2,0.0,1.0,1.0,0.0,1.0,1.0,0.0,0.0,0.0,100.0,1.0,1.186,26.0,0.0,-1.665,50.194,66.0,17.2,26.0,26.0,26.0,26.0,-1.29,-0.43,0.18,381.2,-1.93,-3.09,-0.68,-2.31,-940.2,847.47,5.6,0.0,0.0,0.0,0.0,0.81,-7.49,-7.49,0.19,1.57,-0.34,0.38,33.66,-0.67,-0.41,18.25,100.0,0.0,0.0,94.14,0.0,0.0,0.0,0.0,0.0,0.0,0.0,5021.0,0.0,30.0,4.0,121.2,1.0,0.0,0.0,0.0,0.0,0.0,1.0,0.0,38.836,38.836,50.194,16.866,1.0,110.0,435.8,8750.0,0.0,0.0,110.0,110.0,433.0,0.0,0.0,0.0,1.0,333.3,69.1,69.1,70.8,70.8,34.0,-115.6,-19.8,-133.2,-38.8,3.0,-223.165,29.0,100.0,31.4,16.3,42.5,23.3,0.0,1.0,0.0,0.0,0.0,0.0,0.0,5969.0,1903.0,6463.0,3008.0,309.8,319.8,339.0,347.2,25.18,22.87,26.22,24.75,325.0,325.0,355.0,355.0,100.0,99.95,100.0,100.0,-2.05,-2.04,-1.99,-1.82,-0.8,-1.7,-0.6,-0.6,83.3,68.9,83.6,74.4,88.0,70.8,87.0,76.3,84.6,67.7,85.2,74.0,81.9,66.1,84.1,72.8,1.65,-1.7,0.06,0.08,0.0,103.27,100.77,94.88,93.39,174.7,27.6,1.3716413525408164,103.34919102274002,53.655154914868945,-3.6010169938120384,54.01525661425012,1,10
778,38.85,1398.5,44.05605307968668,-78.68375398058711,-16.9,-7.2,9.9,-5.6,6506.6,6507.0,120.4,0.0,1.0,1.0,0.0,1.0,1.0,0.0,0.0,0.0,100.0,1.0,1.186,26.0,0.0,-1.659,50.194,66.0,24.3,26.0,26.0,26.0,26.0,-1.2,-0.51,0.07,382.3,-1.93,-3.11,-0.71,-2.3,-939.39,848.98,5.6,0.0,0.0,0.0,0.0,0.81,-7.49,-7.49,0.2,-0.69,-0.28,2.75,33.41,-0.59,-0.45,18.3,100.0,0.0,0.0,93.15,0.0,0.0,0.0,0.0,0.0,0.0,0.0,4969.0,0.0,30.0,4.0,120.4,0.0,0.0,0.0,0.0,0.0,0.0,0.0,0.0,38.886,38.886,50.194,16.866,0.0,110.0,435.8,8750.0,0.0,0.0,110.0,110.0,433.0,0.0,0.0,0.0,1.0,333.3,68.8,68.8,73.3,73.3,34.0,-132.4,-18.39,-107.9,-22.9,3.0,-223.215,32.1,100.0,30.6,16.0,43.0,23.1,0.0,1.0,0.0,0.0,0.0,0.0,0.0,6754.0,1927.0,5575.0,2091.0,308.1,319.9,341.2,349.5,25.18,22.87,26.22,24.75,325.0,325.0,355.0,355.0,100.0,99.95,100.0,100.0,-2.13,-2.1,-1.85,-1.7,-1.1,-2.5,-0.7,-0.9,83.4,68.9,83.6,74.4,88.0,70.8,87.0,76.3,84.7,67.7,85.2,73.9,81.9,66.1,84.1,72.8,1.82,-1.86,0.05,0.09,0.0,102.18,99.1,93.99,92.31,174.7,27.6,1.3057564857200594,107.67041155757025,58.69657887691275,-7.202034272135762,43.21220563281429,1,10
779,38.9,1400.2,44.05606638964644,-78.68374660614994,34.8,46.0,-96.5,-15.7,6508.3,6508.0,119.3,0.0,1.0,1.0,0.0,1.0,1.0,0.0,0.0,0.0,100.0,1.0,1.186,26.0,0.0,-1.653,50.194,66.0,26.0,26.0,26.0,26.0,26.0,-1.26,-0.59,0.12,382.3,-2.11,-3.15,-0.73,-2.12,-938.57,850.46,5.7,0.0,0.0,0.0,0.0,0.82,-7.49,-7.49,0.22,1.73,-0.12,1.24,33.11,-0.57,-0.5,22.26,100.0,0.0,0.0,92.28,0.0,0.0,0.0,0.0,0.0,0.0,0.0,4922.0,0.0,30.0,4.0,119.3,1.0,0.0,0.0,0.0,0.0,0.0,0.0,0.0,38.937,38.937,50.194,16.866,1.0,110.0,435.8,8750.0,0.0,0.0,110.0,110.0,433.0,0.0,0.0,0.0,1.0,333.3,65.0,65.0,78.7,78.7,34.0,-139.1,-32.07,-87.8,-27.8,3.0,-223.27,35.5,100.0,32.3,18.3,38.2,22.3,0.0,1.0,0.0,0.0,0.0,0.0,0.0,7015.0,2877.0,4754.0,2322.0,307.3,317.3,343.3,348.9,25.18,22.87,26.22,24.75,325.0,325.0,355.0,355.0,100.0,99.95,100.0,100.0,-2.12,-2.05,-1.95,-1.82,-1.1,-2.0,-0.9,-1.0,83.4,68.9,83.6,74.4,88.1,70.8,87.0,76.3,84.7,67.7,85.2,73.9,82.0,66.1,84.1,72.8,2.01,-2.05,0.06,0.09,0.0,101.49,98.68,93.24,91.32,174.7,27.6,1.39645980966156,102.62898759552644,57.97637547815037,-68.4193251585215,7.202033987623935,1,10
780,38.95,1401.8,44.056078710352445,-78.68373950150925,9.4,2.4,-9.3,-28.8,6509.9,6510.0,118.3,0.0,1.0,1.0,0.0,1.0,1.0,0.0,0.0,0.0,100.0,1.0,1.186,26.0,0.0,-1.647,50.194,66.0,22.7,26.0,26.0,26.0,26.0,-1.32,-0.53,0.1,382.9,-2.08,-3.25,-0.61,-2.13,-937.78,851.83,5.7,0.0,0.0,0.0,0.0,0.82,-7.49,-7.49,0.38,3.63,-0.11,0.84,32.83,-0.62,-0.46,24.59,100.0,0.0,0.0,91.66,0.0,0.0,0.0,0.0,0.0,0.0,0.0,4890.0,0.0,30.0,4.0,118.3,0.0,0.0,0.0,0.0,0.0,0.0,0.0,0.0,38.984,38.984,50.194,16.866,0.0,110.0,435.8,8750.0,0.0,0.0,110.0,110.0,433.0,0.0,0.0,0.0,1.0,333.3,66.6,66.6,77.0,77.0,34.0,-131.9,-17.05,-124.7,-27.0,3.0,-223.315,37.8,100.0,32.8,18.4,37.7,20.8,0.0,1.0,0.0,0.0,0.0,0.0,0.0,6661.0,1728.0,6128.0,2189.0,308.0,320.1,339.9,349.4,25.18,22.86,26.22,24.75,325.0,325.0,355.0,355.0,100.0,99.95,100.0,100.0,-2.21,-2.19,-2.15,-2.02,-1.0,-2.3,-0.7,-1.1,83.4,68.9,83.6,74.4,88.1,70.8,87.0,76.3,84.7,67.7,85.2,73.9,82.0,66.1,84.1,72.7,2.16,-2.21,0.07,0.09,0.0,100.89,97.29,92.8,90.53,174.7,27.6,1.4259382875847046,100.8284790417181,59.416782275675146,-7.202034272135762,50.41423905141443,1,10
781,39.0,1403.4,44.056091570651404,-78.68373176734345,-40.1,-40.6,38.0,23.1,6511.6,6512.0,117.3,0.0,1.0,1.0,0.0,1.0,1.0,0.0,0.0,0.0,100.0,1.0,1.186,26.0,0.0,-1.641,50.194,66.0,16.5,26.0,26.0,26.0,26.0,-1.31,-0.44,0.02,384.1,-2.13,-3.18,-0.74,-2.16,-936.92,853.26,5.7,0.0,0.0,0.0,0.0,0.82,-7.49,-7.49,0.47,-0.02,-0.02,1.14,32.57,-0.66,-0.43,22.99,100.0,0.0,0.0,91.05,0.0,0.0,0.0,0.0,0.0,0.0,0.0,4856.0,0.0,30.0,4.0,117.3,1.0,0.0,0.0,0.0,0.0,0.0,0.0,0.0,39.036,39.036,50.194,16.866,1.0,110.0,435.8,8750.0,0.0,0.0,110.0,110.0,433.0,0.0,0.0,0.0,1.0,333.3,70.7,70.7,75.6,75.6,34.0,-106.3,-10.05,-118.7,-36.5,3.0,-223.365,41.3,100.0,30.8,16.4,39.6,22.0,0.0,1.0,0.0,0.0,0.0,0.0,0.0,5667.0,1163.0,5847.0,2681.0,310.6,321.8,340.5,348.0,25.18,22.86,26.22,24.75,325.0,325.0,355.0,355.0,100.0,99.95,100.0,100.0,-2.52,-2.55,-2.2,-2.06,-0.9,-2.8,-0.6,-0.6,83.4,68.9,83.6,74.4,88.1,70.7,87.0,76.2,84.7,67.7,85.2,73.9,82.0,66.1,84.1,72.7,2.33,-2.41,0.07,0.09,0.0,100.01,96.14,92.0,90.09,174.7,27.6,1.3820636743652588,101.90878416831286,63.017799383291816,-39.61118806997874,32.409154082354945,1,10
782,39.05,1405.1,44.05610416115389,-78.68372376338115,-30.6,-19.0,-3.9,-24.3,6513.2,6513.0,116.6,0.0,1.0,1.0,0.0,1.0,1.0,0.0,0.0,0.0,100.0,1.0,1.186,26.0,0.0,-1.638,50.194,66.0,8.4,26.0,26.0,26.0,26.0,-1.31,-0.3,-0.1,385.5,-2.17,-3.03,-0.64,-2.33,-936.03,854.66,5.8,0.0,0.0,0.0,0.0,0.82,-7.49,-7.49,0.4,-1.54,0.01,-0.24,32.38,-0.68,-0.47,23.99,100.0,0.0,0.0,90.53,0.0,0.0,0.0,0.0,0.0,0.0,0.0,4829.0,0.0,30.0,4.0,116.6,0.0,0.0,0.0,0.0,0.0,0.0,0.0,0.0,39.087,39.087,50.194,16.866,0.0,110.0,435.8,8750.0,0.0,0.0,110.0,110.0,433.0,0.0,0.0,0.0,1.0,333.3,70.7,70.7,77.1,77.1,34.0,-112.6,-21.15,-100.3,-20.3,3.0,-223.415,46.9,100.0,29.3,15.4,39.4,20.8,0.0,1.0,0.0,0.0,0.0,0.0,0.0,6061.0,1785.0,5132.0,1712.0,309.7,320.1,342.3,350.6,25.18,22.86,26.22,24.75,325.0,325.0,355.0,355.0,100.0,99.95,100.0,100.0,-2.82,-2.85,-2.25,-2.12,-0.6,-1.1,-0.6,-0.5,83.4,68.9,83.6,74.4,88.2,70.7,87.0,76.2,84.7,67.6,85.2,73.8,82.0,66.1,84.1,72.7,2.63,-2.72,0.07,0.09,0.0,99.76,97.19,91.51,89.55,174.7,27.6,1.3476275449841475,96.86736023472022,62.65769768391064,-68.41932487400953,10.803051550459628,1,10
783,39.1,1406.7,44.056115762402605,-78.6837161191475,6.7,-13.4,-36.1,-51.8,6514.8,6515.0,116.1,0.0,1.0,1.0,0.0,1.0,1.0,0.0,0.0,0.0,100.0,1.0,1.186,26.0,0.0,-1.632,50.194,66.0,9.4,26.0,26.0,26.0,26.0,-1.35,-0.33,-0.08,386.9,-1.97,-3.04,-0.66,-2.4,-935.18,855.95,5.8,0.0,0.0,0.0,0.0,0.82,-7.49,-7.49,0.37,0.27,0.02,1.16,32.22,-0.74,-0.46,27.09,100.0,0.0,0.0,90.08,0.0,0.0,0.0,0.0,0.0,0.0,0.0,4805.0,0.0,30.0,4.0,116.1,1.0,0.0,0.0,0.0,0.0,0.0,0.0,0.0,39.134,39.134,50.194,16.866,1.0,110.0,435.8,8750.0,0.0,0.0,110.0,110.0,433.0,0.0,0.0,0.0,1.0,333.3,71.2,71.2,80.9,80.9,34.0,-117.5,-10.45,-99.9,-20.1,3.0,-223.465,51.9,100.0,29.6,14.7,37.6,18.2,0.0,1.0,0.0,0.0,0.0,0.0,0.0,6531.0,1055.0,5130.0,1659.0,308.5,322.0,342.3,350.8,25.18,22.86,26.22,24.75,325.0,325.0,355.0,355.0,100.0,99.95,100.0,100.0,-3.09,-3.16,-2.49,-2.37,-0.6,-1.5,-0.6,-0.6,83.4,68.9,83.6,74.4,88.2,70.7,87.0,76.2,84.8,67.6,85.2,73.8,82.1,66.0,84.1,72.7,2.94,-3.04,0.07,0.1,0.0,99.36,96.06,91.2,88.95,174.7,27.6,1.3920488497175665,95.06685168091191,64.09810453833778,-7.20203427213562,50.41423962043794,1,10
784,39.15,1408.3,44.05612790324429,-78.68370775545657,-16.1,-42.8,-21.0,12.2,6516.4,6516.0,115.4,0.0,1.0,1.0,0.0,1.0,1.0,0.0,0.0,0.0,100.0,1.0,1.186,26.0,0.0,-1.626,50.194,66.0,11.4,26.0,26.0,26.0,26.0,-1.38,-0.32,-0.11,387.8,-2.01,-3.01,-0.77,-2.21,-934.25,857.3,5.8,0.0,0.0,0.0,0.0,0.82,-7.49,-7.49,0.37,-0.69,0.14,2.41,32.04,-0.85,-0.42,27.34,100.0,0.0,0.0,89.53,0.0,0.0,0.0,0.0,0.0,0.0,0.0,4776.0,0.0,30.0,4.0,115.4,0.0,0.0,0.0,0.0,0.0,0.0,0.0,0.0,39.186,39.186,50.194,16.866,0.0,110.0,435.8,8750.0,0.0,0.0,110.0,110.0,433.0,0.0,0.0,0.0,1.0,333.3,74.0,74.0,81.8,81.8,34.0,-87.4,-5.14,-101.7,-31.2,3.0,-223.515,57.5,100.0,28.8,12.6,36.6,18.8,0.0,1.0,0.0,0.0,0.0,0.0,0.0,5812.0,808.0,5289.0,2255.0,310.3,322.9,341.9,349.2,25.18,22.86,26.22,24.74,325.0,325.0,355.0,355.0,100.0,99.95,100.0,100.0,-3.56,-3.66,-2.73,-2.61,-0.8,-3.2,-0.6,-0.6,83.4,68.9,83.6,74.4,88.2,70.7,87.0,76.2,84.8,67.6,85.3,73.8,82.1,66.0,84.1,72.6,3.23,-3.37,0.07,0.09,0.0,98.55,93.88,90.62,88.44,174.7,27.6,1.4208800090085016,96.14715680750666,67.69912164595443,-36.01017136067895,32.4091540823548,1,10
785,39.2,1409.9,44.056139774289484,-78.68369921190131,-8.2,-0.8,14.6,-9.6,6518.0,6518.0,114.7,0.0,1.0,1.0,0.0,1.0,1.0,0.0,0.0,0.0,100.0,1.0,1.186,26.0,0.0,-1.623,50.194,66.0,16.5,26.0,26.0,26.0,26.0,-1.49,-0.43,-0.02,387.4,-2.1,-3.06,-0.53,-2.21,-933.3,858.62,5.9,0.0,0.0,0.0,0.0,0.82,-7.49,-7.49,0.29,-1.68,0.2,0.57,31.82,-0.9,-0.45,28.63,100.0,0.0,0.0,88.64,0.0,0.0,0.0,0.0,0.0,0.0,0.0,4728.0,0.0,30.0,4.0,114.7,1.0,0.0,0.0,0.0,0.0,0.0,0.0,0.0,39.237,39.237,50.194,16.866,1.0,110.0,435.8,8750.0,0.0,0.0,110.0,110.0,433.0,0.0,0.0,0.0,1.0,166.7,72.6,72.6,80.5,80.5,34.0,-83.0,-10.09,-104.1,-16.8,3.0,-223.565,63.0,100.0,28.4,12.6,37.3,18.3,0.0,1.0,0.0,0.0,0.0,0.0,0.0,6441.0,1432.0,5475.0,1416.0,308.7,321.1,341.4,351.3,25.18,22.86,26.22,24.74,325.0,325.0,355.0,355.0,100.0,99.95,100.0,100.0,-3.93,-4.01,-2.89,-2.78,-1.2,-3.0,-0.7,-1.0,83.4,68.9,83.6,74.4,88.3,70.7,87.0,76.1,84.9,67.6,85.3,73.8,82.2,66.0,84.2,72.6,3.56,-3.69,0.08,0.09,0.0,97.5,93.24,89.95,87.33,174.7,27.6,1.5509352017411946,91.46583454484401,67.33901994657326,-72.02034215233354,14.404068544271524,1,10
786,39.25,1411.4,44.056150746013074,-78.68369093814253,-6.0,6.1,-11.0,-49.7,6519.6,6520.0,113.8,0.0,1.0,1.0,0.0,1.0,1.0,0.0,0.0,0.0,100.0,1.0,1.186,26.0,0.0,-1.617,50.194,66.0,18.9,26.0,26.0,26.0,26.0,-1.46,-0.48,-0.05,388.6,-2.13,-3.0,-0.54,-2.36,-932.38,859.84,5.9,0.0,0.0,0.0,0.0,0.82,-7.49,-7.49,0.22,-1.01,0.24,0.34,31.58,-1.01,-0.45,31.19,100.0,0.0,0.0,87.8,0.0,0.0,0.0,0.0,0.0,0.0,0.0,4683.0,0.0,30.0,4.0,113.8,0.0,0.0,0.0,0.0,0.0,0.0,0.0,0.0,39.284,39.284,50.194,16.866,0.0,110.0,435.8,8750.0,0.0,0.0,110.0,110.0,433.0,0.0,0.0,0.0,1.0,333.3,73.1,73.1,81.4,81.4,34.0,-63.1,-6.04,-89.7,-17.1,3.0,-223.615,67.7,100.0,28.1,12.9,36.7,15.8,0.0,1.0,0.0,0.0,0.0,0.0,0.0,6161.0,1280.0,5145.0,1492.0,309.4,321.5,342.3,351.1,25.18,22.86,26.22,24.74,325.0,325.0,355.0,355.0,100.0,99.95,100.0,100.0,-4.27,-4.39,-3.19,-3.09,-1.5,-3.9,-0.9,-1.3,83.4,68.9,83.6,74.4,88.4,70.7,87.1,76.1,85.0,67.6,85.3,73.7,82.2,66.0,84.2,72.6,3.81,-3.97,0.08,0.1,0.0,96.59,91.48,89.26,86.33,174.7,27.6,1.537693077307692,88.94512259227331,69.13952850038159,-21.606102247383063,50.41423905141443,1,10
787,39.3,1413.0,44.05616198753315,-78.68368194492648,-8.1,-20.8,3.2,0.1,6521.2,6521.0,112.8,0.0,1.0,1.0,0.0,1.0,1.0,0.0,0.0,0.0,100.0,1.0,1.186,26.0,0.0,-1.617,50.194,66.0,24.7,26.0,26.0,26.0,26.0,-1.41,-0.49,-0.16,389.1,-1.89,-2.95,-0.57,-2.46,-931.38,861.09,5.9,0.0,0.0,0.0,0.0,0.82,-7.49,-7.49,0.14,-2.33,0.27,1.63,31.3,-1.16,-0.45,30.76,100.0,0.0,0.0,86.73,0.0,0.0,0.0,0.0,0.0,0.0,0.0,4626.0,0.0,30.0,4.0,112.8,1.0,0.0,0.0,0.0,0.0,0.0,0.0,0.0,39.336,39.336,50.194,16.866,1.0,110.0,435.8,8750.0,0.0,0.0,110.0,110.0,433.0,0.0,0.0,0.0,1.0,333.3,74.6,74.6,82.6,82.6,34.0,-38.4,0.58,-84.3,-15.9,3.0,-223.665,72.6,100.0,27.7,11.8,36.9,15.8,0.0,1.0,0.0,0.0,0.0,0.0,0.0,6284.0,570.0,5232.0,1494.0,309.2,323.4,342.0,351.1,25.19,22.86,26.22,24.74,325.0,325.0,355.0,355.0,100.0,99.95,100.0,100.0,-4.84,-4.99,-3.48,-3.38,-2.1,-9.0,-1.0,-1.7,83.4,68.8,83.6,74.4,88.4,70.7,87.1,76.1,85.0,67.6,85.3,73.7,82.3,66.0,84.2,72.6,4.09,-4.27,0.08,0.1,0.0,94.99,85.33,88.28,85.18,174.7,27.6,1.501266132302997,89.30522432010571,72.3804438517147,-21.606102816407144,43.212205063790634,1,10
788,39.35,1414.6,44.05617304918891,-78.68367286177826,10.4,-7.5,-40.1,0.7,6522.7,6523.0,111.7,0.0,1.0,1.0,0.0,1.0,1.0,0.0,0.0,0.0,100.0,1.0,1.186,26.0,0.0,-1.611,50.194,66.0,29.1,26.0,26.0,26.0,26.0,-1.44,-0.66,-0.07,389.0,-2.03,-2.84,-0.47,-2.33,-930.37,862.32,6.0,0.0,0.0,0.0,0.0,0.82,-7.49,-7.49,-0.01,-2.64,0.42,2.9,30.97,-1.29,-0.48,31.12,100.0,0.0,0.0,85.46,0.0,0.0,0.0,0.0,0.0,0.0,0.0,4559.0,0.0,30.0,4.0,111.7,0.0,0.0,0.0,0.0,0.0,0.0,1.0,0.0,39.387,39.387,50.194,16.866,0.0,110.0,435.8,8750.0,0.0,0.0,110.0,110.0,433.0,0.0,0.0,0.0,1.0,333.3,72.5,72.5,85.8,85.8,34.0,-15.3,2.0,-64.0,-12.8,3.0,-223.72,77.8,100.0,28.2,11.5,34.9,15.9,0.0,1.0,0.0,0.0,0.0,0.0,0.0,6771.0,1547.0,4672.0,1392.0,307.9,320.9,343.4,351.4,25.19,22.85,26.22,24.74,325.0,325.0,355.0,355.0,100.0,99.95,100.0,100.0,-5.4,-5.54,-3.77,-3.71,-2.7,-10.7,-1.4,-2.2,83.4,68.8,83.6,74.4,88.5,70.7,87.1,76.1,85.1,67.6,85.3,73.7,82.4,66.0,84.2,72.6,4.38,-4.58,0.07,0.09,0.0,93.43,84.76,87.15,83.78,174.7,27.6,1.5855913723276878,86.78451231063259,73.46074900676065,-75.62135971516923,3.601017562835551,1,10
789,39.4,1416.1,44.05618366118385,-78.68366359876572,6.0,8.9,-33.3,-34.1,6524.2,6524.0,110.4,1.0,1.0,1.0,0.0,1.0,1.0,0.0,0.0,0.0,100.0,1.0,1.186,26.0,0.0,-1.608,50.194,66.0,29.1,26.0,26.0,26.0,26.0,-1.39,-0.63,-0.1,390.2,-2.16,-2.92,-0.48,-2.17,-929.34,863.5,6.0,0.0,0.0,0.0,0.0,0.82,-7.49,-7.49,-0.13,-1.49,0.54,3.13,30.62,-1.45,-0.48,32.66,100.0,0.0,0.0,84.25,0.0,0.0,0.0,0.0,0.0,0.0,0.0,4565.0,0.0,30.0,0.0,110.4,1.0,0.0,0.0,0.0,0.0,0.0,1.0,0.0,39.438,39.438,50.194,16.866,1.0,110.0,435.8,8750.0,0.0,0.0,110.0,110.0,433.0,0.0,0.0,0.0,1.0,166.7,73.5,73.5,87.1,87.1,34.0,4.8,1.01,-57.4,-6.5,3.0,-223.765,83.4,100.0,28.5,11.9,33.2,14.2,0.0,1.0,30.0,0.0,0.0,0.0,0.0,6337.0,929.0,4901.0,1072.0,308.9,322.4,342.9,352.3,25.19,22.85,26.22,24.74,325.0,325.0,355.0,355.0,100.0,99.95,100.0,100.0,-5.95,-6.16,-4.19,-4.13,-3.1,-12.8,-1.2,-3.2,83.4,68.8,83.6,74.4,88.7,70.7,87.2,76.0,85.2,67.6,85.4,73.7,82.5,66.0,84.3,72.5,4.69,-4.92,0.08,0.1,0.0,91.98,81.18,86.45,82.05,174.7,27.6,1.529378958924177,81.74308834858878,72.74054560799826,-75.6213591461453,3.6010175628358354,1,10
790,39.45,1417.6,44.056193463789356,-78.68365469548182,-32.6,-22.5,-4.0,8.0,6525.8,6526.0,109.4,1.0,1.0,1.0,0.0,1.0,1.0,0.0,0.0,0.0,100.0,1.0,1.186,26.0,0.0,-1.605,50.194,66.0,26.8,26.0,26.0,26.0,26.0,-1.35,-0.49,-0.18,391.4,-2.25,-2.72,-0.62,-2.19,-928.35,864.59,6.0,0.0,0.0,0.0,0.0,0.83,-7.49,-7.49,-0.24,-3.2,0.72,3.3,30.32,-1.61,-0.45,30.15,100.0,0.0,0.0,83.72,0.0,0.0,0.0,0.0,0.0,0.0,0.0,5690.0,0.0,30.0,0.0,109.4,0.0,0.0,0.0,0.0,0.0,0.0,1.0,0.0,39.486,39.486,50.194,16.866,0.0,110.0,435.8,8750.0,0.0,0.0,110.0,110.0,433.0,0.0,0.0,0.0,1.0,333.3,77.3,77.3,86.2,86.2,34.0,14.3,0.49,-47.8,-13.5,3.0,-223.815,89.0,100.0,26.9,10.8,33.0,14.6,0.0,1.0,46.4,0.0,0.0,0.0,0.0,4938.0,479.0,4884.0,1767.0,312.4,323.7,342.9,350.3,25.19,22.85,26.22,24.74,325.0,325.0,355.0,355.0,100.0,99.95,100.0,100.0,-6.67,-6.96,-4.49,-4.4,-3.7,-11.9,-1.2,-2.3,83.4,68.8,83.6,74.4,88.8,70.7,87.2,76.0,85.3,67.6,85.4,73.7,82.6,66.0,84.3,72.5,5.0,-5.26,0.08,0.1,0.0,90.17,80.75,85.39,82.06,174.7,27.6,1.447411482613013,79.22237639601806,73.82085076304423,-46.81322205760267,18.00508553808342,1,10
791,39.5,1419.1,44.05620344625918,-78.68364516267279,-40.2,-11.6,-11.7,1.7,6527.3,6527.0,108.3,0.0,1.0,1.0,0.0,1.0,1.0,0.0,0.0,0.0,100.0,1.0,1.186,26.0,0.0,-1.602,50.194,66.0,23.9,26.0,26.0,26.0,26.0,-1.34,-0.5,-0.19,391.8,-2.25,-2.56,-0.67,-2.26,-927.29,865.7,6.0,0.0,0.0,0.0,0.0,0.83,-7.49,-7.49,-0.5,-5.34,0.8,1.03,30.02,-1.7,-0.47,27.43,100.0,0.0,0.0,82.68,0.0,0.0,0.0,0.0,0.0,0.0,0.0,6267.0,0.0,30.0,0.0,108.3,1.0,0.0,0.0,0.0,0.0,0.0,1.0,0.0,39.537,39.537,50.194,16.866,1.0,110.0,435.8,8750.0,0.0,0.0,110.0,110.0,433.0,0.0,0.0,0.0,1.0,333.3,76.7,76.7,87.7,87.7,34.0,19.5,1.13,-42.3,-5.9,3.0,-223.865,94.8,100.0,24.9,10.2,32.5,14.6,0.0,1.0,0.0,0.0,0.0,0.0,0.0,5994.0,891.0,4555.0,989.0,310.0,322.5,343.7,352.4,25.19,22.85,26.22,24.74,325.0,325.0,355.0,355.0,100.0,99.95,100.0,100.0,-7.32,-7.6,-4.53,-4.43,-3.5,-12.0,-1.2,-2.6,83.4,68.8,83.6,74.4,88.9,70.7,87.2,76.0,85.4,67.6,85.5,73.7,82.7,66.0,84.4,72.5,5.34,-5.63,0.08,0.11,0.0,89.36,80.15,84.42,80.94,174.7,27.6,1.4428097587693258,77.06176614282852,74.5410541618066,-43.212205348302746,18.005084969059766,1,10
792,39.55,1420.6,44.056212709271726,-78.68363607952458,4.4,10.8,-41.8,-53.9,6528.8,6529.0,107.4,0.0,1.0,1.0,0.0,1.0,1.0,0.0,0.0,0.0,100.0,1.0,1.186,26.0,0.0,-1.602,50.194,66.0,14.6,26.0,26.0,26.0,26.0,-1.34,-0.44,-0.21,392.7,-2.04,-2.45,-0.58,-2.22,-926.28,866.73,6.0,0.0,0.0,0.0,0.0,0.83,-7.49,-7.49,-0.75,-3.78,0.87,1.74,29.75,-1.77,-0.5,29.4,100.0,0.0,0.0,86.4,0.0,0.0,0.0,0.0,0.0,0.0,0.0,5792.0,0.0,30.0,3.0,107.4,0.0,0.0,0.0,0.0,0.0,0.0,1.0,0.0,39.586,39.586,50.194,16.866,0.0,110.0,435.8,8750.0,0.0,0.0,110.0,110.0,433.0,0.0,0.0,0.0,1.0,333.3,75.4,75.4,90.6,90.6,34.0,20.9,2.25,-30.9,-3.3,3.0,-223.915,100.6,100.0,25.1,10.7,30.4,11.9,0.0,1.0,0.0,0.0,0.0,0.0,0.0,6285.0,1401.0,3975.0,739.0,309.2,321.2,345.2,353.1,25.19,22.85,26.22,24.74,325.0,325.0,355.0,355.0,100.0,99.95,100.0,100.0,-7.73,-8.01,-4.75,-4.69,-2.5,-9.5,-0.9,-2.7,83.4,68.8,83.6,74.4,89.0,70.7,87.3,76.0,85.6,67.6,85.5,73.6,82.8,66.0,84.4,72.5,5.65,-5.98,0.08,0.11,0.0,89.63,80.95,88.12,84.68,174.7,27.6,1.4259382875847046,74.90115586118779,75.62135925995021,-25.20712009473101,43.212205063790776,1,10
793,39.6,1422.1,44.056222152148585,-78.68362627691907,37.1,29.1,-9.8,-18.2,6530.2,6530.0,106.7,0.0,1.0,1.0,0.0,1.0,1.0,0.0,0.0,0.0,100.0,1.0,1.186,26.0,0.0,-1.602,50.194,66.0,4.8,26.0,26.0,26.0,26.0,-1.55,-0.32,-0.07,390.9,-2.12,-2.45,-0.57,-2.19,-925.19,867.78,6.0,0.0,0.0,0.0,0.0,0.83,-7.49,-7.49,-0.85,-0.07,0.86,-1.05,29.56,-1.85,-0.48,32.7,100.0,0.0,0.0,82.57,0.0,0.0,0.0,0.0,0.0,0.0,0.0,5535.0,0.0,30.0,3.0,106.7,1.0,0.0,0.0,0.0,0.0,0.0,1.0,0.0,39.636,39.636,50.194,16.866,1.0,110.0,435.8,8750.0,0.0,0.0,110.0,110.0,433.0,0.0,0.0,0.0,1.0,166.7,73.7,73.7,88.1,88.1,34.0,22.0,2.54,-35.2,-5.2,3.0,-223.965,107.2,100.0,26.9,12.2,29.9,11.0,0.0,1.0,0.0,0.0,0.0,0.0,0.0,6455.0,1348.0,5353.0,968.0,308.7,321.3,341.9,352.5,25.19,22.85,26.22,24.74,325.0,325.0,355.0,355.0,100.0,99.95,100.0,100.0,-8.06,-8.36,-5.07,-5.01,-1.2,-4.3,-1.0,-0.2,83.4,68.8,83.6,74.3,89.2,70.7,87.3,76.0,85.7,67.6,85.5,73.6,83.0,66.1,84.4,72.4,6.01,-6.37,0.08,0.1,0.0,90.32,84.93,83.65,81.48,174.7,27.6,1.5842348310777667,74.54105413335542,78.86227466818568,-46.81322234211436,25.207120094730584,1,10
