,Time,Distance,GPS Latitude,GPS Longitude,Damper Velocity (Calc) FL,Damper Velocity (Calc) FR,Damper Velocity (Calc) RL,Damper Velocity (Calc) RR,Corr Dist,Corr Dist (Unstretched),Corr Speed,ABS Active,ABS Enabled,AID Allow Tire Blankets,AID Auto Blip,AID Auto Clutch,AID Auto Shift,AID Fuel Rate,AID Ideal Line,AID Mech Damage,AID Stability,AID Tire Wear Rate,Air Density,Air Temp,Ballast,Best Lap Delta,Best Lap Time,Brake Bias,Brake Pos,Brake Temp FL,Brake Temp FR,Brake Temp RL,Brake Temp RR,CG Accel Lateral,CG Accel Longitudinal,CG Accel Vertical,CG Height,Camber FL,Camber FR,Camber RL,Camber RR,Car Coord X,Car Coord Y,Car Coord Z,Car Damage Front,Car Damage Left,Car Damage Rear,Car Damage Right,Car Pos Norm,Caster FL,Caster FR,Chassis Pitch Angle,Chassis Pitch Rate,Chassis Roll Angle,Chassis Roll Rate,Chassis Velocity X,Chassis Velocity Y,Chassis Velocity Z,Chassis Yaw Rate,Clutch Pos,DRS Active,DRS Available,Drive Train Speed,ERS Heat Charging,ERS Is Charging,ERS Max Energy,ERS Power Level,ERS Recovery Level,Engine Brake Setting,Engine Limiter,Engine RPM,Flags,Fuel Level,Gear,Ground Speed,HR Sample Clock,In Pit,KERS Charge,KERS Deployed Energy,KERS Input,KERS Max Energy,LR Sample Clock,Lap Invalidated,Lap Time,Lap Time2,Last Lap Time,Last Sector Time,MR Sample Clock,Max Fuel,Max Power,Max RPM,Max Sus Travel FL,Max Sus Travel FR,Max Sus Travel RL,Max Sus Travel RR,Max Torque,Max Turbo Boost,Num Tires Off Track,Penalties Enabled,Position,Raw Data Sample Rate,Ride Height FL,Ride Height FR,Ride Height RL,Ride Height RR,Road Temp,Self Align Torque FL,Self Align Torque FR,Self Align Torque RL,Self Align Torque RR,Session Lap Count,Session Time Left,Steering Angle,Surface Grip,Suspension Travel FL,Suspension Travel FR,Suspension Travel RL,Suspension Travel RR,TC Active,TC Enabled,Throttle Pos,Tire Dirt Level FL,Tire Dirt Level FR,Tire Dirt Level RL,Tire Dirt Level RR,Tire Load FL,Tire Load FR,Tire Load RL,Tire Load RR,Tire Loaded Radius FL,Tire Loaded Radius FR,Tire Loaded Radius RL,Tire Loaded Radius RR,Tire Pressure FL,Tire Pressure FR,Tire Pressure RL,Tire Pressure RR,Tire Radius FL,Tire Radius FR,Tire Radius RL,Tire Radius RR,Tire Rubber Grip FL,Tire Rubber Grip FR,Tire Rubber Grip RL,Tire Rubber Grip RR,Tire Slip Angle FL,Tire Slip Angle FR,Tire Slip Angle RL,Tire Slip Angle RR,Tire Slip Ratio FL,Tire Slip Ratio FR,Tire Slip Ratio RL,Tire Slip Ratio RR,Tire Temp Core FL,Tire Temp Core FR,Tire Temp Core RL,Tire Temp Core RR,Tire Temp Inner FL,Tire Temp Inner FR,Tire Temp Inner RL,Tire Temp Inner RR,Tire Temp Middle FL,Tire Temp Middle FR,Tire Temp Middle RL,Tire Temp Middle RR,Tire Temp Outer FL,Tire Temp Outer FR,Tire Temp Outer RL,Tire Temp Outer RR,Toe In FL,Toe In FR,Toe In RL,Toe In RR,Turbo Boost,Wheel Angular Speed FL,Wheel Angular Speed FR,Wheel Angular Speed RL,Wheel Angular Speed RR,Wind Direction,Wind Speed,CG Distance,Lateral Velocity,Longitudinal Velocity,Lateral Acceleration,Longitudinal Acceleration,level,curve_number
369,18.4,591.5,44.05262468586059,-78.67979480714922,80.1,-44.4,481.3,531.9,5699.7,5700.0,106.6,0.0,1.0,1.0,0.0,1.0,1.0,0.0,0.0,0.0,100.0,1.0,1.186,26.0,0.0,-1.587,50.194,66.0,0.0,26.0,26.0,26.0,26.0,1.66,-0.12,0.27,384.2,-2.72,-2.33,-1.74,-1.15,-499.15,467.76,3.3,0.0,0.0,0.0,0.0,0.34,-7.49,-7.49,0.63,15.53,0.2,14.07,29.59,1.65,0.08,-30.67,100.0,0.0,0.0,99.64,0.0,0.0,0.0,0.0,0.0,0.0,0.0,6680.0,0.0,30.0,3.0,106.6,1.0,0.0,0.0,0.0,0.0,0.0,1.0,0.0,18.438,18.438,50.194,13.681,1.0,110.0,435.8,8750.0,0.0,0.0,110.0,110.0,433.0,0.0,0.0,0.0,1.0,166.7,73.2,73.2,72.2,72.2,34.0,35.1,81.7,-3.8,-10.0,3.0,-202.765,-11.9,100.0,18.7,22.4,26.4,29.1,1.0,1.0,0.0,0.0,0.0,0.0,0.0,2611.0,4471.0,4003.0,6541.0,318.2,313.1,344.9,338.3,25.09,23.0,25.97,24.65,325.0,325.0,355.0,355.0,100.0,99.91,100.0,100.0,2.22,2.24,4.3,4.58,-0.0,0.0,11.8,11.4,82.8,69.7,82.1,73.8,89.8,73.6,86.7,77.6,86.2,70.4,84.9,75.3,83.5,68.9,84.0,74.2,-0.69,0.68,0.08,0.07,0.0,89.95,92.63,99.38,99.91,174.7,27.6,1.6860901518009055,34.5697642501908,100.10827561450454,36.0101713606786,-39.61118863900225,1,6
370,18.45,593.0,44.05262036911688,-78.6798069479909,-147.8,97.1,270.8,638.0,5701.2,5701.0,107.5,0.0,1.0,1.0,0.0,1.0,1.0,0.0,0.0,0.0,100.0,1.0,1.186,26.0,0.0,-1.578,50.194,66.0,0.0,26.0,26.0,26.0,26.0,1.98,-0.18,0.62,370.5,-3.45,-1.51,-2.87,-0.68,-500.5,467.28,3.3,0.0,0.0,0.0,0.0,0.34,-7.49,-7.49,1.24,7.18,1.13,22.38,29.8,1.53,0.13,-19.23,100.0,0.0,0.0,83.32,0.0,0.0,0.0,0.0,0.0,0.0,0.0,5586.0,0.0,30.0,3.0,107.5,0.0,0.0,0.0,0.0,0.0,0.0,1.0,0.0,18.486,18.486,50.194,13.681,0.0,110.0,435.8,8750.0,0.0,0.0,110.0,110.0,433.0,0.0,0.0,0.0,1.0,166.7,74.8,74.8,43.9,43.9,34.0,0.0,139.85,76.6,205.4,3.0,-202.815,-10.4,100.0,11.3,27.3,39.9,61.0,0.0,1.0,0.0,0.0,0.0,0.0,0.0,0.0,6879.0,4914.0,10835.0,325.0,306.5,342.5,327.1,25.09,23.0,25.97,24.65,325.0,325.0,355.0,355.0,100.0,99.91,100.0,100.0,0.0,2.36,3.71,3.8,0.0,0.0,-0.5,-0.7,82.8,69.7,82.1,73.8,89.7,73.6,86.8,77.8,86.2,70.4,85.0,75.4,83.5,68.9,84.0,74.3,-0.62,0.62,0.06,-0.0,0.0,90.63,92.69,82.6,84.05,174.7,27.6,2.0825945356693896,37.090476231212705,99.38807215883979,50.414239335926396,-18.00508553808342,1,6
371,18.5,594.5,44.05261542284805,-78.67981962842553,-50.7,115.6,-63.6,158.4,5702.7,5703.0,107.0,0.0,1.0,1.0,0.0,1.0,1.0,0.0,0.0,0.0,100.0,1.0,1.186,26.0,0.0,-1.569,50.194,66.0,0.0,26.0,26.0,26.0,26.0,1.56,-0.15,0.55,371.6,-4.04,-0.99,-3.46,-0.17,-501.91,466.73,3.3,0.0,0.0,0.0,0.0,0.34,-7.49,-7.49,1.21,-6.65,1.68,-3.79,29.7,0.89,-0.21,-3.57,100.0,0.0,0.0,83.12,0.0,0.0,0.0,0.0,0.0,0.0,0.0,5572.0,0.0,30.0,3.0,107.0,1.0,0.0,0.0,0.0,0.0,0.0,1.0,0.0,18.537,18.537,50.194,13.681,1.0,110.0,435.8,8750.0,0.0,0.0,110.0,110.0,433.0,0.0,0.0,0.0,1.0,333.3,75.0,75.0,45.9,45.9,34.0,0.0,161.71,30.6,274.3,3.0,-202.865,-8.3,100.0,8.7,33.0,36.8,68.9,0.0,1.0,0.0,0.0,0.0,0.0,0.0,0.0,7778.0,2530.0,11175.0,325.0,303.7,348.6,325.6,25.09,23.0,25.97,24.66,325.0,325.0,355.0,355.0,100.0,99.91,100.0,100.0,0.0,2.17,2.07,2.25,0.0,-0.0,-0.2,-0.3,82.8,69.7,82.1,73.9,89.6,73.6,86.7,77.9,86.1,70.5,85.0,75.5,83.4,69.0,84.0,74.4,-0.49,0.5,0.07,-0.02,0.0,90.63,91.08,83.12,83.12,174.7,27.6,1.6609033686521322,39.61118818378344,98.3077670606962,43.212205063790705,-21.606101962871804,1,6
372,18.55,596.0,44.05261047657922,-78.67983149947074,22.6,-77.0,-177.3,-363.6,5704.1,5704.0,106.7,0.0,1.0,1.0,0.0,1.0,1.0,0.0,0.0,0.0,100.0,1.0,1.186,26.0,0.0,-1.56,50.194,66.0,0.0,26.0,26.0,26.0,26.0,0.85,-0.14,-0.12,383.1,-3.23,-1.75,-2.48,-0.73,-503.23,466.18,3.4,0.0,0.0,0.0,0.0,0.35,-7.49,-7.49,0.73,-11.51,0.74,-28.38,29.62,0.41,-0.51,-0.24,100.0,0.0,0.0,82.74,0.0,0.0,0.0,0.0,0.0,0.0,0.0,5547.0,0.0,30.0,3.0,106.7,0.0,0.0,0.0,0.0,0.0,0.0,1.0,0.0,18.586,18.586,50.194,13.681,0.0,110.0,435.8,8750.0,0.0,0.0,110.0,110.0,433.0,0.0,0.0,0.0,1.0,333.3,74.3,74.3,69.0,69.0,34.0,18.0,88.26,16.1,74.8,3.0,-202.915,-6.0,100.0,9.9,29.2,27.9,50.7,0.0,1.0,0.0,0.0,0.0,0.0,0.0,2009.0,4963.0,2076.0,4617.0,320.2,311.3,349.8,342.5,25.09,23.0,25.97,24.66,325.0,325.0,355.0,355.0,100.0,99.91,100.0,100.0,1.52,1.62,1.2,1.28,-0.0,-0.1,-0.2,-0.4,82.8,69.7,82.1,73.9,89.6,73.7,86.7,77.9,86.1,70.5,85.0,75.5,83.3,69.0,84.0,74.4,-0.36,0.36,0.08,0.02,0.0,90.54,90.38,82.74,82.74,174.7,27.6,0.8697700845625813,41.411696737591775,97.22746196255261,39.61118835449042,14.404068544271382,1,6
373,18.6,597.5,44.052605080649585,-78.6798439101089,225.6,-164.8,-104.4,-580.2,5705.6,5706.0,106.8,0.0,1.0,1.0,0.0,1.0,1.0,0.0,0.0,0.0,100.0,1.0,1.186,26.0,0.0,-1.548,50.194,66.0,0.0,26.0,26.0,26.0,26.0,0.32,0.38,-0.31,392.5,-2.37,-2.71,-1.22,-1.52,-504.61,465.58,3.4,0.0,0.0,0.0,0.0,0.35,-7.49,-7.49,0.29,-4.27,-0.4,-12.44,29.67,0.21,-0.61,-3.02,100.0,0.0,0.0,88.37,0.0,0.0,0.0,0.0,0.0,0.0,0.0,5924.0,0.0,30.0,3.0,106.8,1.0,0.0,0.0,0.0,0.0,0.0,1.0,0.0,18.636,18.636,50.194,13.681,1.0,110.0,435.8,8750.0,0.0,0.0,110.0,110.0,433.0,0.0,0.0,0.0,1.0,166.7,72.6,72.6,89.1,89.1,34.0,21.6,29.71,5.7,4.8,3.0,-202.965,-3.2,100.0,21.2,20.9,22.7,21.7,0.0,1.0,100.0,0.0,0.0,0.0,0.0,4535.0,2679.0,2720.0,1228.0,313.6,317.6,348.3,351.8,25.09,23.0,25.97,24.66,325.0,325.0,355.0,355.0,100.0,99.91,100.0,100.0,0.66,0.72,0.67,0.78,-0.1,-0.1,5.8,5.3,82.8,69.7,82.1,73.9,89.5,73.6,86.7,77.9,86.0,70.5,84.9,75.5,83.3,69.0,84.0,74.4,-0.2,0.2,0.09,0.08,0.0,90.81,90.94,88.37,88.37,174.7,27.6,0.585576638878294,43.57230701923248,99.74817391512333,28.808137088542765,36.01017050714319,1,6
374,18.65,599.0,44.052599594787786,-78.67985641067922,25.3,-50.8,-40.8,-125.4,5707.1,5707.0,107.6,0.0,1.0,1.0,0.0,1.0,1.0,0.0,0.0,0.0,100.0,1.0,1.186,26.0,0.0,-1.539,50.194,66.0,0.0,26.0,26.0,26.0,26.0,0.14,0.59,-0.26,394.2,-2.37,-2.67,-1.15,-1.48,-506.0,464.97,3.4,0.0,0.0,0.0,0.0,0.35,-7.49,-7.49,0.34,4.76,-0.39,8.3,29.9,0.19,-0.44,-2.58,100.0,0.0,0.0,90.11,0.0,0.0,0.0,0.0,0.0,0.0,0.0,6041.0,0.0,30.0,3.0,107.6,0.0,0.0,0.0,0.0,0.0,0.0,1.0,0.0,18.687,18.687,50.194,13.681,0.0,110.0,435.8,8750.0,0.0,0.0,110.0,110.0,433.0,0.0,0.0,0.0,1.0,333.3,75.2,75.2,89.8,89.8,34.0,-4.2,17.73,0.8,6.3,3.0,-203.015,-0.8,100.0,22.4,18.4,20.6,15.5,0.0,1.0,100.0,0.0,0.0,0.0,0.0,3206.0,2658.0,3047.0,2837.0,316.7,317.8,347.4,347.9,25.09,23.0,25.97,24.66,325.0,325.0,355.0,355.0,100.0,99.91,100.0,100.0,0.18,0.26,0.27,0.5,-0.1,-0.1,7.3,7.1,82.8,69.7,82.1,73.9,89.5,73.6,86.7,77.9,86.0,70.5,84.9,75.5,83.3,68.9,83.9,74.4,-0.05,0.05,0.1,0.1,0.0,91.77,92.0,90.11,90.11,174.7,27.6,0.6597726881282674,44.29251044644605,100.82847901326693,3.6010169938120384,-10.803051550459486,1,6
375,18.7,600.5,44.05259401899383,-78.67986909111386,-124.7,-2.3,45.7,235.7,5708.6,5709.0,108.8,0.0,1.0,1.0,0.0,1.0,1.0,0.0,0.0,0.0,100.0,1.0,1.186,26.0,0.0,-1.539,50.194,66.0,0.0,26.0,26.0,26.0,26.0,0.18,0.58,-0.04,390.1,-2.67,-2.21,-1.63,-1.18,-507.41,464.35,3.5,0.0,0.0,0.0,0.0,0.35,-7.49,-7.49,0.67,6.88,0.05,5.86,30.23,0.18,-0.21,-2.01,100.0,0.0,0.0,87.36,0.0,0.0,0.0,0.0,0.0,0.0,0.0,5856.0,0.0,30.0,3.0,108.8,1.0,0.0,0.0,0.0,0.0,0.0,1.0,0.0,18.738,18.738,50.194,13.681,1.0,110.0,435.8,8750.0,0.0,0.0,110.0,110.0,433.0,0.0,0.0,0.0,1.0,166.7,79.3,79.3,77.9,77.9,34.0,-4.1,18.44,-1.1,35.8,3.0,-203.065,0.9,100.0,16.2,18.3,22.9,27.3,0.0,1.0,100.0,0.0,0.0,0.0,0.0,1727.0,3526.0,4135.0,5181.0,320.6,315.4,344.8,341.6,25.09,23.0,25.97,24.66,325.0,325.0,355.0,355.0,100.0,99.91,100.0,100.0,0.11,0.14,0.22,0.48,-0.1,-0.1,2.9,2.9,82.8,69.7,82.1,73.9,89.4,73.6,86.6,77.9,85.9,70.4,84.9,75.5,83.2,68.9,83.9,74.4,0.05,-0.06,0.09,0.08,0.0,92.87,93.13,87.36,87.36,174.7,27.6,0.6086049621881175,43.93240871861369,98.66786876007738,3.6010169938119674,-18.005084969059624,1,6
376,18.75,602.0,44.052588623064196,-78.67988105209122,-46.1,0.6,157.7,195.8,5710.2,5710.0,109.7,0.0,1.0,1.0,0.0,1.0,1.0,0.0,0.0,0.0,100.0,1.0,1.186,26.0,0.0,-1.527,50.194,66.0,0.0,26.0,26.0,26.0,26.0,0.17,0.54,0.13,385.3,-2.68,-2.13,-1.8,-1.25,-508.74,463.75,3.5,0.0,0.0,0.0,0.0,0.35,-7.49,-7.49,0.92,3.11,0.09,-3.38,30.49,0.12,-0.1,-0.64,100.0,0.0,0.0,87.67,0.0,0.0,0.0,0.0,0.0,0.0,0.0,5877.0,0.0,30.0,3.0,109.7,0.0,0.0,0.0,0.0,0.0,0.0,1.0,0.0,18.786,18.786,50.194,13.681,0.0,110.0,435.8,8750.0,0.0,0.0,110.0,110.0,433.0,0.0,0.0,0.0,1.0,333.3,80.2,80.2,67.4,67.4,34.0,-4.7,16.62,-4.3,42.4,3.0,-203.115,2.1,100.0,13.9,18.3,30.8,37.0,0.0,1.0,100.0,0.0,0.0,0.0,0.0,1926.0,3407.0,4935.0,5914.0,320.2,315.7,342.8,339.6,25.09,23.0,25.98,24.66,325.0,325.0,355.0,355.0,100.0,99.91,100.0,100.0,0.1,0.13,0.2,0.4,-0.1,-0.1,2.3,2.2,82.8,69.7,82.1,73.9,89.3,73.5,86.6,77.9,85.9,70.4,84.9,75.5,83.1,68.9,83.9,74.4,0.12,-0.13,0.08,0.05,0.0,93.63,93.71,87.67,87.67,174.7,27.6,0.5808614292583043,44.65261214582725,99.02797051636097,21.606102816407073,43.21220563281429,1,6
377,18.8,603.5,44.05258286740592,-78.67989382245803,36.3,-7.3,119.6,44.0,5711.7,5712.0,110.6,0.0,1.0,1.0,0.0,1.0,1.0,0.0,0.0,0.0,100.0,1.0,1.186,26.0,0.0,-1.518,50.194,66.0,0.0,26.0,26.0,26.0,26.0,0.06,0.52,0.15,382.5,-2.51,-2.35,-1.65,-1.52,-510.16,463.11,3.5,0.0,0.0,0.0,0.0,0.35,-7.49,-7.49,0.96,-0.95,-0.15,-4.29,30.75,0.06,-0.15,0.98,100.0,0.0,0.0,88.31,0.0,0.0,0.0,0.0,0.0,0.0,0.0,5920.0,0.0,30.0,3.0,110.6,1.0,0.0,0.0,0.0,0.0,0.0,1.0,0.0,18.837,18.837,50.194,13.681,1.0,110.0,435.8,8750.0,0.0,0.0,110.0,110.0,433.0,0.0,0.0,0.0,1.0,333.3,78.0,78.0,63.9,63.9,34.0,-12.4,12.69,-12.0,28.6,3.0,-203.17,3.1,100.0,15.7,18.0,36.8,39.2,0.0,1.0,100.0,0.0,0.0,0.0,0.0,3249.0,3088.0,5487.0,5260.0,316.8,316.6,341.4,341.3,25.09,23.0,25.98,24.66,325.0,325.0,355.0,355.0,100.0,99.91,100.0,100.0,0.0,0.05,0.08,0.22,-0.1,-0.1,2.1,2.2,82.8,69.7,82.1,73.9,89.3,73.5,86.6,77.9,85.8,70.4,84.9,75.5,83.1,68.8,83.9,74.4,0.18,-0.19,0.06,0.05,0.0,94.39,94.28,88.31,88.31,174.7,27.6,0.5445181356024793,46.093019000254394,102.98908932335881,7.202034272135691,18.005085538083136,1,6
378,18.85,605.1,44.05257711174764,-78.67990677268915,52.4,-2.2,16.5,-42.0,5713.2,5713.0,111.6,0.0,1.0,1.0,0.0,1.0,1.0,0.0,0.0,0.0,100.0,1.0,1.186,26.0,0.0,-1.506,50.194,66.0,0.0,26.0,26.0,26.0,26.0,-0.04,0.5,0.08,383.2,-2.46,-2.46,-1.55,-1.61,-511.6,462.47,3.6,0.0,0.0,0.0,0.0,0.35,-7.49,-7.49,0.87,-1.68,-0.26,-0.38,31.0,0.02,-0.26,1.79,100.0,0.0,0.0,89.4,0.0,0.0,0.0,0.0,0.0,0.0,0.0,5993.0,0.0,30.0,3.0,111.6,0.0,0.0,0.0,0.0,0.0,0.0,0.0,0.0,18.888,18.888,50.194,13.681,0.0,110.0,435.8,8750.0,0.0,0.0,110.0,110.0,433.0,0.0,0.0,0.0,1.0,166.7,76.3,76.3,66.9,66.9,34.0,-16.8,10.86,-17.2,13.3,3.0,-203.215,2.9,100.0,18.3,17.9,37.6,37.1,0.0,1.0,100.0,0.0,0.0,0.0,0.0,3524.0,3222.0,4679.0,4349.0,316.1,316.2,343.3,343.7,25.09,23.0,25.98,24.66,325.0,325.0,355.0,355.0,100.0,99.91,100.0,100.0,-0.07,-0.03,-0.09,0.04,-0.1,-0.1,2.5,2.6,82.8,69.7,82.1,73.9,89.2,73.5,86.6,77.8,85.8,70.3,84.8,75.5,83.0,68.8,83.9,74.4,0.17,-0.18,0.06,0.06,0.0,95.19,94.98,89.4,89.4,174.7,27.6,0.5079370039680118,45.37281557304082,100.82847907016928,-3.6010172783237238,-14.40406854427124,1,6
379,18.9,606.7,44.05257153595368,-78.679919003463,5.3,2.3,-49.3,-56.3,5714.8,5715.0,112.4,0.0,1.0,1.0,0.0,1.0,1.0,0.0,0.0,0.0,100.0,1.0,1.186,26.0,0.0,-1.497,50.194,66.0,0.0,26.0,26.0,26.0,26.0,-0.06,0.5,0.01,385.0,-2.47,-2.46,-1.52,-1.56,-512.96,461.85,3.6,0.0,0.0,0.0,0.0,0.35,-7.49,-7.49,0.83,-0.17,-0.25,0.14,31.24,-0.0,-0.3,1.87,100.0,0.0,0.0,90.3,0.0,0.0,0.0,0.0,0.0,0.0,0.0,6053.0,0.0,30.0,3.0,112.4,1.0,0.0,0.0,0.0,0.0,0.0,0.0,0.0,18.936,18.936,50.194,13.681,1.0,110.0,435.8,8750.0,0.0,0.0,110.0,110.0,433.0,0.0,0.0,0.0,1.0,333.3,76.6,76.6,70.2,70.2,34.0,-17.0,9.43,-17.3,9.4,3.0,-203.265,2.7,100.0,18.6,18.0,35.2,34.3,0.0,1.0,100.0,0.0,0.0,0.0,0.0,3312.0,3144.0,4330.0,4207.0,316.6,316.4,344.2,344.1,25.09,23.0,25.98,24.66,325.0,325.0,355.0,355.0,100.0,99.91,100.0,100.0,-0.11,-0.06,-0.15,-0.02,-0.1,-0.1,2.7,2.9,82.8,69.7,82.1,73.9,89.2,73.4,86.6,77.8,85.7,70.3,84.8,75.5,83.0,68.8,83.8,74.4,0.16,-0.17,0.06,0.06,0.0,95.96,95.76,90.3,90.3,174.7,27.6,0.5036864103785211,45.73291727242202,101.54868246893169,3.6010169938120384,14.404067975247727,1,6
380,18.95,608.2,44.052565690363245,-78.67993213355844,-9.4,-7.3,-31.0,-31.2,5716.4,5716.0,113.3,0.0,1.0,1.0,0.0,1.0,1.0,0.0,0.0,0.0,100.0,1.0,1.186,26.0,0.0,-1.491,50.194,66.0,0.0,26.0,26.0,26.0,26.0,-0.09,0.52,-0.05,386.4,-2.46,-2.45,-1.49,-1.54,-514.42,461.2,3.6,0.0,0.0,0.0,0.0,0.35,-7.49,-7.49,0.85,0.59,-0.26,-0.49,31.49,-0.02,-0.27,1.84,100.0,0.0,0.0,91.06,0.0,0.0,0.0,0.0,0.0,0.0,0.0,6104.0,0.0,30.0,3.0,113.3,0.0,0.0,0.0,0.0,0.0,0.0,0.0,0.0,18.987,18.987,50.194,13.681,0.0,110.0,435.8,8750.0,0.0,0.0,110.0,110.0,433.0,0.0,0.0,0.0,1.0,333.3,77.9,77.9,71.4,71.4,34.0,-15.8,7.19,-19.1,8.6,3.0,-203.32,2.8,100.0,18.1,17.6,33.6,32.8,0.0,1.0,100.0,0.0,0.0,0.0,0.0,2991.0,2758.0,4396.0,4216.0,317.5,317.5,344.1,344.1,25.09,23.0,25.98,24.66,325.0,325.0,355.0,355.0,100.0,99.91,100.0,100.0,-0.13,-0.08,-0.19,-0.03,-0.1,-0.1,2.7,2.9,82.8,69.7,82.1,73.9,89.1,73.4,86.5,77.8,85.6,70.2,84.8,75.5,82.9,68.7,83.8,74.4,0.17,-0.17,0.07,0.07,0.0,96.73,96.57,91.06,91.06,174.7,27.6,0.5300943312279429,45.73291727242202,102.26888586769405,3.6010172783237238,18.00508553808328,1,6
381,19.0,609.8,44.05256011456929,-78.6799445441966,-5.1,-7.4,1.3,-3.0,5718.0,5718.0,114.2,0.0,1.0,1.0,0.0,1.0,1.0,0.0,0.0,0.0,100.0,1.0,1.186,26.0,0.0,-1.482,50.194,66.0,0.0,26.0,26.0,26.0,26.0,-0.09,0.51,-0.01,386.1,-2.43,-2.47,-1.48,-1.56,-515.8,460.58,3.7,0.0,0.0,0.0,0.0,0.35,-7.49,-7.49,0.88,0.56,-0.28,-0.37,31.74,-0.02,-0.25,1.87,100.0,0.0,0.0,91.61,0.0,0.0,0.0,0.0,0.0,0.0,0.0,6141.0,0.0,30.0,3.0,114.2,1.0,0.0,0.0,0.0,0.0,0.0,0.0,0.0,19.034,19.034,50.194,13.681,1.0,110.0,435.8,8750.0,0.0,0.0,110.0,110.0,433.0,0.0,0.0,0.0,1.0,166.7,77.9,77.9,70.9,70.9,34.0,-17.3,6.79,-21.3,8.9,3.0,-203.365,2.8,100.0,17.9,17.2,33.7,32.6,0.0,1.0,100.0,0.0,0.0,0.0,0.0,3202.0,2789.0,4688.0,4369.0,316.9,317.4,343.3,343.7,25.09,23.0,25.98,24.66,325.0,325.0,355.0,355.0,100.0,99.91,100.0,100.0,-0.14,-0.09,-0.19,-0.04,-0.1,-0.1,2.6,2.8,82.8,69.7,82.1,73.9,89.1,73.3,86.5,77.8,85.6,70.2,84.8,75.5,82.9,68.7,83.8,74.4,0.17,-0.16,0.07,0.06,0.0,97.51,97.31,91.61,91.61,174.7,27.6,0.5179768334587947,46.093019000254394,103.34919102274002,21.606102816407073,54.01525661425012,1,6
382,19.05,611.4,44.05255417904669,-78.67995794408853,2.7,-2.8,11.3,7.3,5719.6,5720.0,115.1,0.0,1.0,1.0,0.0,1.0,1.0,0.0,0.0,0.0,100.0,1.0,1.186,26.0,0.0,-1.473,50.194,66.0,0.0,26.0,26.0,26.0,26.0,-0.1,0.53,0.06,385.4,-2.43,-2.46,-1.49,-1.56,-517.29,459.92,3.7,0.0,0.0,0.0,0.0,0.35,-7.49,-7.49,0.91,0.64,-0.28,-0.02,32.0,-0.03,-0.25,1.9,100.0,0.0,0.0,92.28,0.0,0.0,0.0,0.0,0.0,0.0,0.0,6186.0,0.0,30.0,3.0,115.1,0.0,0.0,0.0,0.0,0.0,0.0,0.0,0.0,19.086,19.086,50.194,13.681,0.0,110.0,435.8,8750.0,0.0,0.0,110.0,110.0,433.0,0.0,0.0,0.0,1.0,333.3,77.3,77.3,70.1,70.1,34.0,-18.8,7.56,-23.0,9.0,3.0,-203.415,2.3,100.0,18.0,17.1,34.2,33.0,0.0,1.0,100.0,0.0,0.0,0.0,0.0,3387.0,3071.0,4795.0,4546.0,316.4,316.6,343.1,343.2,25.09,23.0,25.98,24.66,325.0,325.0,355.0,355.0,100.0,99.91,100.0,100.0,-0.14,-0.1,-0.2,-0.05,-0.1,-0.1,2.5,2.7,82.8,69.7,82.1,73.9,89.0,73.3,86.5,77.8,85.5,70.2,84.8,75.4,82.8,68.7,83.8,74.3,0.14,-0.15,0.07,0.07,0.0,98.29,98.09,92.28,92.28,174.7,27.6,0.5426785420486054,47.89352755406273,107.67041152911906,3.6010169938118963,18.00508553808342,1,6
383,19.1,613.0,44.05254815359193,-78.67997143391261,1.9,1.9,10.4,9.8,5721.2,5721.0,116.0,0.0,1.0,1.0,0.0,1.0,1.0,0.0,0.0,0.0,100.0,1.0,1.186,26.0,0.0,-1.467,50.194,66.0,0.0,26.0,26.0,26.0,26.0,-0.07,0.49,0.05,385.3,-2.42,-2.47,-1.49,-1.57,-518.79,459.25,3.8,0.0,0.0,0.0,0.0,0.36,-7.49,-7.49,0.94,0.7,-0.27,0.12,32.25,-0.03,-0.26,1.5,100.0,0.0,0.0,93.04,0.0,0.0,0.0,0.0,0.0,0.0,0.0,6237.0,0.0,30.0,3.0,116.0,1.0,0.0,0.0,0.0,0.0,0.0,0.0,0.0,19.137,19.137,50.194,13.681,1.0,110.0,435.8,8750.0,0.0,0.0,110.0,110.0,433.0,0.0,0.0,0.0,1.0,166.7,77.3,77.3,69.7,69.7,34.0,-15.8,10.17,-22.9,9.3,3.0,-203.465,0.6,100.0,18.1,17.2,34.7,33.5,0.0,1.0,100.0,0.0,0.0,0.0,0.0,3341.0,3069.0,4718.0,4511.0,316.5,316.6,343.2,343.3,25.09,23.0,25.98,24.66,325.0,325.0,355.0,355.0,100.0,99.91,100.0,100.0,-0.08,-0.03,-0.21,-0.05,-0.1,-0.1,2.5,2.6,82.8,69.7,82.1,73.9,89.0,73.3,86.5,77.8,85.5,70.1,84.7,75.4,82.8,68.6,83.8,74.3,0.05,-0.06,0.08,0.06,0.0,99.08,98.92,93.04,93.04,174.7,27.6,0.4974937185533099,46.45312069963558,105.14969957654836,3.6010169938118963,14.404069113295037,1,6
384,19.15,614.6,44.05254257779797,-78.67998420427942,-2.3,-0.4,3.4,7.0,5722.8,5723.0,116.9,0.0,1.0,1.0,0.0,1.0,1.0,0.0,0.0,0.0,100.0,1.0,1.186,26.0,0.0,-1.467,50.194,66.0,0.0,26.0,26.0,26.0,26.0,-0.04,0.5,0.04,385.4,-2.42,-2.47,-1.51,-1.56,-520.21,458.63,3.8,0.0,0.0,0.0,0.0,0.36,-7.49,-7.49,0.98,0.69,-0.26,0.44,32.49,-0.03,-0.26,0.69,100.0,0.0,0.0,93.72,0.0,0.0,0.0,0.0,0.0,0.0,0.0,6282.0,0.0,30.0,3.0,116.9,0.0,0.0,0.0,0.0,0.0,0.0,0.0,0.0,19.184,19.184,50.194,13.681,0.0,110.0,435.8,8750.0,0.0,0.0,110.0,110.0,433.0,0.0,0.0,0.0,1.0,333.3,77.6,77.6,69.4,69.4,34.0,-11.3,13.9,-21.0,10.3,3.0,-203.515,-2.0,100.0,18.0,17.2,34.9,33.8,0.0,1.0,100.0,0.0,0.0,0.0,0.0,3199.0,3056.0,4671.0,4541.0,316.9,316.7,343.4,343.2,25.09,23.0,25.98,24.66,325.0,325.0,355.0,355.0,100.0,99.91,100.0,100.0,0.01,0.07,-0.18,-0.03,-0.1,-0.1,2.5,2.6,82.8,69.7,82.1,73.9,88.9,73.2,86.5,77.8,85.4,70.1,84.7,75.4,82.7,68.6,83.7,74.3,-0.09,0.09,0.07,0.06,0.0,99.74,99.67,93.72,93.72,174.7,27.6,0.503189825016365,48.25362925344392,109.11081844044857,21.606102816407216,46.81322262662604,1,6
385,19.2,616.3,44.05253610268241,-78.67999868335728,-3.8,2.7,-3.1,9.3,5724.4,5724.0,117.9,0.0,1.0,1.0,0.0,1.0,1.0,0.0,0.0,0.0,100.0,1.0,1.186,26.0,0.0,-1.458,50.194,66.0,0.0,26.0,26.0,26.0,26.0,0.06,0.51,0.05,385.3,-2.43,-2.47,-1.55,-1.53,-521.82,457.91,3.8,0.0,0.0,0.0,0.0,0.36,-7.49,-7.49,1.02,0.66,-0.22,0.93,32.76,-0.04,-0.25,-0.96,100.0,0.0,0.0,94.47,0.0,0.0,0.0,0.0,0.0,0.0,0.0,6333.0,0.0,30.0,3.0,117.9,1.0,0.0,0.0,0.0,0.0,0.0,0.0,0.0,19.239,19.239,50.194,13.681,1.0,110.0,435.8,8750.0,0.0,0.0,110.0,110.0,433.0,0.0,0.0,0.0,1.0,166.7,77.5,77.5,69.1,69.1,34.0,-3.6,21.85,-18.1,13.7,3.0,-203.57,-7.0,100.0,17.8,17.3,34.8,34.3,0.0,1.0,100.0,0.0,0.0,0.0,0.0,3088.0,3236.0,4599.0,4699.0,317.2,316.2,343.5,342.8,25.09,23.0,25.98,24.66,325.0,325.0,355.0,355.0,100.0,99.91,100.0,100.0,0.2,0.25,-0.13,0.03,-0.1,-0.1,2.6,2.5,82.8,69.7,82.1,73.9,88.8,73.2,86.4,77.8,85.4,70.1,84.7,75.4,82.7,68.6,83.7,74.3,-0.36,0.36,0.06,0.06,0.0,100.48,100.55,94.46,94.46,174.7,27.6,0.5159457335805773,48.613730981276305,109.83102183921096,-21.606102531895246,-50.41424018946145,1,6
386,19.25,617.9,44.05253043695629,-78.6800116335884,-3.9,11.2,-8.3,13.6,5726.1,5726.0,118.7,0.0,1.0,1.0,0.0,1.0,1.0,0.0,0.0,0.0,100.0,1.0,1.186,26.0,0.0,-1.449,50.194,66.0,0.0,26.0,26.0,26.0,26.0,0.16,0.5,0.06,385.0,-2.45,-2.45,-1.61,-1.47,-523.26,457.28,3.9,0.0,0.0,0.0,0.0,0.36,-7.49,-7.49,1.05,0.66,-0.16,1.52,33.0,-0.03,-0.25,-3.31,100.0,0.0,0.0,95.13,0.0,0.0,0.0,0.0,0.0,0.0,0.0,6377.0,0.0,30.0,3.0,118.7,0.0,0.0,0.0,0.0,0.0,0.0,0.0,0.0,19.287,19.287,50.194,13.681,0.0,110.0,435.8,8750.0,0.0,0.0,110.0,110.0,433.0,0.0,0.0,0.0,1.0,333.3,77.2,77.2,68.8,68.8,34.0,4.8,31.5,-13.3,18.9,3.0,-203.615,-12.2,100.0,17.6,17.9,34.3,35.0,0.0,1.0,100.0,0.0,0.0,0.0,0.0,2960.0,3474.0,4494.0,4919.0,317.5,315.6,343.8,342.2,25.09,23.0,25.98,24.66,325.0,325.0,355.0,355.0,100.0,99.91,100.0,100.0,0.42,0.46,-0.03,0.11,-0.1,-0.1,2.6,2.4,82.8,69.7,82.1,73.9,88.8,73.2,86.4,77.8,85.3,70.0,84.7,75.4,82.6,68.5,83.7,74.3,-0.67,0.66,0.08,0.06,0.0,101.18,101.4,95.13,95.13,174.7,27.6,0.5283937925449163,46.093019000254394,104.06939442150242,-2.8451182743083336e-07,-18.005086107106933,1,6
387,19.3,619.6,44.05252459136585,-78.68002467375169,-4.4,18.2,-14.1,18.5,5727.7,5728.0,119.6,0.0,1.0,1.0,0.0,1.0,1.0,0.0,0.0,0.0,100.0,1.0,1.186,26.0,0.0,-1.446,50.194,66.0,0.0,26.0,26.0,26.0,26.0,0.27,0.51,0.08,384.7,-2.5,-2.42,-1.69,-1.39,-524.71,456.63,3.9,0.0,0.0,0.0,0.0,0.36,-7.49,-7.49,1.08,0.69,-0.08,1.73,33.23,-0.01,-0.26,-6.15,100.0,0.0,0.0,95.81,0.0,0.0,0.0,0.0,0.0,0.0,0.0,6423.0,0.0,30.0,3.0,119.6,1.0,0.0,0.0,0.0,0.0,0.0,0.0,0.0,19.336,19.336,50.194,13.681,1.0,110.0,435.8,8750.0,0.0,0.0,110.0,110.0,433.0,0.0,0.0,0.0,1.0,333.3,76.7,76.7,68.7,68.7,34.0,10.0,42.33,-6.6,28.3,3.0,-203.665,-16.9,100.0,17.4,18.8,33.6,35.9,0.0,1.0,100.0,0.0,0.0,0.0,0.0,2767.0,3759.0,4332.0,5137.0,318.0,314.8,344.2,341.7,25.09,23.0,25.98,24.67,325.0,325.0,355.0,355.0,100.0,99.91,100.0,100.0,0.62,0.68,0.11,0.26,-0.0,-0.1,2.8,2.3,82.8,69.7,82.1,73.9,88.7,73.1,86.4,77.8,85.3,70.0,84.7,75.4,82.6,68.5,83.7,74.3,-0.95,0.95,0.07,0.06,0.0,101.71,102.2,95.81,95.81,174.7,27.6,0.5825804665451804,48.61373095282512,108.03051322850027,64.81830788019785,111.63153079133565,1,6
388,19.35,621.3,44.05251829611461,-78.68003861323658,-5.9,20.8,-16.9,20.8,5729.4,5729.0,120.5,0.0,1.0,1.0,0.0,1.0,1.0,0.0,0.0,0.0,100.0,1.0,1.186,26.0,0.0,-1.44,50.194,66.0,0.0,26.0,26.0,26.0,26.0,0.39,0.49,0.04,384.5,-2.57,-2.36,-1.77,-1.31,-526.26,455.93,4.0,0.0,0.0,0.0,0.0,0.36,-7.49,-7.49,1.12,0.81,-0.01,1.39,33.48,0.04,-0.27,-8.67,100.0,0.0,0.0,96.56,0.0,0.0,0.0,0.0,0.0,0.0,0.0,6473.0,0.0,30.0,3.0,120.5,0.0,0.0,0.0,0.0,0.0,0.0,1.0,0.0,19.386,19.386,50.194,13.681,0.0,110.0,435.8,8750.0,0.0,0.0,110.0,110.0,433.0,0.0,0.0,0.0,1.0,166.7,76.2,76.2,68.5,68.5,34.0,11.1,48.32,1.1,40.4,3.0,-203.715,-17.6,100.0,17.1,19.8,32.8,36.9,0.0,1.0,100.0,0.0,0.0,0.0,0.0,2562.0,4015.0,4179.0,5301.0,318.5,314.1,344.6,341.2,25.09,23.0,25.98,24.67,325.0,325.0,355.0,355.0,100.0,99.91,100.0,100.0,0.7,0.75,0.3,0.44,-0.1,-0.1,2.9,2.2,82.8,69.7,82.1,73.9,88.7,73.1,86.4,77.8,85.2,70.0,84.6,75.4,82.5,68.5,83.7,74.3,-1.03,1.01,0.07,0.05,0.0,102.35,103.12,96.56,96.56,174.7,27.6,0.6275348595894893,52.57484978827418,115.23254750063599,18.005085822595177,10.803051550459486,1,6
389,19.4,623.0,44.052511461270406,-78.68005345204308,-7.3,16.8,-10.9,18.1,5731.1,5731.0,121.4,0.0,1.0,1.0,0.0,1.0,1.0,0.0,0.0,0.0,100.0,1.0,1.186,26.0,0.0,-1.434,50.194,66.0,0.0,26.0,26.0,26.0,26.0,0.45,0.5,0.04,384.3,-2.64,-2.3,-1.82,-1.27,-527.91,455.17,4.0,0.0,0.0,0.0,0.0,0.36,-7.49,-7.49,1.17,1.01,0.03,0.52,33.74,0.12,-0.27,-9.78,100.0,0.0,0.0,97.35,0.0,0.0,0.0,0.0,0.0,0.0,0.0,6526.0,0.0,30.0,3.0,121.4,1.0,0.0,0.0,0.0,0.0,0.0,1.0,0.0,19.44,19.44,50.194,13.681,1.0,110.0,435.8,8750.0,0.0,0.0,110.0,110.0,433.0,0.0,0.0,0.0,1.0,166.7,75.9,75.9,68.3,68.3,34.0,9.4,48.53,8.0,50.9,3.0,-203.77,-15.3,100.0,16.7,20.6,32.3,37.8,0.0,1.0,100.0,0.0,0.0,0.0,0.0,2477.0,4138.0,4124.0,5343.0,318.7,313.8,344.7,341.1,25.09,23.0,25.98,24.67,325.0,325.0,355.0,355.0,100.0,99.91,100.0,100.0,0.66,0.71,0.49,0.63,-0.1,-0.1,3.0,2.2,82.8,69.7,82.2,73.9,88.6,73.1,86.4,77.8,85.2,70.0,84.6,75.4,82.5,68.5,83.6,74.3,-0.9,0.9,0.07,0.05,0.0,103.09,103.98,97.35,97.35,174.7,27.6,0.6738694235532579,50.41423953508464,109.11081838354622,-28.80813680403115,-90.02542825944033,1,6
390,19.45,624.7,44.05250570561213,-78.68006586268123,-5.4,6.8,-1.5,11.3,5732.8,5733.0,122.2,0.0,1.0,1.0,0.0,1.0,1.0,0.0,0.0,0.0,100.0,1.0,1.186,26.0,0.0,-1.428,50.194,66.0,0.0,26.0,26.0,26.0,26.0,0.48,0.48,0.08,384.2,-2.68,-2.27,-1.84,-1.25,-529.29,454.53,4.1,0.0,0.0,0.0,0.0,0.36,-7.49,-7.49,1.22,1.14,0.03,0.14,33.95,0.17,-0.27,-9.58,100.0,0.0,0.0,97.98,0.0,0.0,0.0,0.0,0.0,0.0,0.0,6569.0,0.0,30.0,3.0,122.2,0.0,0.0,0.0,0.0,0.0,0.0,1.0,0.0,19.484,19.484,50.194,13.681,0.0,110.0,435.8,8750.0,0.0,0.0,110.0,110.0,433.0,0.0,0.0,0.0,1.0,333.3,75.9,75.9,67.9,67.9,34.0,9.0,48.62,11.1,55.9,3.0,-203.815,-13.4,100.0,16.4,21.0,32.2,38.4,0.0,1.0,100.0,0.0,0.0,0.0,0.0,2471.0,4170.0,4136.0,5396.0,318.8,313.6,344.7,341.0,25.09,23.0,25.98,24.67,325.0,325.0,355.0,355.0,100.0,99.91,100.0,100.0,0.65,0.7,0.58,0.72,-0.1,-0.1,3.0,2.2,82.8,69.7,82.2,73.9,88.6,73.1,86.3,77.8,85.1,70.0,84.6,75.4,82.4,68.5,83.6,74.3,-0.79,0.79,0.07,0.05,0.0,103.76,104.64,97.99,97.99,174.7,27.6,0.6835202996254025,49.694036107871064,106.23000467469195,36.01017107616677,43.212205632814005,1,6
391,19.5,626.4,44.05249905063224,-78.68007998203045,-5.9,1.3,1.9,11.0,5734.5,5735.0,123.1,0.0,1.0,1.0,0.0,1.0,1.0,0.0,0.0,0.0,100.0,1.0,1.186,26.0,0.0,-1.419,50.194,66.0,0.0,26.0,26.0,26.0,26.0,0.48,0.51,0.03,384.2,-2.7,-2.24,-1.86,-1.24,-530.86,453.79,4.1,0.0,0.0,0.0,0.0,0.36,-7.49,-7.49,1.28,1.04,0.03,0.02,34.2,0.21,-0.26,-8.86,100.0,0.0,0.0,98.68,0.0,0.0,0.0,0.0,0.0,0.0,0.0,6615.0,0.0,30.0,3.0,123.1,1.0,0.0,0.0,0.0,0.0,0.0,1.0,0.0,19.536,19.536,50.194,13.681,1.0,110.0,435.8,8750.0,0.0,0.0,110.0,110.0,433.0,0.0,0.0,0.0,1.0,333.3,76.3,76.3,67.5,67.5,34.0,8.2,47.08,12.1,59.2,3.0,-203.865,-11.8,100.0,16.1,21.1,32.3,38.9,0.0,1.0,100.0,0.0,0.0,0.0,0.0,2320.0,4101.0,4167.0,5472.0,319.1,313.8,344.6,340.8,25.09,23.0,25.99,24.67,325.0,325.0,355.0,355.0,100.0,99.91,100.0,100.0,0.64,0.69,0.61,0.77,-0.1,-0.1,3.0,2.2,82.8,69.7,82.2,73.9,88.5,73.1,86.3,77.8,85.1,70.0,84.6,75.4,82.4,68.4,83.6,74.3,-0.69,0.68,0.08,0.05,0.0,104.54,105.33,98.68,98.68,174.7,27.6,0.7009992867328754,54.01525664270132,113.43203894682762,43.212205063790705,43.212205632814005,1,6
392,19.55,628.1,44.052492215788035,-78.68009419131182,-8.6,-4.5,2.5,7.0,5736.2,5736.0,123.9,0.0,1.0,1.0,0.0,1.0,1.0,0.0,0.0,0.0,100.0,1.0,1.186,26.0,0.0,-1.413,50.194,66.0,0.0,26.0,26.0,26.0,26.0,0.47,0.47,0.07,384.6,-2.69,-2.23,-1.87,-1.24,-532.44,453.03,4.2,0.0,0.0,0.0,0.0,0.36,-7.49,-7.49,1.31,0.44,0.01,-0.45,34.44,0.22,-0.26,-7.87,100.0,0.0,0.0,99.34,0.0,0.0,0.0,0.0,0.0,0.0,0.0,6660.0,0.0,30.0,3.0,123.9,0.0,0.0,0.0,0.0,0.0,0.0,1.0,0.0,19.587,19.587,50.194,13.681,0.0,110.0,435.8,8750.0,0.0,0.0,110.0,110.0,433.0,0.0,0.0,0.0,1.0,333.3,76.9,76.9,67.5,67.5,34.0,7.7,43.99,12.5,56.8,3.0,-203.915,-10.4,100.0,15.7,20.8,32.4,39.3,0.0,1.0,100.0,0.0,0.0,0.0,0.0,2254.0,3957.0,4150.0,5394.0,319.3,314.2,344.7,341.0,25.09,23.0,25.99,24.67,325.0,325.0,355.0,355.0,100.0,99.91,100.0,100.0,0.64,0.67,0.62,0.75,-0.1,-0.1,2.9,2.2,82.8,69.7,82.2,73.9,88.5,73.0,86.3,77.8,85.0,69.9,84.6,75.4,82.3,68.4,83.6,74.3,-0.61,0.59,0.07,0.05,0.0,105.32,106.02,99.34,99.34,174.7,27.6,0.6683561924602779,54.015256614250134,110.55122523797336,10.803050981435831,-25.207120094730584,1,6
393,19.6,629.8,44.05248556080816,-78.68010759120375,-7.4,-6.6,0.4,-1.2,5738.0,5738.0,124.8,0.0,1.0,1.0,0.0,1.0,1.0,0.0,0.0,0.0,100.0,1.0,1.186,26.0,0.0,-1.407,50.194,66.0,0.0,26.0,26.0,26.0,26.0,0.45,0.48,0.05,385.1,-2.67,-2.23,-1.86,-1.25,-533.93,452.29,4.2,0.0,0.0,0.0,0.0,0.36,-7.49,-7.49,1.31,-0.35,-0.02,-0.45,34.67,0.22,-0.26,-7.13,100.0,0.0,0.0,100.01,0.0,0.0,0.0,0.0,0.0,0.0,0.0,6704.0,0.0,30.0,3.0,124.8,1.0,0.0,0.0,0.0,0.0,0.0,1.0,0.0,19.634,19.634,50.194,13.681,1.0,110.0,435.8,8750.0,0.0,0.0,110.0,110.0,433.0,0.0,0.0,0.0,1.0,333.3,77.5,77.5,67.8,67.8,34.0,7.8,42.48,11.0,53.4,3.0,-203.965,-10.3,100.0,15.3,20.5,32.4,39.2,0.0,1.0,100.0,0.0,0.0,0.0,0.0,2183.0,3777.0,4102.0,5263.0,319.5,314.7,344.8,341.3,25.09,23.0,25.99,24.67,325.0,325.0,355.0,355.0,100.0,99.91,100.0,100.0,0.65,0.7,0.58,0.72,-0.1,-0.1,2.9,2.3,82.8,69.7,82.2,73.9,88.4,73.0,86.3,77.8,85.0,69.9,84.5,75.4,82.3,68.4,83.6,74.3,-0.6,0.58,0.08,0.05,0.0,106.01,106.64,100.01,100.01,174.7,27.6,0.6598484674529449,55.0955617408449,110.91132693735456,32.40915436686656,39.61118806997874,1,6
394,19.65,631.6,44.05247845616747,-78.68012189041728,-4.6,-6.5,-7.3,-11.6,5739.7,5740.0,125.6,0.0,1.0,1.0,0.0,1.0,1.0,0.0,0.0,0.0,100.0,1.0,1.186,26.0,0.0,-1.404,50.194,66.0,0.0,26.0,26.0,26.0,26.0,0.44,0.48,-0.06,385.6,-2.66,-2.22,-1.85,-1.25,-535.52,451.5,4.3,0.0,0.0,0.0,0.0,0.37,-7.49,-7.49,1.28,-0.85,-0.05,-0.38,34.91,0.22,-0.28,-6.8,100.0,0.0,0.0,100.75,0.0,0.0,0.0,0.0,0.0,0.0,0.0,6754.0,0.0,30.0,3.0,125.6,0.0,0.0,0.0,0.0,0.0,0.0,1.0,0.0,19.686,19.686,50.194,13.681,0.0,110.0,435.8,8750.0,0.0,0.0,110.0,110.0,433.0,0.0,0.0,0.0,1.0,333.3,77.7,77.7,68.6,68.6,34.0,8.0,42.55,9.6,49.0,3.0,-204.015,-10.3,100.0,15.1,20.2,32.1,38.7,0.0,1.0,100.0,0.0,0.0,0.0,0.0,2228.0,3793.0,3976.0,5109.0,319.3,314.7,345.1,341.7,25.09,23.0,25.99,24.67,325.0,325.0,355.0,355.0,100.0,99.91,100.0,100.0,0.65,0.69,0.55,0.69,-0.1,-0.1,2.9,2.4,82.8,69.7,82.2,73.9,88.4,73.0,86.3,77.8,84.9,69.9,84.5,75.4,82.2,68.4,83.5,74.3,-0.6,0.59,0.07,0.05,0.0,106.75,107.35,100.75,100.75,174.7,27.6,0.6539113089708726,57.25617205093679,114.51234404497123,18.005085822595248,3.6010175628356933,1,6
395,19.7,633.3,44.05247126159462,-78.68013618963082,-2.8,-3.0,-14.7,-17.5,5741.5,5741.0,126.5,0.0,1.0,1.0,0.0,1.0,1.0,0.0,0.0,0.0,100.0,1.0,1.186,26.0,0.0,-1.398,50.194,66.0,0.0,26.0,26.0,26.0,26.0,0.43,0.48,-0.01,386.1,-2.66,-2.22,-1.82,-1.24,-537.11,450.7,4.3,0.0,0.0,0.0,0.0,0.37,-7.49,-7.49,1.24,-0.62,-0.08,-0.47,35.15,0.21,-0.29,-6.87,100.0,0.0,0.0,101.49,0.0,0.0,0.0,0.0,0.0,0.0,0.0,6803.0,0.0,30.0,3.0,126.5,1.0,0.0,0.0,0.0,0.0,0.0,1.0,0.0,19.737,19.737,50.194,13.681,1.0,110.0,435.8,8750.0,0.0,0.0,110.0,110.0,433.0,0.0,0.0,0.0,1.0,166.7,77.7,77.7,69.6,69.6,34.0,7.9,43.38,8.8,47.2,3.0,-204.065,-10.0,100.0,15.0,20.0,31.3,37.8,0.0,1.0,100.0,0.0,0.0,0.0,0.0,2320.0,3887.0,3895.0,5014.0,319.1,314.4,345.3,342.0,25.09,23.0,25.99,24.67,325.0,325.0,355.0,355.0,100.0,99.91,100.0,100.0,0.63,0.68,0.53,0.68,-0.1,-0.1,3.0,2.4,82.8,69.7,82.2,74.0,88.3,73.0,86.2,77.8,84.9,69.9,84.5,75.4,82.2,68.4,83.5,74.3,-0.58,0.57,0.08,0.05,0.0,107.45,108.09,101.49,101.49,174.7,27.6,0.6445153217728807,56.896070323104425,111.27142869363813,10.803050981435831,-25.207119525707355,1,6
396,19.75,635.1,44.052464246886096,-78.68014967945491,-1.2,-3.0,-7.4,-10.9,5743.2,5743.0,127.3,0.0,1.0,1.0,0.0,1.0,1.0,0.0,0.0,0.0,100.0,1.0,1.186,26.0,0.0,-1.395,50.194,66.0,0.0,26.0,26.0,26.0,26.0,0.43,0.46,-0.02,386.3,-2.66,-2.21,-1.8,-1.25,-538.61,449.92,4.4,0.0,0.0,0.0,0.0,0.37,-7.49,-7.49,1.22,-0.15,-0.11,-0.58,35.38,0.22,-0.29,-6.89,100.0,0.0,0.0,102.14,0.0,0.0,0.0,0.0,0.0,0.0,0.0,6847.0,0.0,30.0,3.0,127.3,0.0,0.0,0.0,0.0,0.0,0.0,1.0,0.0,19.784,19.784,50.194,13.681,0.0,110.0,435.8,8750.0,0.0,0.0,110.0,110.0,433.0,0.0,0.0,0.0,1.0,333.3,77.8,77.8,69.9,69.9,34.0,7.8,42.92,9.2,47.4,3.0,-204.115,-9.9,100.0,14.9,19.9,31.0,37.2,0.0,1.0,100.0,0.0,0.0,0.0,0.0,2329.0,3866.0,3941.0,5015.0,319.1,314.5,345.2,342.0,25.09,23.0,25.99,24.67,325.0,325.0,355.0,355.0,100.0,99.91,100.0,100.0,0.62,0.68,0.54,0.69,-0.1,-0.1,3.0,2.4,82.8,69.7,82.2,74.0,88.2,73.0,86.2,77.8,84.8,69.9,84.5,75.4,82.1,68.3,83.5,74.3,-0.57,0.56,0.08,0.05,0.0,108.21,108.81,102.14,102.14,174.7,27.6,0.63,58.33647714908037,111.9916320924005,39.611188069978596,46.81322205760239,1,6
397,19.8,636.9,44.052456692584606,-78.68016415853276,-0.7,-2.6,1.5,-0.5,5745.0,5745.0,128.2,0.0,1.0,1.0,0.0,1.0,1.0,0.0,0.0,0.0,100.0,1.0,1.186,26.0,0.0,-1.386,50.194,66.0,0.0,26.0,26.0,26.0,26.0,0.43,0.49,-0.01,386.2,-2.65,-2.22,-1.81,-1.25,-540.22,449.08,4.4,0.0,0.0,0.0,0.0,0.37,-7.49,-7.49,1.22,0.13,-0.14,-0.3,35.62,0.22,-0.28,-6.86,100.0,0.0,0.0,102.77,0.0,0.0,0.0,0.0,0.0,0.0,0.0,6889.0,0.0,30.0,3.0,128.2,1.0,0.0,0.0,0.0,0.0,0.0,1.0,0.0,19.836,19.836,50.194,13.681,1.0,110.0,435.8,8750.0,0.0,0.0,110.0,110.0,433.0,0.0,0.0,0.0,1.0,333.3,77.9,77.9,69.6,69.6,34.0,8.3,43.51,9.5,48.9,3.0,-204.165,-10.5,100.0,14.9,19.7,31.0,37.2,0.0,1.0,100.0,0.0,0.0,0.0,0.0,2320.0,3882.0,4030.0,5122.0,319.1,314.4,345.0,341.7,25.09,23.0,25.99,24.67,325.0,325.0,355.0,355.0,100.0,99.91,100.0,100.0,0.64,0.68,0.54,0.68,-0.1,-0.1,2.9,2.4,82.8,69.7,82.2,74.0,88.2,72.9,86.2,77.8,84.8,69.8,84.5,75.4,82.1,68.3,83.5,74.3,-0.6,0.59,0.08,0.05,0.0,108.93,109.52,102.77,102.77,174.7,27.6,0.6519969325081215,60.857189130102284,115.95275089939837,18.00508582259546,7.202034556647732,1,6
398,19.85,638.7,44.05244904835096,-78.68017863761062,0.1,1.1,4.7,7.0,5746.8,5747.0,129.0,0.0,1.0,1.0,0.0,1.0,1.0,0.0,0.0,0.0,100.0,1.0,1.186,26.0,0.0,-1.38,50.194,66.0,0.0,26.0,26.0,26.0,26.0,0.47,0.45,0.01,385.9,-2.65,-2.23,-1.82,-1.24,-541.83,448.23,4.5,0.0,0.0,0.0,0.0,0.37,-7.49,-7.49,1.23,0.18,-0.16,-0.12,35.85,0.21,-0.27,-7.05,100.0,0.0,0.0,103.4,0.0,0.0,0.0,0.0,0.0,0.0,0.0,6931.0,0.0,30.0,3.0,129.0,0.0,0.0,0.0,0.0,0.0,0.0,0.0,0.0,19.887,19.887,50.194,13.681,0.0,110.0,435.8,8750.0,0.0,0.0,110.0,110.0,433.0,0.0,0.0,0.0,1.0,333.3,77.7,77.7,69.1,69.1,34.0,9.8,47.42,9.4,50.8,3.0,-204.215,-11.8,100.0,14.9,19.8,31.3,37.6,0.0,1.0,100.0,0.0,0.0,0.0,0.0,2365.0,3995.0,4080.0,5249.0,319.0,314.1,344.9,341.4,25.09,23.0,25.99,24.67,325.0,325.0,355.0,355.0,100.0,99.91,100.0,100.0,0.7,0.75,0.53,0.68,-0.1,-0.1,2.9,2.3,82.8,69.7,82.2,74.0,88.1,72.9,86.2,77.8,84.7,69.8,84.4,75.4,82.0,68.3,83.4,74.3,-0.67,0.66,0.07,0.05,0.0,109.68,110.29,103.4,103.4,174.7,27.6,0.6507687761409577,60.13698573133992,112.71183554806527,3.601017278323795,-28.808137088542765,1,6
399,19.9,640.5,44.05244167391378,-78.68019230729904,3.5,5.8,3.8,9.4,5748.6,5749.0,129.8,0.0,1.0,1.0,0.0,1.0,1.0,0.0,0.0,0.0,100.0,1.0,1.186,26.0,0.0,-1.38,50.194,66.0,0.0,26.0,26.0,26.0,26.0,0.48,0.48,0.02,385.5,-2.66,-2.23,-1.85,-1.24,-543.35,447.41,4.5,0.0,0.0,0.0,0.0,0.37,-7.49,-7.49,1.24,0.28,-0.17,0.09,36.08,0.21,-0.27,-7.64,100.0,0.0,0.0,104.02,0.0,0.0,0.0,0.0,0.0,0.0,0.0,6973.0,0.0,30.0,3.0,129.8,1.0,0.0,0.0,0.0,0.0,0.0,0.0,0.0,19.934,19.934,50.194,13.681,1.0,110.0,435.8,8750.0,0.0,0.0,110.0,110.0,433.0,0.0,0.0,0.0,1.0,333.3,77.3,77.3,68.7,68.7,34.0,11.9,51.65,9.0,52.1,3.0,-204.265,-14.0,100.0,15.1,20.1,31.5,38.0,0.0,1.0,100.0,0.0,0.0,0.0,0.0,2402.0,4086.0,4059.0,5336.0,318.9,313.9,344.9,341.2,25.09,23.0,25.99,24.68,325.0,325.0,355.0,355.0,100.0,99.91,100.0,100.0,0.79,0.83,0.52,0.67,-0.1,-0.1,2.9,2.2,82.8,69.7,82.2,74.0,88.1,72.9,86.2,77.8,84.7,69.8,84.4,75.4,82.0,68.3,83.4,74.3,-0.79,0.78,0.08,0.05,0.0,110.34,111.0,104.02,104.02,174.7,27.6,0.6791170738539858,61.217290857934664,113.07193719054409,43.212205063790634,39.6111875009548,1,6
400,19.95,642.3,44.052433759883655,-78.68020687630904,4.3,8.6,1.1,11.8,5750.4,5750.0,130.7,0.0,1.0,1.0,0.0,1.0,1.0,0.0,0.0,0.0,100.0,1.0,1.186,26.0,0.0,-1.368,50.194,66.0,0.0,26.0,26.0,26.0,26.0,0.55,0.46,0.03,385.1,-2.66,-2.25,-1.88,-1.21,-544.97,446.53,4.6,0.0,0.0,0.0,0.0,0.37,-7.49,-7.49,1.26,0.49,-0.16,0.56,36.31,0.21,-0.28,-8.86,100.0,0.0,0.0,104.7,0.0,0.0,0.0,0.0,0.0,0.0,0.0,7019.0,0.0,30.0,3.0,130.7,0.0,0.0,0.0,0.0,0.0,0.0,0.0,0.0,19.986,19.986,50.194,13.681,0.0,110.0,435.8,8750.0,0.0,0.0,110.0,110.0,433.0,0.0,0.0,0.0,1.0,333.3,76.7,76.7,68.5,68.5,34.0,15.0,58.59,10.3,56.0,3.0,-204.315,-17.3,100.0,15.3,20.5,31.5,38.6,0.0,1.0,100.0,0.0,0.0,0.0,0.0,2411.0,4219.0,4005.0,5456.0,318.9,313.5,345.0,340.9,25.09,23.0,25.99,24.68,325.0,325.0,355.0,355.0,100.0,99.91,100.0,100.0,0.93,0.97,0.57,0.71,-0.1,-0.1,2.9,2.2,82.8,69.8,82.2,74.0,88.0,72.9,86.1,77.8,84.6,69.8,84.4,75.4,81.9,68.3,83.4,74.3,-0.98,0.97,0.08,0.04,0.0,111.0,111.75,104.7,104.7,174.7,27.6,0.7176350047203662,64.45820623771898,116.67295429816075,25.207119810219112,3.601017562835267,1,6
401,20.0,644.1,44.05242557605704,-78.68022144531906,2.8,11.1,-1.9,15.5,5752.2,5752.0,131.5,0.0,1.0,1.0,0.0,1.0,1.0,0.0,0.0,0.0,100.0,1.0,1.186,26.0,0.0,-1.365,50.194,66.0,0.0,26.0,26.0,26.0,26.0,0.62,0.47,0.05,384.6,-2.68,-2.24,-1.94,-1.17,-546.59,445.62,4.6,0.0,0.0,0.0,0.0,0.37,-7.49,-7.49,1.29,0.72,-0.13,1.01,36.54,0.23,-0.28,-10.47,100.0,0.0,0.0,105.37,0.0,0.0,0.0,0.0,0.0,0.0,0.0,7064.0,0.0,30.0,3.0,131.5,1.0,0.0,0.0,0.0,0.0,0.0,0.0,0.0,20.037,20.037,50.194,13.681,1.0,110.0,435.8,8750.0,0.0,0.0,110.0,110.0,433.0,0.0,0.0,0.0,1.0,333.3,76.2,76.2,68.2,68.2,34.0,16.9,64.52,12.7,62.9,3.0,-204.37,-19.4,100.0,15.4,21.1,31.4,39.4,0.0,1.0,100.0,0.0,0.0,0.0,0.0,2372.0,4372.0,3953.0,5648.0,319.0,313.1,345.2,340.4,25.09,23.0,25.99,24.68,325.0,325.0,355.0,355.0,100.0,99.92,100.0,100.0,1.05,1.08,0.66,0.79,-0.1,-0.1,3.0,2.1,82.8,69.8,82.2,74.0,88.0,72.9,86.1,77.8,84.6,69.8,84.4,75.4,81.9,68.3,83.4,74.3,-1.12,1.11,0.08,0.05,0.0,111.65,112.52,105.37,105.37,174.7,27.6,0.779615289742319,63.738002838956575,113.43203894682762,7.20203427213562,-28.808136519518968,1,6
402,20.05,645.9,44.05241784189123,-78.68023520493963,-0.4,9.5,-3.3,17.5,5754.1,5754.0,132.3,0.0,1.0,1.0,0.0,1.0,1.0,0.0,0.0,0.0,100.0,1.0,1.186,26.0,0.0,-1.359,50.194,66.0,0.0,26.0,26.0,26.0,26.0,0.66,0.46,0.06,384.3,-2.71,-2.22,-1.99,-1.13,-548.12,444.76,4.7,0.0,0.0,0.0,0.0,0.37,-7.49,-7.49,1.32,0.8,-0.09,1.02,36.76,0.27,-0.28,-11.65,100.0,0.0,0.0,105.99,0.0,0.0,0.0,0.0,0.0,0.0,0.0,7105.0,0.0,30.0,3.0,132.3,0.0,0.0,0.0,0.0,0.0,0.0,0.0,0.0,20.086,20.086,50.194,13.681,0.0,110.0,435.8,8750.0,0.0,0.0,110.0,110.0,433.0,0.0,0.0,0.0,1.0,333.3,76.0,76.0,67.9,67.9,34.0,16.6,67.14,15.4,70.7,3.0,-204.415,-19.7,100.0,15.4,21.5,31.3,40.3,0.0,1.0,100.0,0.0,0.0,0.0,0.0,2282.0,4459.0,3908.0,5808.0,319.2,312.9,345.3,339.9,25.09,23.0,25.99,24.68,325.0,325.0,355.0,355.0,100.0,99.92,100.0,100.0,1.08,1.12,0.76,0.89,-0.1,-0.1,3.0,2.1,82.8,69.8,82.2,74.0,87.9,72.9,86.1,77.8,84.5,69.8,84.4,75.4,81.9,68.3,83.4,74.3,-1.14,1.13,0.09,0.05,0.0,112.22,113.24,105.99,105.99,174.7,27.6,0.8067217612039482,65.17840966493254,113.79214064620885,50.414239335926396,36.01017107616684,1,6
403,20.1,647.8,44.052409298335974,-78.68024986388181,-2.5,4.4,-1.8,16.7,5755.9,5756.0,133.1,0.0,1.0,1.0,0.0,1.0,1.0,0.0,0.0,0.0,100.0,1.0,1.186,26.0,0.0,-1.356,50.194,66.0,0.0,26.0,26.0,26.0,26.0,0.69,0.46,0.04,384.2,-2.73,-2.2,-2.03,-1.1,-549.75,443.81,4.7,0.0,0.0,0.0,0.0,0.38,-7.49,-7.49,1.36,0.65,-0.06,0.91,36.98,0.32,-0.28,-12.22,100.0,0.0,0.0,106.66,0.0,0.0,0.0,0.0,0.0,0.0,0.0,7150.0,0.0,30.0,3.0,133.1,1.0,0.0,0.0,0.0,0.0,0.0,0.0,0.0,20.136,20.136,50.194,13.681,1.0,110.0,435.8,8750.0,0.0,0.0,110.0,110.0,433.0,0.0,0.0,0.0,1.0,333.3,76.0,76.0,67.8,67.8,34.0,15.9,67.9,17.8,75.8,3.0,-204.465,-18.8,100.0,15.3,21.8,31.2,41.1,0.0,1.0,100.0,0.0,0.0,0.0,0.0,2179.0,4456.0,3878.0,5859.0,319.5,312.9,345.4,339.8,25.09,23.0,25.99,24.68,325.0,325.0,355.0,355.0,100.0,99.92,100.0,100.0,1.09,1.15,0.85,0.98,-0.1,-0.1,3.1,2.1,82.8,69.8,82.2,74.0,87.9,72.9,86.1,77.8,84.5,69.8,84.3,75.4,81.8,68.3,83.3,74.3,-1.1,1.09,0.08,0.04,0.0,112.89,113.96,106.66,106.66,174.7,27.6,0.8302409288875128,68.77942677254921,117.0330560544443,46.8132223421145,32.409153513331006,1,6
404,20.15,649.6,44.052400664848555,-78.68026443289183,-4.7,1.6,-2.7,11.0,5757.8,5758.0,133.9,0.0,1.0,1.0,0.0,1.0,1.0,0.0,0.0,0.0,100.0,1.0,1.186,26.0,0.0,-1.353,50.194,66.0,0.0,26.0,26.0,26.0,26.0,0.71,0.46,0.03,384.3,-2.74,-2.17,-2.03,-1.08,-551.37,442.85,4.8,0.0,0.0,0.0,0.0,0.38,-7.49,-7.49,1.39,0.38,-0.03,1.02,37.2,0.37,-0.28,-12.21,100.0,0.0,0.0,107.34,0.0,0.0,0.0,0.0,0.0,0.0,0.0,7196.0,0.0,30.0,3.0,133.9,0.0,0.0,0.0,0.0,0.0,0.0,0.0,0.0,20.187,20.187,50.194,13.681,0.0,110.0,435.8,8750.0,0.0,0.0,110.0,110.0,433.0,0.0,0.0,0.0,1.0,166.7,76.2,76.2,67.9,67.9,34.0,15.5,66.97,19.9,78.7,3.0,-204.515,-17.2,100.0,15.0,21.8,31.0,41.7,0.0,1.0,100.0,0.0,0.0,0.0,0.0,2132.0,4421.0,3827.0,5833.0,319.6,313.0,345.5,339.9,25.09,23.0,25.99,24.68,325.0,325.0,355.0,355.0,100.0,99.92,100.0,100.0,1.1,1.14,0.93,1.06,-0.1,-0.1,3.1,2.1,82.8,69.8,82.2,74.0,87.8,72.9,86.1,77.8,84.4,69.8,84.3,75.4,81.8,68.3,83.3,74.3,-1.02,1.0,0.08,0.04,0.0,113.56,114.66,107.34,107.34,174.7,27.6,0.8465222974027323,69.859731899144,117.03305599754195,7.20203427213562,-32.409154651378316,1,6
405,20.2,651.5,44.05239185149682,-78.680279091834,-3.2,0.2,-5.3,5.4,5759.7,5760.0,134.7,0.0,1.0,1.0,0.0,1.0,1.0,0.0,0.0,0.0,100.0,1.0,1.186,26.0,0.0,-1.347,50.194,66.0,0.0,26.0,26.0,26.0,26.0,0.72,0.46,0.01,384.5,-2.75,-2.15,-2.05,-1.05,-553.0,441.87,4.9,0.0,0.0,0.0,0.0,0.38,-7.49,-7.49,1.4,0.15,0.01,1.08,37.43,0.42,-0.28,-11.75,100.0,0.0,0.0,108.0,0.0,0.0,0.0,0.0,0.0,0.0,0.0,7240.0,0.0,30.0,3.0,134.7,1.0,0.0,0.0,0.0,0.0,0.0,0.0,0.0,20.238,20.238,50.194,13.681,1.0,110.0,435.8,8750.0,0.0,0.0,110.0,110.0,433.0,0.0,0.0,0.0,1.0,166.7,76.4,76.4,68.2,68.2,34.0,14.5,65.53,20.7,79.4,3.0,-204.565,-15.6,100.0,14.9,21.9,30.8,41.9,0.0,1.0,100.0,0.0,0.0,0.0,0.0,2057.0,4396.0,3765.0,5810.0,319.8,313.0,345.6,339.9,25.09,23.0,25.99,24.68,325.0,325.0,355.0,355.0,100.0,99.92,100.0,100.0,1.08,1.11,0.98,1.11,-0.1,-0.1,3.1,2.2,82.8,69.8,82.2,74.0,87.8,72.9,86.1,77.8,84.4,69.8,84.3,75.4,81.7,68.3,83.3,74.4,-0.91,0.9,0.07,0.05,0.0,114.25,115.31,108.0,108.0,174.7,27.6,0.8544588931013591,69.49963019976278,113.79214058930647,14.40406854427124,-32.409153513331006,1,6
406,20.25,653.4,44.05238330794156,-78.68029285145457,-3.2,-1.3,-4.7,1.6,5761.5,5762.0,135.4,0.0,1.0,1.0,0.0,1.0,1.0,0.0,0.0,0.0,100.0,1.0,1.186,26.0,0.0,-1.344,50.194,66.0,0.0,26.0,26.0,26.0,26.0,0.72,0.46,0.0,384.7,-2.78,-2.18,-2.05,-1.05,-554.53,440.92,4.9,0.0,0.0,0.0,0.0,0.38,-7.49,-7.49,1.4,-0.03,0.05,1.16,37.63,0.44,-0.29,-11.21,100.0,0.0,0.0,108.6,0.0,0.0,0.0,0.0,0.0,0.0,0.0,7280.0,0.0,30.0,3.0,135.4,0.0,0.0,0.0,0.0,0.0,0.0,0.0,0.0,20.286,20.286,50.194,13.681,0.0,110.0,435.8,8750.0,0.0,0.0,110.0,110.0,433.0,0.0,0.0,0.0,1.0,333.3,76.6,76.6,68.6,68.6,34.0,14.7,65.99,20.8,79.2,3.0,-204.615,-15.4,100.0,14.7,21.8,30.5,42.0,0.0,1.0,100.0,0.0,0.0,0.0,0.0,2051.0,4376.0,3721.0,5778.0,319.8,313.1,345.8,340.0,25.09,23.0,25.99,24.68,325.0,325.0,355.0,355.0,100.0,99.92,100.0,100.0,1.1,1.14,0.99,1.12,-0.1,-0.1,3.1,2.2,82.8,69.8,82.2,74.0,87.7,72.9,86.0,77.8,84.3,69.8,84.3,75.5,81.7,68.3,83.3,74.4,-0.89,0.89,0.08,0.04,0.0,114.89,115.89,108.6,108.6,174.7,27.6,0.8544003745317531,71.30013875357112,113.79214064620885,28.80813680403108,5.690237969702139e-07,1,6
407,20.3,655.3,44.052374044929024,-78.68030751039674,-3.3,-1.6,-5.2,-0.3,5763.4,5763.0,136.2,0.0,1.0,1.0,0.0,1.0,1.0,0.0,0.0,0.0,100.0,1.0,1.186,26.0,0.0,-1.341,50.194,66.0,0.0,26.0,26.0,26.0,26.0,0.7,0.47,-0.01,385.0,-2.77,-2.14,-2.09,-1.06,-556.16,439.89,5.0,0.0,0.0,0.0,0.0,0.38,-7.49,-7.49,1.4,-0.2,0.1,1.2,37.85,0.45,-0.29,-10.92,100.0,0.0,0.0,109.22,0.0,0.0,0.0,0.0,0.0,0.0,0.0,7322.0,0.0,30.0,3.0,136.2,1.0,0.0,0.0,0.0,0.0,0.0,0.0,0.0,20.337,20.337,50.194,13.681,1.0,110.0,435.8,8750.0,0.0,0.0,110.0,110.0,433.0,0.0,0.0,0.0,1.0,333.3,76.8,76.8,69.0,69.0,34.0,14.8,64.81,20.0,78.7,3.0,-204.665,-15.2,100.0,14.5,21.7,30.3,42.0,0.0,1.0,100.0,0.0,0.0,0.0,0.0,2035.0,4297.0,3660.0,5761.0,319.8,313.3,345.9,340.0,25.09,23.0,25.99,24.69,325.0,325.0,355.0,355.0,100.0,99.92,100.0,100.0,1.12,1.15,0.99,1.12,-0.1,-0.1,3.1,2.2,82.8,69.8,82.2,74.0,87.7,72.9,86.0,77.8,84.3,69.8,84.3,75.5,81.6,68.3,83.3,74.4,-0.88,0.88,0.07,0.04,0.0,115.58,116.51,109.22,109.22,174.7,27.6,0.8432081593533117,72.38044388016588,113.79214064620885,25.207119810219183,0.0,1,6
408,20.35,657.2,44.052365231577284,-78.68032127001732,-3.6,-5.5,-4.9,-2.6,5765.3,5765.0,137.0,0.0,1.0,1.0,0.0,1.0,1.0,0.0,0.0,0.0,100.0,1.0,1.186,26.0,0.0,-1.338,50.194,66.0,0.0,26.0,26.0,26.0,26.0,0.71,0.44,-0.01,385.2,-2.77,-2.14,-2.09,-1.06,-557.69,438.91,5.0,0.0,0.0,0.0,0.0,0.38,-7.49,-7.49,1.38,-0.36,0.14,1.01,38.06,0.46,-0.29,-10.62,100.0,0.0,0.0,109.8,0.0,0.0,0.0,0.0,0.0,0.0,0.0,7360.0,0.0,30.0,3.0,137.0,0.0,0.0,0.0,0.0,0.0,0.0,1.0,0.0,20.384,20.384,50.194,13.681,0.0,110.0,435.8,8750.0,0.0,0.0,110.0,110.0,433.0,0.0,0.0,0.0,1.0,333.3,77.0,77.0,69.3,69.3,34.0,13.9,63.92,19.7,77.5,3.0,-204.715,-13.6,100.0,14.4,21.4,30.0,41.9,0.0,1.0,100.0,0.0,0.0,0.0,0.0,2021.0,4317.0,3646.0,5708.0,319.9,313.3,345.9,340.2,25.09,23.0,25.99,24.69,325.0,325.0,355.0,355.0,100.0,99.92,100.0,100.0,1.07,1.11,0.98,1.11,-0.1,-0.1,3.0,2.2,82.8,69.8,82.2,74.0,87.6,72.9,86.0,77.8,84.2,69.8,84.3,75.5,81.6,68.2,83.2,74.4,-0.8,0.79,0.07,0.04,0.0,116.19,117.12,109.8,109.8,174.7,27.6,0.835344240418284,73.82085073459304,113.79214064620885,54.01525661425012,36.01017107616656,1,6
409,20.4,659.1,44.0523556088361,-78.6803359289595,-2.5,-3.8,-2.1,-7.4,5767.3,5767.0,137.8,0.0,1.0,1.0,0.0,1.0,1.0,0.0,0.0,0.0,100.0,1.0,1.186,26.0,0.0,-1.332,50.194,66.0,0.0,26.0,26.0,26.0,26.0,0.65,0.44,-0.02,385.5,-2.76,-2.14,-2.06,-1.04,-559.32,437.84,5.1,0.0,0.0,0.0,0.0,0.38,-7.49,-7.49,1.36,-0.55,0.17,0.77,38.27,0.47,-0.3,-9.79,100.0,0.0,0.0,110.42,0.0,0.0,0.0,0.0,0.0,0.0,0.0,7402.0,0.0,30.0,3.0,137.8,1.0,0.0,0.0,0.0,0.0,0.0,1.0,0.0,20.436,20.436,50.194,13.681,1.0,110.0,435.8,8750.0,0.0,0.0,110.0,110.0,433.0,0.0,0.0,0.0,1.0,333.3,77.4,77.4,69.7,69.7,34.0,11.8,56.9,19.7,75.2,3.0,-204.765,-9.7,100.0,14.2,21.2,29.9,41.5,0.0,1.0,100.0,0.0,0.0,0.0,0.0,2052.0,4173.0,3671.0,5635.0,319.8,313.7,345.9,340.4,25.09,23.0,25.99,24.69,325.0,325.0,355.0,355.0,100.0,99.92,100.0,100.0,0.92,0.96,0.96,1.1,-0.1,-0.1,3.0,2.2,82.8,69.8,82.2,74.0,87.6,72.8,86.0,77.9,84.2,69.7,84.2,75.5,81.5,68.2,83.2,74.4,-0.59,0.59,0.07,0.04,0.0,116.91,117.81,110.42,110.42,174.7,27.6,0.7851751396981441,77.7819695415909,117.3931577538255,28.80813680403122,0.0,1,6
410,20.45,661.0,44.0523458062306,-78.68035058790167,-0.3,-5.0,1.5,-12.2,5769.2,5769.0,138.6,0.0,1.0,1.0,0.0,1.0,1.0,0.0,0.0,0.0,100.0,1.0,1.186,26.0,0.0,-1.329,50.194,66.0,0.0,26.0,26.0,26.0,26.0,0.59,0.46,-0.07,385.8,-2.74,-2.15,-2.02,-1.08,-560.95,436.75,5.2,0.0,0.0,0.0,0.0,0.38,-7.49,-7.49,1.33,-0.65,0.19,0.33,38.5,0.47,-0.3,-8.14,100.0,0.0,0.0,110.99,0.0,0.0,0.0,0.0,0.0,0.0,0.0,7440.0,0.0,30.0,3.0,138.6,0.0,0.0,0.0,0.0,0.0,0.0,1.0,0.0,20.487,20.487,50.194,13.681,0.0,110.0,435.8,8750.0,0.0,0.0,110.0,110.0,433.0,0.0,0.0,0.0,1.0,333.3,77.6,77.6,70.1,70.1,34.0,9.1,48.01,19.0,71.1,3.0,-204.82,-5.6,100.0,14.2,21.0,30.0,40.9,0.0,1.0,100.0,0.0,0.0,0.0,0.0,2174.0,3981.0,3716.0,5546.0,319.5,314.1,345.7,340.6,25.09,23.0,25.99,24.69,325.0,325.0,355.0,355.0,100.0,99.92,100.0,100.0,0.73,0.78,0.91,1.04,-0.1,-0.1,2.9,2.3,82.8,69.8,82.2,74.1,87.5,72.8,86.0,77.9,84.1,69.7,84.2,75.5,81.5,68.2,83.2,74.4,-0.35,0.35,0.08,0.05,0.0,117.64,118.39,110.99,110.99,174.7,27.6,0.751398695766768,76.70166441499616,113.79214064620885,2.8451182743083336e-07,-36.01017107616656,1,6
411,20.5,663.0,44.052336453285896,-78.68036434752224,6.5,-6.3,3.7,-13.6,5771.1,5771.0,139.3,0.0,1.0,1.0,0.0,1.0,1.0,0.0,0.0,0.0,100.0,1.0,1.186,26.0,0.0,-1.323,50.194,66.0,0.0,26.0,26.0,26.0,26.0,0.5,0.44,-0.06,386.0,-2.75,-2.14,-1.96,-1.09,-562.48,435.71,5.2,0.0,0.0,0.0,0.0,0.38,-7.49,-7.49,1.3,-0.71,0.19,0.17,38.7,0.44,-0.3,-6.09,100.0,0.0,0.0,111.53,0.0,0.0,0.0,0.0,0.0,0.0,0.0,7476.0,0.0,30.0,3.0,139.3,1.0,0.0,0.0,0.0,0.0,0.0,1.0,0.0,20.534,20.534,50.194,13.681,1.0,110.0,435.8,8750.0,0.0,0.0,110.0,110.0,433.0,0.0,0.0,0.0,1.0,333.3,77.6,77.6,70.4,70.4,34.0,6.1,40.25,16.8,64.6,3.0,-204.865,-2.3,100.0,14.6,20.7,30.2,40.2,0.0,1.0,100.0,0.0,0.0,0.0,0.0,2311.0,3815.0,3830.0,5401.0,319.1,314.6,345.5,341.0,25.09,23.0,25.99,24.69,325.0,325.0,355.0,355.0,100.0,99.92,100.0,100.0,0.56,0.63,0.79,0.95,-0.1,-0.1,2.8,2.3,82.8,69.8,82.2,74.1,87.4,72.8,86.0,77.9,84.1,69.7,84.2,75.5,81.4,68.2,83.2,74.4,-0.15,0.15,0.08,0.04,0.0,118.4,118.94,111.53,111.53,174.7,27.6,0.6687301398920195,77.78196957004208,113.79214064620885,46.81322262662604,36.01017107616656,1,6
412,20.55,664.9,44.052326380883905,-78.68037900646442,10.3,-9.0,7.5,-16.0,5773.1,5773.0,140.1,0.0,1.0,1.0,0.0,1.0,1.0,0.0,0.0,0.0,100.0,1.0,1.186,26.0,0.0,-1.32,50.194,66.0,0.0,26.0,26.0,26.0,26.0,0.41,0.44,-0.02,386.0,-2.7,-2.19,-1.94,-1.19,-564.11,434.59,5.3,0.0,0.0,0.0,0.0,0.39,-7.49,-7.49,1.26,-0.8,0.2,0.23,38.92,0.39,-0.3,-3.9,100.0,0.0,0.0,112.1,0.0,0.0,0.0,0.0,0.0,0.0,0.0,7514.0,0.0,30.0,3.0,140.1,0.0,0.0,0.0,0.0,0.0,0.0,1.0,0.0,20.586,20.586,50.194,13.681,0.0,110.0,435.8,8750.0,0.0,0.0,110.0,110.0,433.0,0.0,0.0,0.0,1.0,333.3,77.5,77.5,70.7,70.7,34.0,3.5,34.24,12.2,55.3,3.0,-204.915,-0.5,100.0,15.1,20.2,30.5,39.4,0.0,1.0,100.0,0.0,0.0,0.0,0.0,2474.0,3727.0,3930.0,5240.0,318.7,314.9,345.2,341.4,25.09,23.0,25.99,24.69,325.0,325.0,355.0,355.0,100.0,99.92,100.0,100.0,0.44,0.49,0.63,0.78,-0.1,-0.1,2.6,2.3,82.8,69.8,82.2,74.1,87.4,72.8,85.9,77.9,84.0,69.7,84.2,75.5,81.4,68.2,83.2,74.4,-0.03,0.03,0.09,0.05,0.0,119.17,119.52,112.1,112.1,174.7,27.6,0.6017474553332153,81.38298667765876,117.3931577538255,21.60610224738363,3.6010169938120384,1,6
413,20.6,666.9,44.0523161286176,-78.6803936654066,11.1,-6.9,10.2,-14.9,5775.0,5775.0,140.9,0.0,1.0,1.0,0.0,1.0,1.0,0.0,0.0,0.0,100.0,1.0,1.186,26.0,0.0,-1.317,50.194,66.0,0.0,26.0,26.0,26.0,26.0,0.33,0.47,-0.07,386.0,-2.68,-2.26,-1.81,-1.21,-565.74,433.45,5.3,0.0,0.0,0.0,0.0,0.39,-7.49,-7.49,1.22,-0.76,0.2,0.2,39.14,0.31,-0.31,-2.33,100.0,0.0,0.0,112.66,0.0,0.0,0.0,0.0,0.0,0.0,0.0,7552.0,0.0,30.0,3.0,140.9,1.0,0.0,0.0,0.0,0.0,0.0,1.0,0.0,20.637,20.637,50.194,13.681,1.0,110.0,435.8,8750.0,0.0,0.0,110.0,110.0,433.0,0.0,0.0,0.0,1.0,333.3,77.4,77.4,70.8,70.8,34.0,1.6,29.8,7.5,46.5,3.0,-204.965,-0.4,100.0,15.6,19.9,31.1,38.7,0.0,1.0,100.0,0.0,0.0,0.0,0.0,2614.0,3528.0,4058.0,5135.0,318.4,315.4,344.9,341.7,25.09,23.0,26.0,24.69,325.0,325.0,355.0,355.0,100.0,99.92,100.0,100.0,0.36,0.42,0.46,0.63,-0.1,-0.1,2.5,2.3,82.8,69.8,82.2,74.1,87.3,72.8,85.9,77.9,83.9,69.7,84.2,75.5,81.3,68.2,83.1,74.4,-0.02,0.01,0.08,0.05,0.0,119.9,120.12,112.66,112.66,174.7,27.6,0.5785326265648291,79.94257979478044,114.15224234559005,-7.20203455664759,-25.207120094730442,1,6
414,20.65,668.8,44.05230641594426,-78.68040751495933,10.5,-7.7,9.5,-11.8,5777.0,5777.0,141.6,0.0,1.0,1.0,0.0,1.0,1.0,0.0,0.0,0.0,100.0,1.0,1.186,26.0,0.0,-1.314,50.194,66.0,0.0,26.0,26.0,26.0,26.0,0.26,0.44,-0.07,386.0,-2.62,-2.28,-1.8,-1.27,-567.28,432.37,5.4,0.0,0.0,0.0,0.0,0.39,-7.49,-7.49,1.19,-0.73,0.22,0.35,39.35,0.24,-0.31,-1.53,100.0,0.0,0.0,113.2,0.0,0.0,0.0,0.0,0.0,0.0,0.0,7589.0,0.0,30.0,3.0,141.6,0.0,0.0,0.0,0.0,0.0,0.0,1.0,0.0,20.684,20.684,50.194,13.681,0.0,110.0,435.8,8750.0,0.0,0.0,110.0,110.0,433.0,0.0,0.0,0.0,1.0,333.3,77.3,77.3,70.8,70.8,34.0,-0.3,26.14,2.8,38.3,3.0,-205.015,-0.4,100.0,16.2,19.5,31.5,38.1,0.0,1.0,100.0,0.0,0.0,0.0,0.0,2762.0,3457.0,4179.0,5032.0,318.0,315.6,344.6,341.9,25.09,23.0,26.0,24.69,325.0,325.0,355.0,355.0,100.0,99.92,100.0,100.0,0.29,0.34,0.34,0.48,-0.1,-0.1,2.5,2.3,82.8,69.8,82.2,74.1,87.3,72.7,85.9,77.9,83.9,69.6,84.1,75.5,81.3,68.1,83.1,74.4,-0.02,0.02,0.06,0.06,0.0,120.62,120.71,113.2,113.2,174.7,27.6,0.5158488150611572,80.662783221994,114.87244574435246,43.21220563281429,46.8132226266259,1,6
415,20.7,670.8,44.05229598381363,-78.68042235376582,8.2,-9.4,10.8,-11.4,5779.0,5779.0,142.4,0.0,1.0,1.0,0.0,1.0,1.0,0.0,0.0,0.0,100.0,1.0,1.186,26.0,0.0,-1.308,50.194,66.0,0.0,26.0,26.0,26.0,26.0,0.18,0.44,-0.03,386.0,-2.56,-2.29,-1.79,-1.29,-568.93,431.21,5.5,0.0,0.0,0.0,0.0,0.39,-7.49,-7.49,1.15,-0.72,0.24,0.56,39.57,0.18,-0.31,-0.99,100.0,0.0,0.0,113.8,0.0,0.0,0.0,0.0,0.0,0.0,0.0,7628.0,0.0,30.0,3.0,142.4,1.0,0.0,0.0,0.0,0.0,0.0,1.0,0.0,20.736,20.736,50.194,13.681,1.0,110.0,435.8,8750.0,0.0,0.0,110.0,110.0,433.0,0.0,0.0,0.0,1.0,333.3,77.4,77.4,70.9,70.9,34.0,-3.1,21.98,-2.7,31.7,3.0,-205.065,-0.4,100.0,16.6,19.0,32.1,37.5,0.0,1.0,100.0,0.0,0.0,0.0,0.0,2840.0,3336.0,4261.0,4909.0,317.8,315.9,344.4,342.3,25.09,23.0,26.0,24.69,325.0,325.0,355.0,355.0,100.0,99.92,100.0,100.0,0.21,0.26,0.21,0.37,-0.1,-0.1,2.4,2.3,82.8,69.8,82.2,74.1,87.2,72.7,85.9,77.9,83.8,69.6,84.1,75.5,81.2,68.1,83.1,74.4,-0.02,0.01,0.07,0.05,0.0,121.31,121.37,113.8,113.8,174.7,27.6,0.47634021455258213,84.26380035806187,118.83356460825264,18.005085822595248,7.202034556647021,1,6
416,20.75,672.8,44.05228537181868,-78.68043719257233,5.2,-6.1,10.8,-8.2,5780.9,5781.0,143.2,0.0,1.0,1.0,0.0,1.0,1.0,0.0,0.0,0.0,100.0,1.0,1.186,26.0,0.0,-1.308,50.194,66.0,0.0,26.0,26.0,26.0,26.0,0.13,0.45,-0.08,386.0,-2.55,-2.34,-1.73,-1.39,-570.58,430.03,5.5,0.0,0.0,0.0,0.0,0.39,-7.49,-7.49,1.11,-0.79,0.27,0.64,39.79,0.13,-0.31,-0.7,100.0,0.0,0.0,114.4,0.0,0.0,0.0,0.0,0.0,0.0,0.0,7669.0,0.0,30.0,3.0,143.2,0.0,0.0,0.0,0.0,0.0,0.0,1.0,0.0,20.787,20.787,50.194,13.681,0.0,110.0,435.8,8750.0,0.0,0.0,110.0,110.0,433.0,0.0,0.0,0.0,1.0,333.3,77.5,77.5,70.8,70.8,34.0,-5.5,19.13,-6.3,27.4,3.0,-205.115,-0.4,100.0,16.8,18.7,32.6,37.1,0.0,1.0,100.0,0.0,0.0,0.0,0.0,2953.0,3197.0,4340.0,4845.0,317.5,316.3,344.2,342.4,25.09,23.0,26.0,24.7,325.0,325.0,355.0,355.0,100.0,99.92,100.0,100.0,0.16,0.2,0.13,0.28,-0.1,-0.1,2.4,2.3,82.8,69.8,82.2,74.1,87.1,72.7,85.8,77.9,83.8,69.6,84.1,75.5,81.1,68.1,83.1,74.4,-0.02,0.02,0.08,0.05,0.0,121.99,122.01,114.4,114.4,174.7,27.6,0.4751841748206689,82.46329180425353,115.59264920001716,-18.005085822595248,-28.808137088542765,1,6
359,17.9,590.7,44.05260463098878,-78.67975532693072,9.3,-16.9,22.9,-15.0,7420.8,7421.0,116.7,0.0,1.0,1.0,0.0,1.0,1.0,0.0,0.0,0.0,100.0,1.0,1.186,26.0,0.0,-0.387,48.272,66.0,0.0,26.0,26.0,26.0,26.0,-0.4,0.47,-0.03,386.2,-2.37,-2.54,-1.32,-1.71,-494.76,465.53,3.2,0.0,0.0,0.0,0.0,0.34,-7.49,-7.49,0.71,0.39,-0.24,-1.11,32.44,-0.09,-0.29,8.87,100.0,0.0,0.0,93.53,0.0,0.0,0.0,0.0,0.0,0.0,0.0,8039.0,0.0,30.0,2.0,116.7,0.0,0.0,0.0,0.0,0.0,0.0,0.0,0.0,17.913,17.913,48.272,13.394,0.0,110.0,435.8,8750.0,0.0,0.0,110.0,110.0,433.0,0.0,0.0,0.0,1.0,333.3,77.3,77.3,71.7,71.7,34.0,-39.3,-6.14,-45.7,-6.0,4.0,-250.515,13.2,100.0,19.3,16.7,34.6,30.5,0.0,1.0,82.8,0.0,0.0,0.0,0.0,3795.0,2357.0,5059.0,3904.0,315.5,318.5,342.6,344.9,25.61,23.0,26.39,24.73,325.0,325.0,355.0,355.0,99.96,100.0,99.97,100.0,-0.57,-0.54,-0.59,-0.43,-0.1,-0.1,2.1,2.9,86.1,69.8,84.7,74.3,98.5,76.3,88.0,77.4,94.6,73.0,86.6,75.1,91.4,71.5,85.6,74.1,0.79,-0.8,0.06,0.07,0.0,99.96,99.15,93.54,93.54,174.7,27.6,0.6178996682310163,31.68895056978769,111.27142863673573,0.0,54.01525661425012,1,6
360,17.95,592.3,44.05260058404155,-78.67976971607641,4.5,-12.3,16.5,-3.0,7422.4,7422.0,117.6,0.0,1.0,1.0,0.0,1.0,1.0,0.0,0.0,0.0,100.0,1.0,1.186,26.0,0.0,-0.393,48.272,66.0,0.0,26.0,26.0,26.0,26.0,-0.4,0.46,0.04,386.2,-2.33,-2.59,-1.3,-1.73,-496.36,465.08,3.2,0.0,0.0,0.0,0.0,0.34,-7.49,-7.49,0.73,0.33,-0.26,-0.03,32.68,-0.14,-0.28,8.28,100.0,0.0,0.0,94.2,0.0,0.0,0.0,0.0,0.0,0.0,0.0,8096.0,0.0,30.0,2.0,117.6,1.0,0.0,0.0,0.0,0.0,0.0,0.0,0.0,17.964,17.964,48.272,13.394,1.0,110.0,435.8,8750.0,0.0,0.0,110.0,110.0,433.0,0.0,0.0,0.0,1.0,333.3,77.5,77.5,71.4,71.4,34.0,-36.8,-4.36,-48.6,-8.8,4.0,-250.565,9.3,100.0,19.5,16.1,35.4,30.4,0.0,1.0,82.8,0.0,0.0,0.0,0.0,3797.0,2377.0,5010.0,3919.0,315.5,318.6,342.7,344.9,25.61,23.0,26.39,24.73,325.0,325.0,355.0,355.0,99.96,100.0,99.97,100.0,-0.51,-0.47,-0.66,-0.51,-0.1,-0.1,2.1,2.9,86.1,69.8,84.7,74.3,98.4,76.2,88.0,77.4,94.6,73.0,86.5,75.1,91.3,71.5,85.6,74.1,0.58,-0.59,0.06,0.07,0.0,100.65,99.87,94.2,94.2,174.7,27.6,0.6109009739720506,32.04905226916889,115.59264920001716,-10.80305155045945,18.00508610710736,1,6
361,18.0,594.0,44.05259662702649,-78.67978419515427,-0.7,-5.6,8.6,5.0,7424.1,7424.0,118.4,0.0,1.0,1.0,0.0,1.0,1.0,0.0,0.0,0.0,100.0,1.0,1.186,26.0,0.0,-0.396,48.272,66.0,0.0,26.0,26.0,26.0,26.0,-0.38,0.46,0.0,385.9,-2.3,-2.59,-1.31,-1.73,-497.97,464.64,3.3,0.0,0.0,0.0,0.0,0.34,-7.49,-7.49,0.75,0.31,-0.25,0.23,32.91,-0.17,-0.27,6.68,100.0,0.0,0.0,94.81,0.0,0.0,0.0,0.0,0.0,0.0,0.0,8148.0,0.0,30.0,2.0,118.4,0.0,0.0,0.0,0.0,0.0,0.0,0.0,0.0,18.014,18.014,48.272,13.394,0.0,110.0,435.8,8750.0,0.0,0.0,110.0,110.0,433.0,0.0,0.0,0.0,1.0,333.3,77.6,77.6,70.9,70.9,34.0,-32.2,-1.63,-48.6,-9.3,4.0,-250.615,5.5,100.0,19.5,15.8,35.8,30.6,0.0,1.0,82.8,0.0,0.0,0.0,0.0,3772.0,2470.0,5012.0,4063.0,315.6,318.3,342.7,344.5,25.62,23.01,26.39,24.73,325.0,325.0,355.0,355.0,99.96,100.0,99.97,100.0,-0.41,-0.36,-0.66,-0.51,-0.1,-0.1,2.1,2.8,86.1,69.8,84.7,74.3,98.4,76.2,88.0,77.4,94.5,73.0,86.5,75.1,91.3,71.4,85.6,74.1,0.36,-0.36,0.07,0.07,0.0,101.3,100.68,94.8,94.8,174.7,27.6,0.5966573556070519,30.608645414741744,113.07193724744647,-14.404068259759661,-14.404068544271098,1,6
362,18.05,595.6,44.0525929398079,-78.67979795477484,-0.5,-2.8,4.1,8.4,7425.7,7426.0,119.2,0.0,1.0,1.0,0.0,1.0,1.0,0.0,0.0,0.0,100.0,1.0,1.186,26.0,0.0,-0.405,48.272,66.0,0.0,26.0,26.0,26.0,26.0,-0.29,0.45,0.01,385.9,-2.29,-2.61,-1.34,-1.72,-499.5,464.23,3.3,0.0,0.0,0.0,0.0,0.34,-7.49,-7.49,0.76,0.32,-0.22,0.73,33.13,-0.17,-0.27,4.61,100.0,0.0,0.0,95.34,0.0,0.0,0.0,0.0,0.0,0.0,0.0,8194.0,0.0,30.0,2.0,119.2,1.0,0.0,0.0,0.0,0.0,0.0,0.0,0.0,18.063,18.063,48.272,13.394,1.0,110.0,435.8,8750.0,0.0,0.0,110.0,110.0,433.0,0.0,0.0,0.0,1.0,333.3,77.7,77.7,70.7,70.7,34.0,-25.0,3.3,-43.6,-7.2,4.0,-250.665,1.2,100.0,19.5,15.7,36.0,31.0,0.0,1.0,80.5,0.0,0.0,0.0,0.0,3663.0,2597.0,4899.0,4113.0,315.9,317.9,343.0,344.3,25.62,23.01,26.39,24.73,325.0,325.0,355.0,355.0,99.96,100.0,99.97,100.0,-0.26,-0.2,-0.58,-0.44,-0.1,-0.1,2.1,2.6,86.1,69.8,84.7,74.3,98.3,76.1,88.0,77.4,94.5,72.9,86.5,75.1,91.2,71.4,85.5,74.1,0.11,-0.11,0.07,0.07,0.0,101.87,101.43,95.34,95.34,174.7,27.6,0.5354437412091022,30.608645443192923,114.15224234559005,18.00508553808342,90.02542712139302,1,6
363,18.1,597.3,44.052588982792834,-78.67981270364918,-5.0,2.3,-4.6,11.4,7427.4,7427.0,120.0,0.0,1.0,1.0,0.0,1.0,1.0,0.0,0.0,0.0,100.0,1.0,1.186,26.0,0.0,-0.411,48.272,66.0,0.0,26.0,26.0,26.0,26.0,-0.19,0.42,0.03,385.8,-2.3,-2.59,-1.39,-1.67,-501.14,463.79,3.3,0.0,0.0,0.0,0.0,0.34,-7.49,-7.49,0.78,0.14,-0.17,1.32,33.35,-0.15,-0.27,1.94,100.0,0.0,0.0,95.77,0.0,0.0,0.0,0.0,0.0,0.0,0.0,8231.0,0.0,30.0,2.0,120.0,0.0,0.0,0.0,0.0,0.0,0.0,1.0,0.0,18.114,18.114,48.272,13.394,0.0,110.0,435.8,8750.0,0.0,0.0,110.0,110.0,433.0,0.0,0.0,0.0,1.0,333.3,77.7,77.7,70.5,70.5,34.0,-15.5,10.11,-36.8,-1.9,4.0,-250.715,-3.9,100.0,19.2,15.8,35.8,31.6,0.0,1.0,73.0,0.0,0.0,0.0,0.0,3467.0,2775.0,4774.0,4278.0,316.4,317.5,343.3,343.9,25.62,23.01,26.39,24.73,325.0,325.0,355.0,355.0,99.96,100.0,99.97,100.0,-0.07,-0.01,-0.45,-0.3,-0.1,-0.1,2.1,2.3,86.1,69.8,84.7,74.3,98.3,76.1,88.0,77.3,94.4,72.9,86.5,75.1,91.1,71.4,85.5,74.1,-0.17,0.18,0.07,0.06,0.0,102.46,102.22,95.77,95.77,174.7,27.6,0.4619523784980439,32.409153968550086,122.07447995958577,-3.6010172783237593,14.404068544271098,1,6
