,Time,Distance,GPS Latitude,GPS Longitude,Damper Velocity (Calc) FL,Damper Velocity (Calc) FR,Damper Velocity (Calc) RL,Damper Velocity (Calc) RR,Corr Dist,Corr Dist (Unstretched),Corr Speed,ABS Active,ABS Enabled,AID Allow Tire Blankets,AID Auto Blip,AID Auto Clutch,AID Auto Shift,AID Fuel Rate,AID Ideal Line,AID Mech Damage,AID Stability,AID Tire Wear Rate,Air Density,Air Temp,Ballast,Best Lap Delta,Best Lap Time,Brake Bias,Brake Pos,Brake Temp FL,Brake Temp FR,Brake Temp RL,Brake Temp RR,CG Accel Lateral,CG Accel Longitudinal,CG Accel Vertical,CG Height,Camber FL,Camber FR,Camber RL,Camber RR,Car Coord X,Car Coord Y,Car Coord Z,Car Damage Front,Car Damage Left,Car Damage Rear,Car Damage Right,Car Pos Norm,Caster FL,Caster FR,Chassis Pitch Angle,Chassis Pitch Rate,Chassis Roll Angle,Chassis Roll Rate,Chassis Velocity X,Chassis Velocity Y,Chassis Velocity Z,Chassis Yaw Rate,Clutch Pos,DRS Active,DRS Available,Drive Train Speed,ERS Heat Charging,ERS Is Charging,ERS Max Energy,ERS Power Level,ERS Recovery Level,Engine Brake Setting,Engine Limiter,Engine RPM,Flags,Fuel Level,Gear,Ground Speed,HR Sample Clock,In Pit,KERS Charge,KERS Deployed Energy,KERS Input,KERS Max Energy,LR Sample Clock,Lap Invalidated,Lap Time,Lap Time2,Last Lap Time,Last Sector Time,MR Sample Clock,Max Fuel,Max Power,Max RPM,Max Sus Travel FL,Max Sus Travel FR,Max Sus Travel RL,Max Sus Travel RR,Max Torque,Max Turbo Boost,Num Tires Off Track,Penalties Enabled,Position,Raw Data Sample Rate,Ride Height FL,Ride Height FR,Ride Height RL,Ride Height RR,Road Temp,Self Align Torque FL,Self Align Torque FR,Self Align Torque RL,Self Align Torque RR,Session Lap Count,Session Time Left,Steering Angle,Surface Grip,Suspension Travel FL,Suspension Travel FR,Suspension Travel RL,Suspension Travel RR,TC Active,TC Enabled,Throttle Pos,Tire Dirt Level FL,Tire Dirt Level FR,Tire Dirt Level RL,Tire Dirt Level RR,Tire Load FL,Tire Load FR,Tire Load RL,Tire Load RR,Tire Loaded Radius FL,Tire Loaded Radius FR,Tire Loaded Radius RL,Tire Loaded Radius RR,Tire Pressure FL,Tire Pressure FR,Tire Pressure RL,Tire Pressure RR,Tire Radius FL,Tire Radius FR,Tire Radius RL,Tire Radius RR,Tire Rubber Grip FL,Tire Rubber Grip FR,Tire Rubber Grip RL,Tire Rubber Grip RR,Tire Slip Angle FL,Tire Slip Angle FR,Tire Slip Angle RL,Tire Slip Angle RR,Tire Slip Ratio FL,Tire Slip Ratio FR,Tire Slip Ratio RL,Tire Slip Ratio RR,Tire Temp Core FL,Tire Temp Core FR,Tire Temp Core RL,Tire Temp Core RR,Tire Temp Inner FL,Tire Temp Inner FR,Tire Temp Inner RL,Tire Temp Inner RR,Tire Temp Middle FL,Tire Temp Middle FR,Tire Temp Middle RL,Tire Temp Middle RR,Tire Temp Outer FL,Tire Temp Outer FR,Tire Temp Outer RL,Tire Temp Outer RR,Toe In FL,Toe In FR,Toe In RL,Toe In RR,Turbo Boost,Wheel Angular Speed FL,Wheel Angular Speed FR,Wheel Angular Speed RL,Wheel Angular Speed RR,Wind Direction,Wind Speed,CG Distance,Lateral Velocity,Longitudinal Velocity,Lateral Acceleration,Longitudinal Acceleration,level,curve_number
273,13.6,425.7,44.05366376204407,-78.67923542911034,-11.0,-24.4,98.4,22.6,1996.9,1997.0,45.0,0.0,1.0,1.0,0.0,1.0,1.0,0.0,0.0,0.0,100.0,1.0,1.186,26.0,0.0,-20.478,74.678,66.0,15.2,26.0,26.0,26.0,26.0,-1.16,-1.09,0.08,387.6,-1.02,-0.36,-0.22,-0.78,-436.95,583.3,5.5,0.0,0.0,0.0,0.0,0.24,-7.49,-7.49,-1.73,-0.47,0.17,-11.0,12.46,0.39,-0.17,36.25,100.0,0.0,0.0,33.52,0.0,0.0,0.0,0.0,0.0,0.0,0.0,4543.0,0.0,30.0,1.0,45.0,0.0,0.0,0.0,0.0,0.0,0.0,1.0,0.0,13.631,13.631,74.679,19.926,0.0,110.0,435.8,8750.0,0.0,0.0,110.0,110.0,433.0,0.0,0.0,0.0,1.0,333.3,69.9,69.9,86.0,86.0,34.0,22.2,5.38,-59.5,-4.2,1.0,-90.89,320.0,100.0,24.0,19.7,28.7,15.2,0.0,1.0,0.0,0.0,0.0,0.0,0.0,7289.0,2388.0,4739.0,1295.0,306.8,318.6,342.9,351.4,24.64,23.66,25.3,24.7,325.0,325.0,355.0,355.0,99.74,99.69,99.7,99.68,-12.08,-14.27,-2.08,-1.91,-6.1,-5.6,-3.4,-6.2,80.0,73.9,77.9,74.1,89.5,86.7,80.7,78.1,86.2,83.3,79.0,76.5,83.8,81.5,78.1,76.0,17.59,-20.53,0.09,0.1,0.0,38.34,34.5,36.1,30.94,356.7,7.7,1.5937691175323985,23.766712927340766,36.010171076166756,18.005085253571593,-46.813222057602744,0,4
274,13.65,426.3,44.05366079428277,-78.67923111236662,166.6,-24.5,54.8,-93.0,1997.5,1998.0,44.0,0.0,1.0,1.0,0.0,1.0,1.0,0.0,0.0,0.0,100.0,1.0,1.186,26.0,0.0,-20.415,74.678,66.0,0.0,26.0,26.0,26.0,26.0,-1.25,-0.46,-0.0,387.4,-3.11,-0.68,0.5,-1.06,-436.47,582.97,5.5,0.0,0.0,0.0,0.0,0.24,-7.49,-7.49,-1.66,3.1,-0.18,0.38,12.2,0.58,-0.2,43.8,100.0,0.0,0.0,33.99,0.0,0.0,0.0,0.0,0.0,0.0,0.0,4607.0,0.0,30.0,1.0,44.0,1.0,0.0,0.0,0.0,0.0,0.0,1.0,0.0,13.68,13.68,74.679,19.926,1.0,110.0,435.8,8750.0,0.0,0.0,110.0,110.0,433.0,0.0,0.0,0.0,1.0,333.3,68.1,68.1,87.8,87.8,34.0,22.22,2.72,-96.6,-3.4,1.0,-90.94,320.0,100.0,32.4,18.4,31.5,10.6,0.0,1.0,0.0,0.0,0.0,0.0,0.0,6760.0,1359.0,5423.0,562.0,307.5,321.3,341.2,353.6,24.64,23.67,25.3,24.7,325.0,325.0,355.0,355.0,99.74,99.69,99.7,99.68,-10.53,-12.66,-2.07,-2.13,-0.7,-0.7,-0.8,-3.4,80.0,73.9,77.9,74.1,89.6,86.7,80.7,78.1,86.3,83.3,79.0,76.5,83.9,81.5,78.1,75.9,17.51,-20.55,0.07,0.11,0.0,39.03,35.21,36.15,31.84,356.7,7.7,1.331953452640144,25.567221452697925,34.929865978023166,43.2122053483025,-18.00508553808335,0,4
275,13.7,426.9,44.05365737686067,-78.67922670569075,-37.5,-33.8,9.0,36.1,1998.1,1998.0,43.4,0.0,1.0,1.0,0.0,1.0,1.0,0.0,0.0,0.0,100.0,1.0,1.186,26.0,0.0,-20.415,74.678,66.0,0.0,26.0,26.0,26.0,26.0,-1.3,-0.33,-0.03,387.5,-0.83,-0.43,-0.21,-1.99,-435.98,582.59,5.4,0.0,0.0,0.0,0.0,0.24,-7.49,-7.49,-1.48,3.87,-0.04,4.75,12.03,0.72,-0.16,47.4,100.0,0.0,0.0,33.96,0.0,0.0,0.0,0.0,0.0,0.0,0.0,4602.0,0.0,30.0,1.0,43.4,0.0,0.0,0.0,0.0,0.0,0.0,1.0,0.0,13.731,13.731,74.679,19.926,0.0,110.0,435.8,8750.0,0.0,0.0,110.0,110.0,433.0,0.0,0.0,0.0,1.0,166.7,70.6,70.6,89.4,89.4,34.0,21.48,2.22,-78.5,-25.8,1.0,-90.99,320.0,100.0,30.5,16.8,31.9,12.4,0.0,1.0,0.0,0.0,0.0,0.0,0.0,6732.0,1145.0,4446.0,2058.0,307.8,321.9,343.7,349.7,24.64,23.67,25.3,24.7,325.0,325.0,355.0,355.0,99.74,99.69,99.7,99.68,-9.59,-11.51,-2.16,-2.16,-0.7,-0.3,-0.6,0.2,80.0,73.9,77.9,74.1,89.7,86.6,80.7,78.1,86.3,83.3,78.9,76.4,84.0,81.5,78.1,75.9,17.52,-20.58,0.07,0.11,0.0,38.9,34.74,35.83,32.09,356.7,7.7,1.3415662488300755,28.087933462171016,34.20966252235842,32.40915436686663,-32.40915408235477,0,4
276,13.75,427.5,44.05365377957424,-78.67922256881137,-97.6,-37.3,61.4,95.3,1998.7,1999.0,43.0,0.0,1.0,1.0,0.0,1.0,1.0,0.0,0.0,0.0,100.0,1.0,1.186,26.0,0.0,-20.415,74.678,66.0,0.0,26.0,26.0,26.0,26.0,-1.17,-0.25,-0.01,388.2,-2.79,0.63,-0.31,-1.48,-435.52,582.19,5.4,0.0,0.0,0.0,0.0,0.24,-7.49,-7.49,-1.32,1.13,0.14,4.95,11.92,0.82,-0.14,48.19,100.0,0.0,0.0,33.48,0.0,0.0,0.0,0.0,0.0,0.0,0.0,4537.0,0.0,30.0,1.0,43.0,1.0,0.0,0.0,0.0,0.0,0.0,1.0,0.0,13.781,13.781,74.679,19.926,1.0,110.0,435.8,8750.0,0.0,0.0,110.0,110.0,433.0,0.0,0.0,0.0,1.0,333.3,76.8,76.8,81.9,81.9,34.0,14.6,1.42,-89.4,-31.0,1.0,-91.04,320.0,100.0,25.6,14.9,35.0,17.1,0.0,1.0,0.0,0.0,0.0,0.0,0.0,4809.0,792.0,4980.0,2412.0,312.6,322.9,342.2,348.7,24.64,23.67,25.3,24.7,325.0,325.0,355.0,355.0,99.74,99.69,99.7,99.68,-8.83,-10.71,-1.9,-1.86,-0.5,-0.1,-0.5,0.0,80.0,73.9,77.9,74.1,89.7,86.6,80.6,78.0,86.4,83.3,78.9,76.4,84.0,81.4,78.1,75.8,17.59,-20.6,0.07,0.09,0.0,38.59,34.46,35.43,31.52,356.7,7.7,1.1964530914331744,28.80813688938459,31.68895056978769,18.005085253571593,-43.212205063790705,0,4
277,13.8,428.1,44.05365018228782,-78.67921879166062,-70.1,-20.2,-68.7,22.4,1999.3,1999.0,42.7,0.0,1.0,1.0,0.0,1.0,1.0,0.0,0.0,0.0,100.0,1.0,1.186,26.0,0.0,-20.34,74.678,66.0,0.0,26.0,26.0,26.0,26.0,-1.07,-0.31,-0.14,390.5,-2.18,0.61,-0.58,-1.4,-435.1,581.79,5.4,0.0,0.0,0.0,0.0,0.25,-7.49,-7.49,-1.35,-1.3,0.18,-1.56,11.82,0.84,-0.09,50.5,100.0,0.0,0.0,33.1,0.0,0.0,0.0,0.0,0.0,0.0,0.0,4486.0,0.0,30.0,1.0,42.7,0.0,0.0,0.0,0.0,0.0,0.0,1.0,0.0,13.83,13.83,74.679,19.926,0.0,110.0,435.8,8750.0,0.0,0.0,110.0,110.0,433.0,0.0,0.0,0.0,1.0,333.3,77.9,77.9,86.7,86.7,34.0,15.05,2.94,-57.9,-23.0,1.0,-91.09,320.0,100.0,22.1,13.9,31.6,18.3,0.0,1.0,0.0,0.0,0.0,0.0,0.0,4957.0,1394.0,3655.0,1974.0,312.4,321.3,345.7,349.8,24.64,23.67,25.3,24.7,325.0,325.0,355.0,355.0,99.74,99.69,99.7,99.68,-8.37,-10.09,-1.65,-1.69,-0.6,-0.3,-0.6,-0.2,80.0,74.0,77.9,74.1,89.7,86.6,80.6,78.0,86.4,83.3,78.9,76.4,84.0,81.4,78.1,75.8,17.62,-20.62,0.09,0.1,0.0,38.5,34.08,35.12,31.09,356.7,7.7,1.1227644454648535,29.888441987528175,29.88844201597935,28.808136519519216,-28.8081370885428,0,4
278,13.85,428.7,44.053646315204915,-78.67921510444204,32.6,-2.0,58.2,-31.5,1999.9,2000.0,42.2,0.0,1.0,1.0,0.0,1.0,1.0,0.0,0.0,0.0,100.0,1.0,1.186,26.0,0.0,-20.34,74.678,66.0,0.0,26.0,26.0,26.0,26.0,-1.3,-0.35,0.14,387.2,-4.05,0.31,1.37,-2.62,-434.69,581.36,5.4,0.0,0.0,0.0,0.0,0.25,-7.49,-7.49,-1.42,-1.53,-0.07,-2.81,11.68,0.89,-0.09,55.25,100.0,0.0,0.0,32.77,0.0,0.0,0.0,0.0,0.0,0.0,0.0,4441.0,0.0,30.0,1.0,42.2,1.0,0.0,0.0,0.0,0.0,0.0,1.0,0.0,13.881,13.881,74.679,19.926,1.0,110.0,435.8,8750.0,0.0,0.0,110.0,110.0,433.0,0.0,0.0,0.0,1.0,333.3,75.5,75.5,79.0,79.0,34.0,19.6,3.04,-117.6,-17.4,1.0,-91.14,320.0,100.0,23.7,13.8,34.5,16.7,0.0,1.0,0.0,0.0,0.0,0.0,0.0,6024.0,1433.0,6684.0,1656.0,309.4,321.2,338.0,350.8,24.64,23.68,25.3,24.7,325.0,325.0,355.0,355.0,99.74,99.69,99.7,99.68,-7.53,-8.98,-1.89,-1.93,-0.5,-0.2,-0.4,0.1,80.0,74.0,77.9,74.1,89.7,86.5,80.6,77.9,86.4,83.2,78.9,76.3,84.0,81.4,78.0,75.8,17.6,-20.61,0.07,0.1,0.0,38.53,33.77,34.89,30.65,356.7,7.7,1.3535508856337837,31.68895054133651,28.80813686093341,21.606102816407144,-36.0101710761667,0,4
279,13.9,429.3,44.05364226825769,-78.67921159708777,7.3,-33.1,48.4,-6.5,2000.5,2000.0,41.8,0.0,1.0,1.0,0.0,1.0,1.0,0.0,0.0,0.0,100.0,1.0,1.186,26.0,0.0,-20.34,74.678,66.0,0.0,26.0,26.0,26.0,26.0,-1.44,-0.38,-0.09,387.6,-2.35,-0.49,0.15,-2.37,-434.3,580.91,5.4,0.0,0.0,0.0,0.0,0.25,-7.49,-7.49,-1.55,-3.18,-0.08,3.34,11.57,0.94,-0.12,57.56,100.0,0.0,0.0,32.35,0.0,0.0,0.0,0.0,0.0,0.0,0.0,4385.0,0.0,30.0,1.0,41.8,0.0,0.0,0.0,0.0,0.0,0.0,1.0,0.0,13.931,13.931,74.679,19.926,0.0,110.0,435.8,8750.0,0.0,0.0,110.0,110.0,433.0,0.0,0.0,0.0,1.0,333.3,74.7,74.7,80.0,80.0,34.0,18.48,7.06,-85.9,-19.1,1.0,-91.19,320.0,100.0,24.1,12.1,36.9,16.4,0.0,1.0,0.0,0.0,0.0,0.0,0.0,5798.0,2775.0,4863.0,1646.0,310.0,317.3,342.8,350.8,24.65,23.68,25.3,24.7,325.0,325.0,355.0,355.0,99.74,99.69,99.7,99.68,-7.19,-7.84,-2.12,-2.26,-0.5,-0.3,-0.6,-0.2,80.0,74.0,77.9,74.1,89.8,86.5,80.5,77.9,86.4,83.2,78.8,76.3,84.0,81.4,78.0,75.7,17.59,-20.63,0.07,0.1,0.0,38.27,33.29,34.63,30.08,356.7,7.7,1.4920120642943877,32.04905226916889,26.28742490836268,14.404068544271453,-46.81322262662633,0,4
280,13.95,429.8,44.05363831124262,-78.67920853939431,1.5,31.6,-1.0,-12.6,2001.1,2001.0,41.5,0.0,1.0,1.0,0.0,1.0,1.0,0.0,0.0,0.0,100.0,1.0,1.186,26.0,0.0,-20.34,74.678,66.0,0.0,26.0,26.0,26.0,26.0,-1.3,-0.26,-0.02,388.4,-2.93,-0.25,-0.79,-2.3,-433.96,580.47,5.4,0.0,0.0,0.0,0.0,0.25,-7.49,-7.49,-1.71,-3.73,-0.05,4.17,11.47,0.98,-0.16,59.65,100.0,0.0,0.0,32.95,0.0,0.0,0.0,0.0,0.0,0.0,0.0,4465.0,0.0,30.0,1.0,41.5,1.0,0.0,0.0,0.0,0.0,0.0,1.0,0.0,13.98,13.98,74.679,19.926,1.0,110.0,435.8,8750.0,0.0,0.0,110.0,110.0,433.0,0.0,0.0,0.0,1.0,333.3,76.3,76.3,81.0,81.0,34.0,11.94,1.26,-102.5,-13.7,1.0,-91.24,320.0,100.0,24.2,13.7,36.8,15.7,0.0,1.0,15.1,0.0,0.0,0.0,0.0,6144.0,725.0,5380.0,1453.0,309.2,323.1,341.0,351.2,24.65,23.68,25.3,24.7,325.0,325.0,355.0,355.0,99.74,99.69,99.7,99.68,-6.61,-7.81,-2.24,-2.39,-0.4,-0.0,-0.7,2.5,80.0,74.0,77.8,74.1,89.8,86.5,80.5,77.9,86.4,83.2,78.8,76.3,84.1,81.3,78.0,75.7,17.59,-20.62,0.06,0.1,0.0,38.18,33.04,34.01,31.89,356.7,7.7,1.3258959235173777,33.129357395763655,24.126814598270776,36.0101710761667,-32.40915465137853,0,4
281,14.0,430.4,44.05363399449892,-78.67920557163302,-36.5,-8.1,-105.7,-19.0,2001.6,2002.0,41.5,0.0,1.0,1.0,0.0,1.0,1.0,0.0,0.0,0.0,100.0,1.0,1.186,26.0,0.0,-20.247,74.678,66.0,0.0,26.0,26.0,26.0,26.0,-1.09,0.08,-0.13,391.2,-2.81,-0.01,-0.24,-2.14,-433.63,579.99,5.4,0.0,0.0,0.0,0.0,0.25,-7.49,-7.49,-1.89,-3.03,0.05,1.66,11.49,0.91,-0.14,61.2,100.0,0.0,0.0,36.52,0.0,0.0,0.0,0.0,0.0,0.0,0.0,4950.0,0.0,30.0,1.0,41.5,0.0,0.0,0.0,0.0,0.0,0.0,1.0,0.0,14.031,14.031,74.679,19.926,0.0,110.0,435.8,8750.0,0.0,0.0,110.0,110.0,433.0,0.0,0.0,0.0,1.0,166.7,77.5,77.5,86.8,86.8,34.0,14.1,3.63,-59.3,0.8,1.0,-91.29,320.0,100.0,22.4,13.3,31.6,14.8,0.0,1.0,57.0,0.0,0.0,0.0,0.0,5226.0,1696.0,3916.0,1874.0,311.8,320.8,345.1,350.2,24.65,23.68,25.29,24.7,325.0,325.0,355.0,355.0,99.74,99.69,99.7,99.68,-6.73,-7.88,-2.48,-2.77,-0.6,-0.5,2.1,20.3,80.1,74.0,77.8,74.1,89.8,86.4,80.5,77.9,86.5,83.1,78.8,76.2,84.1,81.3,78.0,75.7,17.63,-20.62,0.07,0.1,0.0,38.22,32.9,36.52,36.52,356.7,7.7,1.1006361796706485,35.65006937678556,23.046509443224828,28.808137088542765,-28.80813651951918,0,4
282,14.05,431.0,44.053629407958724,-78.67920278373605,55.1,68.4,-34.4,7.3,2002.2,2002.0,42.1,0.0,1.0,1.0,0.0,1.0,1.0,0.0,0.0,0.0,100.0,1.0,1.186,26.0,0.0,-20.247,74.678,66.0,0.0,26.0,26.0,26.0,26.0,-1.19,0.41,0.18,388.0,-4.18,-0.65,0.38,-2.27,-433.32,579.48,5.4,0.0,0.0,0.0,0.0,0.25,-7.49,-7.49,-1.88,3.02,-0.16,-3.42,11.68,0.82,-0.18,73.29,100.0,0.0,0.0,40.32,0.0,0.0,0.0,0.0,0.0,0.0,0.0,5465.0,0.0,30.0,1.0,42.1,1.0,0.0,0.0,0.0,0.0,0.0,1.0,0.0,14.081,14.081,74.679,19.926,1.0,110.0,435.8,8750.0,0.0,0.0,110.0,110.0,433.0,0.0,0.0,0.0,1.0,333.3,73.2,73.2,83.9,83.9,34.0,6.79,3.1,2.6,1.0,1.0,-91.34,320.0,100.0,25.1,16.7,29.8,15.2,0.0,1.0,100.0,0.0,0.0,0.0,0.0,5680.0,2156.0,5551.0,2225.0,310.2,319.1,341.1,349.3,24.65,23.69,25.29,24.7,325.0,325.0,355.0,355.0,99.74,99.69,99.7,99.68,-5.98,-6.73,-3.8,-4.23,-0.7,-0.5,10.7,32.2,80.1,74.0,77.8,74.1,89.8,86.4,80.5,77.9,86.5,83.1,78.8,76.3,84.1,81.3,78.0,75.7,17.58,-20.57,0.08,0.1,0.0,39.72,33.54,40.32,40.32,356.7,7.7,1.2714558584551805,36.01017110461793,21.24600094631886,21.606102816407216,-28.80813595049549,0,4
283,14.1,431.6,44.05362500128285,-78.67920026563554,-35.6,-61.3,121.9,29.1,2002.8,2003.0,43.1,0.0,1.0,1.0,0.0,1.0,1.0,0.0,0.0,0.0,100.0,1.0,1.186,26.0,0.0,-20.247,74.678,66.0,0.0,26.0,26.0,26.0,26.0,-0.99,0.6,0.05,388.2,-1.66,-0.62,-1.5,-2.28,-433.04,578.99,5.4,0.0,0.0,0.0,0.0,0.25,-7.49,-7.49,-1.69,3.06,-0.32,2.66,11.98,0.54,-0.19,80.98,100.0,0.0,0.0,43.86,0.0,0.0,0.0,0.0,0.0,0.0,0.0,5944.0,0.0,30.0,1.0,43.1,0.0,0.0,0.0,0.0,0.0,0.0,0.0,0.0,14.13,14.13,74.679,19.926,0.0,110.0,435.8,8750.0,0.0,0.0,110.0,110.0,433.0,0.0,0.0,0.0,1.0,333.3,79.2,79.2,77.7,77.7,34.0,10.45,0.87,11.3,1.6,1.0,-91.39,320.0,100.0,23.3,13.7,35.9,16.6,0.0,1.0,100.0,0.0,0.0,0.0,0.0,4953.0,547.0,6198.0,2768.0,312.4,323.5,339.0,347.9,24.65,23.69,25.29,24.7,325.0,325.0,355.0,355.0,99.74,99.69,99.7,99.68,-6.6,-7.35,-5.88,-6.72,-0.6,-0.4,17.1,42.2,80.1,74.1,77.8,74.1,89.8,86.4,80.6,77.9,86.5,83.1,78.9,76.3,84.1,81.2,78.0,75.7,17.6,-20.62,0.06,0.1,0.0,40.86,33.83,43.86,43.86,356.7,7.7,1.1587061750072793,37.81067965842628,20.16569584817528,46.8132223421145,-14.404068544271382,0,4
284,14.15,432.2,44.05361996508186,-78.67919774753504,-39.8,-45.1,-49.8,-1.9,2003.4,2003.0,44.0,0.0,1.0,1.0,0.0,1.0,1.0,0.0,0.0,0.0,100.0,1.0,1.186,26.0,0.0,-20.148,74.678,66.0,0.0,26.0,26.0,26.0,26.0,-0.88,0.67,-0.14,390.0,-4.44,-0.49,-0.64,-2.43,-432.76,578.43,5.4,0.0,0.0,0.0,0.0,0.25,-7.49,-7.49,-1.52,3.77,-0.07,10.39,12.25,0.09,-0.12,87.38,100.0,0.0,0.0,48.6,0.0,0.0,0.0,0.0,0.0,0.0,0.0,6587.0,0.0,30.0,1.0,44.0,1.0,0.0,0.0,0.0,0.0,0.0,0.0,0.0,14.181,14.181,74.679,19.926,1.0,110.0,435.8,8750.0,0.0,0.0,110.0,110.0,433.0,0.0,0.0,0.0,1.0,333.3,82.6,82.6,80.6,80.6,34.0,9.98,1.49,8.7,3.4,1.0,-91.44,320.0,100.0,21.3,11.4,33.4,16.5,0.0,1.0,100.0,0.0,0.0,0.0,0.0,3527.0,871.0,5318.0,4500.0,315.6,322.9,341.6,343.3,24.65,23.69,25.29,24.7,325.0,325.0,355.0,355.0,99.74,99.69,99.71,99.68,-8.24,-9.14,-8.43,-9.84,-0.6,-0.4,26.1,54.2,80.1,74.1,77.8,74.1,89.8,86.3,80.7,78.0,86.5,83.0,78.9,76.4,84.1,81.2,78.1,75.8,17.64,-20.64,0.08,0.09,0.0,41.43,33.97,48.6,48.6,356.7,7.7,1.114854250563723,40.69149333882938,19.80559409189172,28.80813651951918,-21.606103100919007,0,4
285,14.2,432.8,44.053614838948704,-78.67919531936671,-75.8,46.3,-50.4,107.8,2004.0,2004.0,44.9,0.0,1.0,1.0,0.0,1.0,1.0,0.0,0.0,0.0,100.0,1.0,1.186,26.0,0.0,-20.148,74.678,66.0,0.0,26.0,26.0,26.0,26.0,-0.92,0.44,-0.11,390.5,-3.43,0.33,-0.64,-1.87,-432.49,577.86,5.4,0.0,0.0,0.0,0.0,0.25,-7.49,-7.49,-1.36,3.66,-0.01,-2.8,12.48,-0.44,-0.07,93.57,100.0,0.0,0.0,52.88,0.0,0.0,0.0,0.0,0.0,0.0,0.0,7167.0,0.0,30.0,1.0,44.9,0.0,0.0,0.0,0.0,0.0,0.0,0.0,0.0,14.231,14.231,74.679,19.926,0.0,110.0,435.8,8750.0,0.0,0.0,110.0,110.0,433.0,0.0,0.0,0.0,1.0,166.7,81.7,81.7,80.4,80.4,34.0,10.31,4.12,6.4,1.9,1.0,-91.49,320.0,100.0,17.5,13.7,30.9,21.9,0.0,1.0,100.0,0.0,0.0,0.0,0.0,3675.0,1829.0,4524.0,2625.0,315.5,320.1,343.6,348.2,24.65,23.69,25.29,24.7,325.0,325.0,355.0,355.0,99.74,99.69,99.71,99.68,-9.76,-10.77,-10.6,-12.83,-0.8,-0.5,34.0,66.2,80.1,74.1,77.8,74.1,89.8,86.3,80.8,78.2,86.5,83.0,79.1,76.5,84.1,81.2,78.2,75.9,17.68,-20.61,0.07,0.08,0.0,42.18,34.18,52.89,52.89,356.7,7.7,1.0257192598367255,40.6914933103782,18.005085538083378,14.404068259759555,-32.409153513331184,0,4
286,14.25,433.5,44.053609802747715,-78.67919325092701,-3.7,-29.9,121.0,-35.1,2004.7,2005.0,45.7,0.0,1.0,1.0,0.0,1.0,1.0,0.0,0.0,0.0,100.0,1.0,1.186,26.0,0.0,-20.148,74.678,66.0,0.0,26.0,26.0,26.0,26.0,-0.91,0.56,0.03,389.4,-3.45,-0.05,-1.06,-2.07,-432.26,577.3,5.3,0.0,0.0,0.0,0.0,0.25,-7.49,-7.49,-1.18,2.57,-0.28,-0.27,12.67,-1.01,-0.04,98.79,100.0,0.0,0.0,56.33,0.0,0.0,0.0,0.0,0.0,0.0,0.0,7634.0,0.0,30.0,1.0,45.7,1.0,0.0,0.0,0.0,0.0,0.0,0.0,0.0,14.28,14.28,74.679,19.926,1.0,110.0,435.8,8750.0,0.0,0.0,110.0,110.0,433.0,0.0,0.0,0.0,1.0,333.3,83.4,83.4,73.6,73.6,34.0,12.98,0.68,10.1,1.8,1.0,-91.54,320.0,100.0,17.4,12.2,37.0,20.1,0.0,1.0,100.0,0.0,0.0,0.0,0.0,4451.0,465.0,6238.0,2484.0,313.5,323.8,339.1,348.8,24.65,23.7,25.29,24.7,325.0,325.0,355.0,355.0,99.74,99.69,99.71,99.68,-11.58,-13.01,-13.17,-15.97,-0.7,-0.2,40.9,76.2,80.1,74.1,77.8,74.1,89.9,86.3,81.0,78.3,86.5,83.0,79.3,76.7,84.1,81.2,78.5,76.1,17.68,-20.64,0.06,0.1,0.0,42.49,34.06,56.33,56.33,356.7,7.7,1.0689246933250256,42.13190016480534,16.564678740558602,39.611188354490494,-21.606102531895335,0,4
287,14.3,434.1,44.05360431688592,-78.67919118248732,-1.2,-23.0,39.0,102.5,2005.3,2005.0,46.6,0.0,1.0,1.0,0.0,1.0,1.0,0.0,0.0,0.0,100.0,1.0,1.186,26.0,0.0,-20.148,74.678,66.0,0.0,26.0,26.0,26.0,26.0,-1.04,0.7,0.21,386.1,-3.75,0.03,0.46,-2.56,-432.03,576.69,5.3,0.0,0.0,0.0,0.0,0.25,-7.49,-7.49,-1.1,-0.51,-0.35,-0.07,12.87,-1.66,-0.07,101.28,100.0,0.0,0.0,58.91,0.0,0.0,0.0,0.0,0.0,0.0,0.0,7983.0,0.0,30.0,1.0,46.6,0.0,0.0,0.0,0.0,0.0,0.0,0.0,0.0,14.331,14.331,74.679,19.926,0.0,110.0,435.8,8750.0,0.0,0.0,110.0,110.0,433.0,0.0,0.0,0.0,1.0,333.3,83.3,83.3,69.3,69.3,34.0,12.37,2.05,12.1,3.5,1.0,-91.59,320.0,100.0,17.3,11.1,38.9,25.3,0.0,1.0,100.0,0.0,0.0,0.0,0.0,4348.0,1093.0,7230.0,3874.0,313.9,322.1,336.8,344.8,24.66,23.7,25.29,24.7,325.0,325.0,355.0,355.0,99.74,99.69,99.71,99.68,-14.04,-16.03,-15.67,-19.11,-0.9,-0.4,45.6,83.3,80.1,74.1,77.8,74.1,89.9,86.3,81.3,78.6,86.6,83.0,79.6,76.9,84.2,81.1,78.8,76.3,17.68,-20.64,0.06,0.08,0.0,42.44,33.73,58.91,58.91,356.7,7.7,1.2711018841933954,44.65261214582725,15.844475284893845,39.611188354490565,-25.207120663754647,0,4
288,14.35,434.8,44.0535986511598,-78.67918929391195,6.0,-9.7,12.6,2.9,2006.0,2006.0,47.4,0.0,1.0,1.0,0.0,1.0,1.0,0.0,0.0,0.0,100.0,1.0,1.186,26.0,0.0,-20.058,74.678,66.0,0.0,26.0,26.0,26.0,26.0,-0.89,0.49,-0.13,388.5,-4.03,-0.3,-1.34,-1.22,-431.82,576.06,5.3,0.0,0.0,0.0,0.0,0.25,-7.49,-7.49,-1.18,-3.19,-0.37,1.67,12.97,-2.36,-0.14,103.61,100.0,0.0,0.0,61.74,0.0,0.0,0.0,0.0,0.0,0.0,0.0,8368.0,0.0,30.0,1.0,47.4,1.0,0.0,0.0,0.0,0.0,0.0,0.0,0.0,14.381,14.381,74.679,19.926,1.0,110.0,435.8,8750.0,0.0,0.0,110.0,110.0,433.0,0.0,0.0,0.0,1.0,333.3,84.3,84.3,73.9,73.9,34.0,9.59,1.95,8.3,2.3,1.0,-91.64,320.0,100.0,17.6,10.6,39.5,25.4,0.0,1.0,100.0,0.0,0.0,0.0,0.0,3562.0,979.0,5078.0,2525.0,315.7,321.8,342.1,348.3,24.66,23.7,25.29,24.7,325.0,325.0,355.0,355.0,99.74,99.69,99.71,99.68,-16.56,-19.26,-18.21,-22.32,-0.8,0.2,50.7,90.3,80.1,74.1,77.8,74.1,90.0,86.2,81.6,78.8,86.7,82.9,79.9,77.1,84.2,81.1,79.1,76.5,17.68,-20.65,0.06,0.07,0.0,42.19,33.33,61.74,61.74,356.7,7.7,1.0242558274181308,46.093019000254394,14.043966674183137,14.404068544271453,-36.010171076166735,0,4
289,14.4,435.4,44.05359280556936,-78.67918767513306,-39.8,-1.7,-48.2,-49.8,2006.7,2007.0,48.0,0.0,1.0,1.0,0.0,1.0,1.0,0.0,0.0,0.0,100.0,1.0,1.186,26.0,0.0,-20.058,74.678,66.0,0.0,26.0,26.0,26.0,26.0,-0.89,0.54,-0.09,390.2,-3.8,-0.11,-1.02,-2.75,-431.64,575.41,5.3,0.0,0.0,0.0,0.0,0.25,-7.49,-7.49,-1.36,-5.44,-0.43,-0.3,12.97,-3.14,-0.12,105.47,100.0,0.0,0.0,64.11,0.0,0.0,0.0,0.0,0.0,0.0,1.0,8689.0,0.0,30.0,1.0,48.0,0.0,0.0,0.0,0.0,0.0,0.0,0.0,0.0,14.433,14.433,74.679,19.926,0.0,110.0,435.8,8750.0,0.0,0.0,110.0,110.0,433.0,0.0,0.0,0.0,1.0,166.7,85.4,85.4,74.0,74.0,34.0,8.5,2.22,8.8,2.7,1.0,-91.69,320.0,100.0,15.6,10.5,37.1,22.9,0.0,1.0,100.0,0.0,0.0,0.0,0.0,3303.0,1191.0,5322.0,2958.0,316.6,321.9,341.5,347.3,24.66,23.7,25.29,24.7,325.0,325.0,355.0,355.0,99.74,99.69,99.71,99.68,-19.43,-22.78,-21.08,-25.74,-0.7,0.6,58.4,100.0,80.1,74.1,77.8,74.1,90.1,86.2,82.0,79.1,86.7,82.9,80.2,77.4,84.3,81.1,79.4,76.8,17.71,-20.65,0.07,0.09,0.0,41.57,32.54,63.54,64.68,356.7,7.7,1.044892338951722,46.093019000254394,12.243458177277171,7.202033987623935,-32.40915351333109,0,4
290,14.45,436.1,44.053587139843245,-78.67918623621848,14.5,12.4,-14.3,-36.3,2007.3,2007.0,48.3,0.0,1.0,1.0,0.0,1.0,1.0,0.0,0.0,0.0,100.0,1.0,1.186,26.0,0.0,-20.058,74.678,66.0,0.0,26.0,26.0,26.0,26.0,-1.02,0.35,-0.05,390.2,-2.77,-0.27,-0.54,-2.4,-431.48,574.78,5.3,0.0,0.0,0.0,0.0,0.25,-7.49,-7.49,-1.61,-6.32,-0.66,-2.42,12.85,-3.82,-0.18,108.4,100.0,0.0,0.0,62.98,0.0,0.0,0.0,0.0,0.0,0.0,0.0,8536.0,0.0,30.0,1.0,48.3,1.0,0.0,0.0,0.0,0.0,0.0,0.0,0.0,14.481,14.481,74.679,19.926,1.0,110.0,435.8,8750.0,0.0,0.0,110.0,110.0,433.0,0.0,0.0,0.0,1.0,333.3,82.8,82.8,76.5,76.5,34.0,12.88,2.63,9.8,1.9,1.0,-91.74,320.0,100.0,16.3,11.1,36.4,21.1,0.0,1.0,100.0,0.0,0.0,0.0,0.0,4619.0,1374.0,5249.0,2021.0,313.3,321.4,341.7,349.7,24.66,23.71,25.29,24.7,325.0,325.0,355.0,355.0,99.74,99.69,99.71,99.68,-21.86,-25.88,-23.68,-28.97,-1.0,0.8,54.1,97.5,80.1,74.2,77.8,74.1,90.2,86.2,82.3,79.3,86.8,82.9,80.6,77.6,84.4,81.1,79.7,77.0,17.7,-20.64,0.07,0.09,0.0,40.71,31.55,62.99,62.99,356.7,7.7,1.0795369377654476,46.81322239901679,10.803051322850028,7.202034272135691,-36.010171645190425,0,4
291,14.5,436.8,44.053581114388486,-78.67918497716825,103.4,33.2,-44.6,-55.4,2008.0,2008.0,48.2,0.0,1.0,1.0,0.0,1.0,1.0,0.0,0.0,0.0,100.0,1.0,1.186,26.0,0.0,-19.968,74.678,66.0,0.0,26.0,26.0,26.0,26.0,-1.1,0.28,0.02,389.5,-2.72,0.17,-0.69,-2.49,-431.34,574.11,5.3,0.0,0.0,0.0,0.0,0.25,-7.49,-7.49,-1.8,-3.52,-0.86,-0.0,12.59,-4.54,-0.25,113.86,100.0,0.0,0.0,61.86,0.0,0.0,0.0,0.0,0.0,0.0,0.0,8383.0,0.0,30.0,1.0,48.2,0.0,0.0,0.0,0.0,0.0,0.0,0.0,0.0,14.531,14.531,74.679,19.926,0.0,110.0,435.8,8750.0,0.0,0.0,110.0,110.0,433.0,0.0,0.0,0.0,1.0,333.3,78.5,78.5,81.3,81.3,34.0,13.56,3.58,9.6,2.0,1.0,-91.79,305.9,100.0,21.5,12.8,34.2,18.3,0.0,1.0,100.0,0.0,0.0,0.0,0.0,4766.0,1742.0,4778.0,2022.0,312.4,320.4,342.8,349.8,24.66,23.71,25.29,24.7,325.0,325.0,355.0,355.0,99.74,99.69,99.71,99.68,-23.85,-28.41,-26.75,-32.91,-1.4,1.2,51.0,100.0,80.1,74.2,77.8,74.1,90.4,86.2,82.7,79.5,87.0,83.0,80.9,77.8,84.6,81.2,80.1,77.1,17.07,-19.88,0.07,0.09,0.0,39.8,30.15,62.25,61.47,356.7,7.7,1.13525327570547,46.81322242746796,8.642441012758129,3.6010172783237238,-39.61118806997869,0,4
292,14.55,437.4,44.053575448662365,-78.67918407784664,-8.4,-22.0,-14.6,-4.2,2008.7,2009.0,48.2,0.0,1.0,1.0,0.0,1.0,1.0,0.0,0.0,0.0,100.0,1.0,1.186,26.0,0.0,-19.968,74.678,66.0,0.0,26.0,26.0,26.0,26.0,-0.97,0.4,-0.05,390.4,-2.9,-0.62,-0.73,1.08,-431.24,573.48,5.3,0.0,0.0,0.0,0.0,0.25,-7.49,-7.49,-1.85,-2.85,-1.02,2.59,12.29,-5.27,-0.26,114.63,100.0,0.0,0.0,63.08,0.0,0.0,0.0,0.0,0.0,0.0,1.0,8549.0,0.0,30.0,1.0,48.2,1.0,0.0,0.0,0.0,0.0,0.0,0.0,0.0,14.58,14.58,74.679,19.926,1.0,110.0,435.8,8750.0,0.0,0.0,110.0,110.0,433.0,0.0,0.0,0.0,1.0,333.3,80.6,80.6,83.7,83.7,34.0,14.68,0.37,10.1,2.6,1.0,-91.84,279.8,100.0,21.1,11.7,33.5,18.1,0.0,1.0,100.0,0.0,0.0,0.0,0.0,5140.0,292.0,5073.0,2092.0,311.8,324.2,342.1,349.2,24.66,23.71,25.3,24.7,325.0,325.0,355.0,355.0,99.74,99.69,99.71,99.68,-25.38,-30.46,-29.63,-36.42,-1.1,2.0,60.7,100.0,80.1,74.2,77.8,74.1,90.6,86.2,83.0,79.8,87.2,83.0,81.3,78.0,84.7,81.2,80.4,77.3,15.7,-18.04,0.07,0.1,0.0,38.92,29.43,62.16,64.0,356.7,7.7,1.0504284840006957,47.17332412684916,6.841932515852158,18.005085253571593,-32.40915294430746,0,4
293,14.6,438.1,44.05356933327545,-78.6791832684572,-23.8,-30.1,-42.8,-3.1,2009.3,2009.0,48.0,0.0,1.0,1.0,0.0,1.0,1.0,0.0,0.0,0.0,100.0,1.0,1.186,26.0,0.0,-19.968,74.678,66.0,0.0,26.0,26.0,26.0,26.0,-0.92,0.37,-0.18,392.4,-2.97,-0.34,-0.51,-2.18,-431.15,572.8,5.3,0.0,0.0,0.0,0.0,0.25,-7.49,-7.49,-1.89,-2.45,-0.92,6.54,11.9,-6.02,-0.19,113.22,100.0,0.0,0.0,64.29,0.0,0.0,0.0,0.0,0.0,0.0,1.0,8713.0,0.0,30.0,1.0,48.0,0.0,0.0,0.0,0.0,0.0,0.0,1.0,0.0,14.631,14.631,74.679,19.926,0.0,110.0,435.8,8750.0,0.0,0.0,110.0,110.0,433.0,0.0,0.0,0.0,1.0,333.3,82.3,82.3,84.5,84.5,34.0,9.76,2.16,8.0,2.6,1.0,-91.89,248.8,100.0,19.9,10.2,31.3,18.0,0.0,1.0,100.0,0.0,0.0,0.0,0.0,3731.0,1226.0,4274.0,2283.0,315.4,322.0,344.1,349.2,24.66,23.71,25.3,24.7,325.0,325.0,355.0,355.0,99.75,99.69,99.72,99.68,-27.33,-32.93,-32.67,-39.98,-0.8,4.1,68.4,100.0,80.2,74.2,77.9,74.1,90.8,86.2,83.4,80.0,87.3,82.9,81.6,78.2,84.8,81.1,80.8,77.6,14.06,-15.91,0.07,0.09,0.0,37.7,28.61,64.29,64.29,356.7,7.7,1.0078194282707593,48.61373095282512,5.401525718327383,-3.6010169938119674,-36.010171076166756,0,4
294,14.65,438.8,44.05356330782069,-78.67918272886422,-73.8,56.6,-19.4,-44.6,2010.0,2010.0,47.7,0.0,1.0,1.0,0.0,1.0,1.0,0.0,0.0,0.0,100.0,1.0,1.186,26.0,0.0,-19.875,74.678,66.0,0.0,26.0,26.0,26.0,26.0,-0.88,0.37,-0.25,393.4,-3.19,-0.78,-1.12,-2.35,-431.09,572.13,5.3,0.0,0.0,0.0,0.0,0.25,-7.49,-7.49,-1.88,-1.25,-1.0,-0.79,11.43,-6.72,-0.12,112.83,100.0,0.0,0.0,64.55,0.0,0.0,0.0,0.0,0.0,0.0,0.0,8749.0,0.0,30.0,1.0,47.7,1.0,0.0,0.0,0.0,0.0,0.0,1.0,0.0,14.681,14.681,74.679,19.926,1.0,110.0,435.8,8750.0,0.0,0.0,110.0,110.0,433.0,0.0,0.0,0.0,1.0,333.3,83.6,83.6,77.8,77.8,34.0,6.75,2.95,9.9,1.7,1.0,-91.94,213.2,100.0,16.2,13.0,30.3,15.7,0.0,1.0,100.0,0.0,0.0,0.0,0.0,2745.0,1545.0,4965.0,1653.0,318.4,320.9,342.5,350.7,24.67,23.71,25.3,24.7,325.0,325.0,355.0,355.0,99.75,99.69,99.72,99.68,-28.6,-34.75,-35.53,-43.33,-0.4,1.2,73.9,100.0,80.2,74.2,77.9,74.2,90.9,86.3,83.8,80.2,87.4,83.0,82.0,78.4,85.0,81.2,81.2,77.8,12.21,-13.54,0.08,0.1,0.0,36.66,26.74,62.62,66.48,356.7,7.7,0.9868130522039116,46.81322242746796,3.240915408235482,-18.005085253571593,-43.21220620183802,0,4
295,14.7,439.4,44.05355764209457,-78.67918245906775,12.5,-3.8,91.6,18.3,2010.7,2011.0,47.4,0.0,1.0,1.0,0.0,1.0,1.0,0.0,0.0,0.0,100.0,1.0,1.186,26.0,0.0,-19.875,74.678,66.0,0.0,26.0,26.0,26.0,26.0,-1.23,0.51,0.14,388.4,-2.94,-2.07,-0.92,-3.14,-431.06,571.5,5.2,0.0,0.0,0.0,0.0,0.25,-7.49,-7.49,-1.87,-2.58,-1.35,-6.27,10.98,-7.25,-0.15,110.71,100.0,0.0,0.0,63.08,0.0,0.0,0.0,0.0,0.0,0.0,0.0,8548.0,0.0,30.0,1.0,47.4,0.0,0.0,0.0,0.0,0.0,0.0,1.0,0.0,14.73,14.73,74.679,19.926,0.0,110.0,435.8,8750.0,0.0,0.0,110.0,110.0,433.0,0.0,0.0,0.0,1.0,333.3,80.1,80.1,71.0,71.0,34.0,13.07,3.75,15.0,3.7,1.0,-91.99,179.9,100.0,16.8,12.8,34.9,16.7,0.0,1.0,100.0,0.0,0.0,0.0,0.0,4549.0,1954.0,6692.0,2981.0,313.4,319.8,338.1,347.2,24.67,23.72,25.3,24.71,325.0,325.0,355.0,355.0,99.75,99.69,99.72,99.69,-29.86,-36.34,-37.96,-45.98,-1.0,0.4,75.3,100.0,80.2,74.2,77.9,74.2,91.1,86.3,84.3,80.5,87.6,83.0,82.5,78.7,85.1,81.2,81.7,78.0,10.39,-11.35,0.07,0.09,0.0,35.3,25.6,63.07,63.07,356.7,7.7,1.3388801290630912,46.81322242746796,1.0803050981435804,10.803050981435902,-25.20712009473095,0,4
296,14.75,440.1,44.05355161663981,-78.67918245906775,67.0,23.1,130.7,16.4,2011.3,2011.0,46.9,0.0,1.0,1.0,0.0,1.0,1.0,0.0,0.0,0.0,100.0,1.0,1.186,26.0,0.0,-19.875,74.678,66.0,0.0,26.0,26.0,26.0,26.0,-1.22,0.45,0.16,387.6,-2.48,-1.93,-0.1,-2.68,-431.06,570.83,5.2,0.0,0.0,0.0,0.0,0.25,-7.49,-7.49,-1.88,-3.33,-1.87,-5.52,10.49,-7.69,-0.32,108.75,100.0,0.0,0.0,61.51,0.0,0.0,0.0,0.0,0.0,0.0,0.0,8336.0,0.0,30.0,1.0,46.9,1.0,0.0,0.0,0.0,0.0,0.0,1.0,0.0,14.781,14.781,74.679,19.926,1.0,110.0,435.8,8750.0,0.0,0.0,110.0,110.0,433.0,0.0,0.0,0.0,1.0,333.3,80.8,80.8,68.9,68.9,34.0,14.71,0.0,16.9,1.6,1.0,-92.04,146.4,100.0,20.2,14.0,41.5,17.5,0.0,1.0,100.0,0.0,0.0,0.0,0.0,5003.0,0.0,7108.0,1577.0,312.1,325.0,337.0,350.8,24.67,23.72,25.3,24.71,325.0,325.0,355.0,355.0,99.75,99.69,99.72,99.69,-30.55,0.0,-40.18,-48.63,-1.3,0.0,70.6,100.0,80.2,74.2,77.9,74.2,91.3,86.4,85.0,80.8,87.8,83.1,83.2,79.0,85.3,81.3,82.3,78.3,8.49,-9.14,0.06,0.09,0.0,34.13,24.59,59.01,64.0,356.7,7.7,1.3101526628603248,47.89352752561155,0.7202033987623869,-10.803051550459415,14.404068544271444,0,4
297,14.8,440.7,44.053545681117214,-78.67918263893206,-2.6,-96.8,-193.3,-17.8,2012.0,2012.0,46.4,0.0,1.0,1.0,0.0,1.0,1.0,0.0,0.0,0.0,100.0,1.0,1.186,26.0,0.0,-19.875,74.678,66.0,0.0,26.0,26.0,26.0,26.0,-0.96,0.4,-0.27,392.2,-2.38,-2.04,-0.57,-2.62,-431.08,570.17,5.2,0.0,0.0,0.0,0.0,0.25,-7.49,-7.49,-1.91,-3.33,-1.88,5.21,9.97,-8.15,-0.28,100.47,100.0,0.0,0.0,62.91,0.0,0.0,0.0,0.0,0.0,0.0,1.0,8525.0,0.0,30.0,1.0,46.4,0.0,0.0,0.0,0.0,0.0,0.0,1.0,0.0,14.831,14.831,74.679,19.926,0.0,110.0,435.8,8750.0,0.0,0.0,110.0,110.0,433.0,0.0,0.0,0.0,1.0,166.7,81.8,81.8,84.6,84.6,34.0,12.0,1.72,8.5,2.4,1.0,-92.09,112.9,100.0,20.0,9.1,31.8,16.6,0.0,1.0,100.0,0.0,0.0,0.0,0.0,4276.0,1026.0,4384.0,2126.0,314.0,322.3,344.2,349.6,24.67,23.72,25.3,24.71,325.0,325.0,355.0,355.0,99.75,99.69,99.72,99.69,-33.01,-39.92,-42.44,-50.77,-1.0,1.9,95.2,100.0,80.2,74.3,77.9,74.2,91.5,86.3,85.5,81.1,88.0,83.1,83.7,79.2,85.5,81.3,82.8,78.5,6.66,-7.08,0.08,0.1,0.0,32.45,24.16,62.14,63.68,356.7,7.7,1.0744766167767448,45.73291727242202,2.520711952570725,-14.404068259759697,43.212205632814324,0,4
298,14.85,441.4,44.053540195255415,-78.67918308859286,-5.9,8.0,-43.8,32.9,2012.6,2013.0,45.9,0.0,1.0,1.0,0.0,1.0,1.0,0.0,0.0,0.0,100.0,1.0,1.186,26.0,0.0,-19.767,74.678,66.0,0.0,26.0,26.0,26.0,26.0,-1.05,0.49,-0.03,391.3,-2.23,-2.29,-0.62,-2.96,-431.13,569.56,5.2,0.0,0.0,0.0,0.0,0.25,-7.49,-7.49,-1.87,-2.0,-1.97,-1.28,9.5,-8.47,-0.25,97.41,100.0,0.0,0.0,64.17,0.0,0.0,0.0,0.0,0.0,0.0,1.0,8697.0,0.0,30.0,1.0,45.9,1.0,0.0,0.0,0.0,0.0,0.0,1.0,0.0,14.88,14.88,74.679,19.926,1.0,110.0,435.8,8750.0,0.0,0.0,110.0,110.0,433.0,0.0,0.0,0.0,1.0,333.3,81.2,81.2,85.9,85.9,34.0,13.63,1.49,8.9,3.1,1.0,-92.14,83.0,100.0,19.8,9.5,29.6,18.2,0.0,1.0,100.0,0.0,0.0,0.0,0.0,4754.0,914.0,4550.0,2626.0,312.8,322.5,343.4,348.1,24.67,23.72,25.3,24.71,325.0,325.0,355.0,355.0,99.75,99.7,99.73,99.69,-33.83,-41.47,-44.5,-52.78,-1.5,1.2,100.0,100.0,80.2,74.3,77.9,74.2,91.7,86.4,86.0,81.4,88.2,83.1,84.2,79.6,85.6,81.3,83.3,78.8,5.0,-5.22,0.09,0.1,0.0,31.41,23.29,63.91,64.44,356.7,7.7,1.159094474147815,46.45312069963558,5.04142396204382,0.0,39.61118863900239,0,4
299,14.9,442.0,44.0535340798685,-78.67918389798231,13.7,-8.4,11.5,-105.8,2013.2,2013.0,45.2,0.0,1.0,1.0,0.0,1.0,1.0,0.0,0.0,0.0,100.0,1.0,1.186,26.0,0.0,-19.767,74.678,66.0,0.0,26.0,26.0,26.0,26.0,-0.96,0.43,-0.18,392.9,-1.99,-2.62,-0.54,-2.22,-431.22,568.88,5.2,0.0,0.0,0.0,0.0,0.25,-7.49,-7.49,-1.74,0.3,-2.12,5.39,8.94,-8.79,-0.2,99.81,100.0,0.0,0.0,64.72,0.0,0.0,0.0,0.0,0.0,0.0,0.0,8771.0,0.0,30.0,1.0,45.2,0.0,0.0,0.0,0.0,0.0,0.0,1.0,0.0,14.934,14.934,74.679,19.926,0.0,110.0,435.8,8750.0,0.0,0.0,110.0,110.0,433.0,0.0,0.0,0.0,1.0,166.7,81.1,81.1,84.4,84.4,34.0,14.09,1.1,10.4,1.1,1.0,-92.19,51.3,100.0,20.4,9.1,30.2,12.9,0.0,1.0,100.0,0.0,0.0,0.0,0.0,4883.0,743.0,5088.0,1373.0,312.4,323.1,342.1,351.9,24.68,23.73,25.3,24.71,325.0,325.0,355.0,355.0,99.75,99.7,99.73,99.69,-34.57,-42.98,-46.93,-40.58,-1.8,2.9,100.0,100.0,80.2,74.3,77.9,74.2,91.9,86.4,86.6,81.7,88.4,83.1,84.8,79.8,85.9,81.3,83.9,79.0,3.19,-3.3,0.08,0.11,0.0,30.32,22.6,64.48,64.96,356.7,7.7,1.0671925786848409,45.73291727242202,6.481830816470964,-43.21220506379056,25.20711952570725,0,4
300,14.95,442.6,44.05352877387102,-78.67918470737176,-13.5,14.4,25.9,91.4,2013.8,2014.0,44.6,0.0,1.0,1.0,0.0,1.0,1.0,0.0,0.0,0.0,100.0,1.0,1.186,26.0,0.0,-19.767,74.678,66.0,0.0,26.0,26.0,26.0,26.0,-1.08,0.6,0.07,390.1,-2.02,-2.71,-0.97,-2.0,-431.31,568.29,5.1,0.0,0.0,0.0,0.0,0.25,-7.49,-7.49,-1.52,1.1,-1.99,2.87,8.47,-9.01,-0.14,95.26,100.0,0.0,0.0,63.14,0.0,0.0,0.0,0.0,0.0,0.0,0.0,8557.0,0.0,30.0,1.0,44.6,1.0,0.0,0.0,0.0,0.0,0.0,1.0,0.0,14.981,14.981,74.679,19.926,1.0,110.0,435.8,8750.0,0.0,0.0,110.0,110.0,433.0,0.0,0.0,0.0,1.0,333.3,81.3,81.3,79.3,79.3,34.0,11.28,2.21,11.2,3.9,1.0,-92.24,24.3,100.0,19.8,9.8,31.5,17.5,0.0,1.0,100.0,0.0,0.0,0.0,0.0,4105.0,1279.0,5435.0,2912.0,314.5,321.6,341.2,347.5,24.68,23.73,25.31,24.71,325.0,325.0,355.0,355.0,99.75,99.7,99.73,99.69,-35.49,-44.29,-48.79,-57.59,-1.3,1.8,100.0,100.0,80.2,74.3,77.9,74.2,92.1,86.4,87.2,82.0,88.6,83.1,85.4,80.1,86.0,81.3,84.5,79.3,1.63,-1.67,0.08,0.09,0.0,29.46,21.51,63.14,63.14,356.7,7.7,1.237457069962429,42.13190019325653,7.562135914614545,-36.01017079165494,36.010171076166735,0,4
301,15.0,443.2,44.053523557805704,-78.67918578655768,-12.4,3.4,36.5,54.2,2014.4,2014.0,44.0,0.0,1.0,1.0,0.0,1.0,1.0,0.0,0.0,0.0,100.0,1.0,1.186,26.0,0.0,-19.767,74.678,66.0,0.0,26.0,26.0,26.0,26.0,-1.05,0.65,0.07,388.9,-1.94,-2.95,-0.81,-2.13,-431.43,567.71,5.1,0.0,0.0,0.0,0.0,0.25,-7.49,-7.49,-1.33,-0.08,-2.13,-3.03,8.07,-9.15,-0.15,89.21,100.0,0.0,0.0,60.97,0.0,0.0,0.0,0.0,0.0,0.0,0.0,8262.0,0.0,30.0,1.0,44.0,0.0,0.0,0.0,0.0,0.0,0.0,1.0,0.0,15.03,15.03,74.679,19.926,0.0,110.0,435.8,8750.0,0.0,0.0,110.0,110.0,433.0,0.0,0.0,0.0,1.0,333.3,81.7,81.7,76.4,76.4,34.0,11.59,1.61,12.2,3.9,1.0,-92.29,-0.7,100.0,19.1,10.0,33.3,20.2,0.0,1.0,100.0,0.0,0.0,0.0,0.0,4211.0,1001.0,5840.0,2979.0,314.3,322.3,340.2,347.3,24.68,23.73,25.31,24.71,325.0,325.0,355.0,355.0,99.75,99.7,99.73,99.69,-36.42,-45.23,-50.16,-58.72,-1.3,0.1,100.0,100.0,80.2,74.3,77.9,74.2,92.3,86.4,87.9,82.5,88.7,83.2,86.0,80.6,86.2,81.3,85.1,79.8,0.15,-0.16,0.07,0.09,0.0,28.41,20.74,59.92,62.01,356.7,7.7,1.2368912644206038,42.13190019325653,10.082847924087638,-2.8451189848510694e-07,46.81322262662626,0,4
302,15.05,443.8,44.05351825180823,-78.67918722547226,15.0,-18.7,67.8,13.7,2015.0,2015.0,43.3,0.0,1.0,1.0,0.0,1.0,1.0,0.0,0.0,0.0,100.0,1.0,1.186,26.0,0.0,-19.635,74.678,66.0,0.0,26.0,26.0,26.0,26.0,-1.05,0.67,0.01,387.9,-1.56,-3.18,-0.66,-2.29,-431.59,567.12,5.1,0.0,0.0,0.0,0.0,0.25,-7.49,-7.49,-1.2,-1.44,-2.36,-0.44,7.7,-9.22,-0.21,83.19,100.0,0.0,0.0,64.16,0.0,0.0,0.0,0.0,0.0,0.0,0.0,8695.0,0.0,30.0,1.0,43.3,1.0,0.0,0.0,0.0,0.0,0.0,1.0,0.0,15.081,15.081,74.679,19.926,1.0,110.0,435.8,8750.0,0.0,0.0,110.0,110.0,433.0,0.0,0.0,0.0,1.0,333.3,81.6,81.6,74.4,74.4,34.0,13.68,0.79,12.3,2.9,1.0,-92.34,-27.4,100.0,19.9,9.1,36.7,20.9,0.0,1.0,100.0,0.0,0.0,0.0,0.0,4817.0,576.0,6197.0,2462.0,312.6,323.4,339.2,348.6,24.68,23.73,25.31,24.71,325.0,325.0,355.0,355.0,99.75,99.7,99.74,99.69,-37.26,-45.95,-51.43,-59.68,-1.9,-0.2,100.0,100.0,80.3,74.3,78.0,74.2,92.5,86.5,88.7,83.0,88.9,83.2,86.8,81.0,86.4,81.3,85.9,80.2,-1.4,1.39,0.07,0.09,0.0,27.38,20.36,64.16,64.16,356.7,7.7,1.2455922286205867,42.13190016480534,12.243458177277171,-10.803051550459557,39.61118750095499,0,4
303,15.1,444.4,44.05351303574292,-78.67918884425114,3.3,-8.1,-9.3,-4.9,2015.6,2016.0,42.6,0.0,1.0,1.0,0.0,1.0,1.0,0.0,0.0,0.0,100.0,1.0,1.186,26.0,0.0,-19.635,74.678,66.0,0.0,26.0,26.0,26.0,26.0,-0.99,0.6,-0.03,389.0,-1.44,-3.23,-0.97,-2.17,-431.77,566.54,5.1,0.0,0.0,0.0,0.0,0.25,-7.49,-7.49,-1.11,-1.26,-2.33,3.09,7.35,-9.25,-0.2,78.03,100.0,0.0,0.0,62.59,0.0,0.0,0.0,0.0,0.0,0.0,0.0,8482.0,0.0,30.0,1.0,42.6,0.0,0.0,0.0,0.0,0.0,0.0,0.0,0.0,15.131,15.131,74.679,19.926,0.0,110.0,435.8,8750.0,0.0,0.0,110.0,110.0,433.0,0.0,0.0,0.0,1.0,333.3,81.8,81.8,77.2,77.2,34.0,12.29,1.43,9.4,2.9,1.0,-92.39,-52.1,100.0,20.1,8.7,36.2,20.7,0.0,1.0,100.0,0.0,0.0,0.0,0.0,4432.0,931.0,4917.0,2441.0,313.6,322.6,342.5,348.7,24.68,23.74,25.32,24.71,325.0,325.0,355.0,355.0,99.75,99.7,99.74,99.69,-37.93,-46.55,-52.63,-60.66,-2.0,-0.4,100.0,100.0,80.3,74.4,78.0,74.2,92.7,86.5,89.4,83.4,89.1,83.2,87.5,81.4,86.6,81.3,86.6,80.5,-2.85,2.82,0.07,0.08,0.0,26.62,19.99,61.65,63.53,356.7,7.7,1.158015543937127,41.05159503821057,14.043966674183137,-25.20711981021897,36.010171076166735,0,4
304,15.15,445.0,44.05350799954192,-78.67919073282651,-5.3,2.4,-47.5,12.4,2016.2,2016.0,41.9,0.0,1.0,1.0,0.0,1.0,1.0,0.0,0.0,0.0,100.0,1.0,1.186,26.0,0.0,-19.635,74.678,66.0,0.0,26.0,26.0,26.0,26.0,-0.97,0.66,-0.07,389.3,-1.36,-3.31,-1.09,-2.15,-431.98,565.98,5.1,0.0,0.0,0.0,0.0,0.25,-7.49,-7.49,-1.0,-0.41,-2.32,-0.41,7.04,-9.25,-0.17,72.43,100.0,0.0,0.0,61.58,0.0,0.0,0.0,0.0,0.0,0.0,1.0,8345.0,0.0,30.0,1.0,41.9,1.0,0.0,0.0,0.0,0.0,0.0,0.0,0.0,15.183,15.183,74.679,19.926,1.0,110.0,435.8,8750.0,0.0,0.0,110.0,110.0,433.0,0.0,0.0,0.0,1.0,166.7,82.1,82.1,79.2,79.2,34.0,11.61,1.45,8.6,3.6,1.0,-92.44,-73.8,100.0,19.8,8.8,33.9,21.3,0.0,1.0,100.0,0.0,0.0,0.0,0.0,4245.0,935.0,4768.0,2936.0,314.1,322.5,342.9,347.4,24.69,23.74,25.32,24.72,325.0,325.0,355.0,355.0,99.75,99.7,99.74,99.7,-38.37,-46.73,-53.55,-61.24,-2.1,-0.0,100.0,100.0,80.3,74.4,78.0,74.2,92.9,86.5,90.0,83.9,89.3,83.2,88.1,81.8,86.7,81.4,87.2,81.0,-4.19,4.1,0.07,0.09,0.0,25.97,19.96,61.58,61.58,356.7,7.7,1.1753297409663384,39.61118818378344,15.844475284893845,-36.01017107616677,25.207120663754647,0,4
305,15.2,445.6,44.053503143205255,-78.67919280126621,3.3,-16.0,-4.7,12.2,2016.8,2017.0,41.2,0.0,1.0,1.0,0.0,1.0,1.0,0.0,0.0,0.0,100.0,1.0,1.186,26.0,0.0,-19.635,74.678,66.0,0.0,26.0,26.0,26.0,26.0,-0.93,0.67,-0.0,389.3,-1.07,-3.38,-0.95,-2.02,-432.21,565.44,5.1,0.0,0.0,0.0,0.0,0.25,-7.49,-7.49,-0.87,-0.38,-2.46,-0.84,6.8,-9.19,-0.17,66.21,100.0,0.0,0.0,63.78,0.0,0.0,0.0,0.0,0.0,0.0,0.0,8645.0,0.0,30.0,1.0,41.2,0.0,0.0,0.0,0.0,0.0,0.0,0.0,0.0,15.234,15.234,74.679,19.926,0.0,110.0,435.8,8750.0,0.0,0.0,110.0,110.0,433.0,0.0,0.0,0.0,1.0,166.7,82.6,82.6,79.8,79.8,34.0,13.17,0.48,9.3,3.0,1.0,-92.49,-95.3,100.0,20.0,8.0,33.6,21.9,0.0,1.0,74.2,0.0,0.0,0.0,0.0,4718.0,396.0,5286.0,2571.0,312.9,324.0,341.6,348.3,24.69,23.74,25.32,24.72,325.0,325.0,355.0,355.0,99.76,99.7,99.74,99.7,-38.66,-46.69,-54.19,-61.41,-2.4,-0.2,100.0,100.0,80.3,74.4,78.0,74.2,93.1,86.5,90.7,84.3,89.5,83.2,88.8,82.3,86.9,81.4,87.9,81.4,-5.47,5.3,0.08,0.09,0.0,25.37,19.91,63.79,63.79,356.7,7.7,1.1462111498323508,37.450577930593894,16.564678740558602,-46.813222057602744,14.404068544271471,0,4
306,15.25,446.1,44.05349864659722,-78.67919486970591,3.5,-11.7,9.9,-0.9,2017.4,2017.0,40.6,0.0,1.0,1.0,0.0,1.0,1.0,0.0,0.0,0.0,100.0,1.0,1.186,26.0,0.0,-19.635,74.678,66.0,0.0,26.0,26.0,26.0,26.0,-0.96,0.68,0.01,389.1,-0.82,-3.57,-1.0,-1.97,-432.44,564.94,5.0,0.0,0.0,0.0,0.0,0.25,-7.49,-7.49,-0.74,-0.16,-2.42,2.79,6.64,-9.11,-0.15,60.71,100.0,0.0,0.0,60.58,0.0,0.0,0.0,0.0,0.0,0.0,0.0,8210.0,0.0,30.0,1.0,40.6,1.0,0.0,0.0,0.0,0.0,0.0,0.0,0.0,15.281,15.281,74.679,19.926,1.0,110.0,435.8,8750.0,0.0,0.0,110.0,110.0,433.0,0.0,0.0,0.0,1.0,333.3,82.6,82.6,79.2,79.2,34.0,12.6,1.02,9.3,3.4,1.0,-92.54,-114.3,100.0,20.1,7.4,34.1,21.9,0.0,1.0,0.0,0.0,0.0,0.0,0.0,4574.0,726.0,5122.0,2857.0,313.3,323.1,342.0,347.6,24.69,23.74,25.32,24.72,325.0,325.0,355.0,355.0,99.76,99.7,99.75,99.7,-38.77,-46.39,-54.62,-61.39,-2.7,-0.9,100.0,100.0,80.3,74.4,78.0,74.3,93.2,86.5,91.4,84.8,89.7,83.2,89.5,82.7,87.1,81.4,88.5,81.8,-6.63,6.37,0.07,0.09,0.0,25.03,19.93,58.6,62.56,356.7,7.7,1.1764777940955793,34.929865978023166,17.28488213932099,-32.40915408235473,28.80813651951918,0,4
307,15.3,446.7,44.05349441978567,-78.67919711800992,3.0,9.2,1.8,21.6,2017.9,2018.0,39.9,0.0,1.0,1.0,0.0,1.0,1.0,0.0,0.0,0.0,100.0,1.0,1.186,26.0,0.0,-19.635,74.678,66.0,0.0,26.0,26.0,26.0,26.0,-1.02,0.7,0.05,388.2,-0.69,-3.72,-1.1,-2.08,-432.69,564.47,5.0,0.0,0.0,0.0,0.0,0.25,-7.49,-7.49,-0.63,0.22,-2.4,-0.78,6.53,-8.94,-0.15,54.08,100.0,0.0,0.0,53.66,0.0,0.0,0.0,0.0,0.0,0.0,0.0,7273.0,0.0,30.0,1.0,39.9,0.0,0.0,0.0,0.0,0.0,0.0,0.0,0.0,15.33,15.33,74.679,19.926,0.0,110.0,435.8,8750.0,0.0,0.0,110.0,110.0,433.0,0.0,0.0,0.0,1.0,333.3,82.0,82.0,78.6,78.6,34.0,12.99,1.33,10.2,4.5,1.0,-92.59,-133.6,100.0,20.3,7.9,34.2,22.9,0.0,1.0,0.0,0.0,0.0,0.0,0.0,4694.0,887.0,5123.0,3292.0,313.0,322.6,342.0,346.5,24.69,23.75,25.33,24.72,325.0,325.0,355.0,355.0,99.76,99.7,99.75,99.7,-38.37,-45.45,-54.57,-60.78,-2.8,-1.9,100.0,100.0,80.3,74.4,78.1,74.3,93.4,86.5,92.0,85.2,89.8,83.2,90.0,83.1,87.3,81.4,89.0,82.2,-7.82,7.43,0.06,0.07,0.0,24.81,20.01,52.31,55.02,356.7,7.7,1.2381033882515629,34.20966252235842,19.44549239251052,-18.005085822595106,36.010171076166735,0,4
308,15.35,447.2,44.053490103041966,-78.67919972604258,17.7,-12.0,11.9,12.3,2018.5,2018.0,39.1,0.0,1.0,1.0,0.0,1.0,1.0,0.0,0.0,0.0,100.0,1.0,1.186,26.0,0.0,-19.446,74.678,66.0,0.0,26.0,26.0,26.0,26.0,-1.05,0.65,-0.01,388.1,-0.43,-3.92,-0.81,-2.2,-432.98,563.99,5.0,0.0,0.0,0.0,0.0,0.25,-7.49,-7.49,-0.52,-0.11,-2.52,-1.62,6.47,-8.7,-0.18,45.49,100.0,0.0,0.0,46.85,0.0,0.0,0.0,0.0,0.0,0.0,0.0,6350.0,0.0,30.0,1.0,39.1,1.0,0.0,0.0,0.0,0.0,0.0,0.0,0.0,15.381,15.381,74.679,19.926,1.0,110.0,435.8,8750.0,0.0,0.0,110.0,110.0,433.0,0.0,0.0,0.0,1.0,333.3,82.4,82.4,78.5,78.5,34.0,13.8,0.31,12.7,4.0,1.0,-92.64,-153.8,100.0,21.2,7.3,34.8,23.5,0.0,1.0,0.0,0.0,0.0,0.0,0.0,4944.0,278.0,5633.0,2815.0,312.3,324.2,340.7,347.7,24.7,23.75,25.33,24.73,325.0,325.0,355.0,355.0,99.76,99.7,99.75,99.7,-37.7,-43.97,-54.08,-59.47,-2.9,-4.1,100.0,100.0,80.3,74.4,78.1,74.3,93.6,86.5,92.5,85.6,90.0,83.2,90.5,83.5,87.5,81.4,89.6,82.6,-9.09,8.58,0.07,0.07,0.0,24.67,20.11,44.2,49.51,356.7,7.7,1.2349493916756267,33.129357395763655,20.885899246937665,-86.42441041209312,-82.823393702793,0,4
309,15.4,447.7,44.0534861460269,-78.67920233407524,1.7,-44.5,5.4,-53.5,2018.9,2019.0,32.7,0.0,1.0,1.0,0.0,1.0,1.0,0.0,0.0,0.0,100.0,1.0,1.186,26.0,0.0,-19.446,74.678,66.0,0.0,26.0,26.0,26.0,26.0,-7.84,-12.2,1.02,391.8,-0.14,-3.88,-0.98,-2.06,-433.27,563.55,5.0,0.0,0.0,0.0,0.0,0.25,-7.49,-7.49,-0.43,-4.1,-2.62,-4.96,4.26,-7.28,-0.39,77.07,100.0,0.0,0.0,40.92,0.0,0.0,0.0,0.0,0.0,0.0,0.0,5545.0,0.0,30.0,1.0,32.7,0.0,0.0,0.0,0.0,0.0,0.0,0.0,0.0,15.431,15.431,74.679,19.926,0.0,110.0,435.8,8750.0,0.0,0.0,110.0,110.0,433.0,0.0,0.0,0.0,1.0,333.3,86.3,86.3,82.1,82.1,34.0,11.45,0.0,12.0,2.9,1.0,-92.69,-175.6,100.0,21.3,5.0,35.1,20.9,0.0,1.0,0.0,0.0,0.0,0.0,0.0,4261.0,0.0,5030.0,2234.0,314.0,325.0,342.1,349.0,24.7,23.75,25.34,24.73,325.0,325.0,355.0,355.0,99.76,99.7,99.75,99.7,-36.55,0.0,-55.8,-62.42,6.7,0.0,100.0,100.0,80.4,74.4,78.1,74.3,93.8,86.5,93.0,86.0,90.2,83.2,91.0,83.8,87.6,81.3,90.0,82.8,-10.43,9.78,0.07,0.09,0.0,23.41,20.27,36.15,45.68,356.7,7.7,14.537743979036087,25.567221481149108,11.163153022231219,-147.64170158299086,-176.4498383870218,0,4
310,15.45,447.9,44.05348371785856,-78.67920251393956,-35.4,-10.8,-258.2,-265.2,2019.2,2019.0,18.6,0.0,1.0,1.0,0.0,1.0,1.0,0.0,0.0,0.0,100.0,1.0,1.186,26.0,0.0,-19.446,74.678,66.0,0.0,26.0,26.0,26.0,26.0,-2.01,-5.87,-0.52,405.3,0.1,-3.93,-0.74,-1.87,-433.29,563.28,5.0,0.0,0.0,0.0,0.0,0.25,-7.49,-7.49,-0.55,-7.76,-2.63,1.17,-1.8,-4.83,-0.26,136.07,100.0,0.0,0.0,37.59,0.0,0.0,0.0,0.0,0.0,0.0,0.0,5095.0,0.0,30.0,1.0,18.6,1.0,0.0,0.0,0.0,0.0,0.0,0.0,0.0,15.48,15.48,74.679,19.926,1.0,110.0,435.8,8750.0,0.0,0.0,110.0,110.0,433.0,0.0,0.0,0.0,1.0,333.3,91.3,91.3,103.8,103.8,34.0,6.87,0.0,2.0,0.0,1.0,-92.74,-195.3,100.0,19.5,4.5,22.2,7.6,0.0,1.0,0.0,0.0,0.0,0.0,0.0,3186.0,0.0,1907.0,0.0,316.8,325.0,350.1,355.0,24.7,23.75,25.34,24.73,325.0,325.0,355.0,355.0,99.76,99.7,99.75,99.7,-38.42,0.0,-82.61,0.0,48.2,0.0,100.0,0.0,80.4,74.5,78.1,74.3,93.8,86.4,93.3,86.0,90.2,83.1,91.2,83.8,87.7,81.3,90.3,82.9,-11.75,10.89,0.1,0.11,0.0,0.24,20.27,25.7,49.49,356.7,7.7,6.226347243769817,18.365187237464568,3.240915408235482,-86.424410696605,-18.005085538083367,0,4
311,15.5,448.2,44.05348155948671,-78.6792015246858,-39.4,-7.5,-210.0,-78.2,2019.4,2019.0,18.8,0.0,1.0,1.0,0.0,1.0,1.0,0.0,0.0,0.0,100.0,1.0,1.186,26.0,0.0,-19.446,74.678,66.0,0.0,26.0,26.0,26.0,26.0,-0.96,-0.98,-0.67,409.4,0.15,-3.78,-0.56,-1.66,-433.18,563.04,5.0,0.0,0.0,0.0,0.0,0.25,-7.49,-7.49,-0.52,-3.34,-2.4,10.82,-3.48,-3.91,0.08,134.66,100.0,0.0,0.0,35.25,0.0,0.0,0.0,0.0,0.0,0.0,0.0,4777.0,0.0,30.0,1.0,18.8,0.0,0.0,0.0,0.0,0.0,0.0,0.0,0.0,15.531,15.531,74.679,19.926,0.0,110.0,435.8,8750.0,0.0,0.0,110.0,110.0,433.0,0.0,0.0,0.0,1.0,333.3,90.2,90.2,112.4,112.4,34.0,8.4,0.0,1.3,0.0,1.0,-92.79,-215.1,100.0,17.5,4.1,11.7,3.7,0.0,1.0,0.0,0.0,0.0,0.0,0.0,3407.0,0.0,1235.0,0.0,316.2,325.0,351.8,355.0,24.7,23.75,25.34,24.73,325.0,325.0,355.0,355.0,99.76,99.7,99.75,99.7,-48.18,0.0,-80.32,0.0,21.9,0.0,100.0,0.0,80.4,74.5,78.1,74.3,93.8,86.4,93.4,85.9,90.2,83.1,91.3,83.8,87.6,81.2,90.4,82.8,-13.09,12.01,0.13,0.13,0.0,-3.57,20.27,16.21,54.29,356.7,7.7,1.5267285285865329,16.92478041148861,9.362644468422882,-32.40915379784294,64.81830816470962,0,4
312,15.55,448.5,44.053479491047014,-78.67920017570339,2.6,126.5,-18.8,89.6,2019.7,2020.0,18.0,0.0,1.0,1.0,0.0,1.0,1.0,0.0,0.0,0.0,100.0,1.0,1.186,26.0,0.0,-19.446,74.678,66.0,0.0,26.0,26.0,26.0,26.0,-0.8,0.7,-0.1,398.0,-0.16,-3.64,-1.16,-1.36,-433.03,562.81,5.0,0.0,0.0,0.0,0.0,0.25,-7.49,-7.49,-0.22,4.85,-1.78,8.0,-3.86,-3.1,0.34,121.29,100.0,0.0,0.0,31.79,0.0,0.0,0.0,0.0,0.0,0.0,0.0,4309.0,0.0,30.0,1.0,18.0,1.0,0.0,0.0,0.0,0.0,0.0,0.0,0.0,15.584,15.584,74.679,19.926,1.0,110.0,435.8,8750.0,0.0,0.0,110.0,110.0,433.0,0.0,0.0,0.0,1.0,166.7,80.6,80.6,99.5,99.5,34.0,10.93,0.88,5.2,2.0,1.0,-92.84,-236.5,100.0,17.6,10.4,10.7,8.2,0.0,1.0,0.0,0.0,0.0,0.0,0.0,4077.0,2530.0,3050.0,3373.0,314.6,318.4,347.5,346.4,24.71,23.76,25.35,24.74,325.0,325.0,355.0,355.0,99.76,99.7,99.75,99.7,-31.27,-13.3,-72.93,-45.07,-6.1,100.0,100.0,100.0,80.4,74.5,78.2,74.3,93.7,86.4,93.5,86.2,90.2,83.1,91.5,84.0,87.6,81.3,90.5,83.1,-14.51,13.11,0.12,0.11,0.0,-5.47,-2.21,15.01,48.58,356.7,7.7,1.0677078252031311,15.124271857680274,9.722746224706444,-46.81322262662622,-10.803050981435796,0,4
313,15.6,448.7,44.05347778233597,-78.67919909651745,72.6,74.0,321.5,335.4,2019.9,2020.0,15.8,0.0,1.0,1.0,0.0,1.0,1.0,0.0,0.0,0.0,100.0,1.0,1.186,26.0,0.0,-19.446,74.678,66.0,0.0,26.0,26.0,26.0,26.0,-1.03,0.82,0.28,385.4,0.17,-3.99,-1.21,-1.47,-432.91,562.62,5.0,0.0,0.0,0.0,0.0,0.25,-7.49,-7.49,0.32,9.41,-1.86,-9.09,-3.66,-2.34,0.24,99.53,100.0,0.0,0.0,25.64,0.0,0.0,0.0,0.0,0.0,0.0,0.0,3476.0,0.0,30.0,1.0,15.8,0.0,0.0,0.0,0.0,0.0,0.0,1.0,0.0,15.633,15.633,74.679,19.926,0.0,110.0,435.8,8750.0,0.0,0.0,110.0,110.0,433.0,0.0,0.0,0.0,1.0,166.7,77.3,77.3,78.0,78.0,34.0,13.47,2.44,9.9,3.0,1.0,-92.89,-256.8,100.0,21.3,14.1,26.8,25.0,0.0,1.0,0.0,0.0,0.0,0.0,0.0,4708.0,1894.0,5617.0,4618.0,313.0,319.8,340.9,343.1,24.71,23.76,25.35,24.74,325.0,325.0,355.0,355.0,99.76,99.7,99.75,99.71,-20.17,-12.65,-67.21,-43.86,-0.3,-24.3,100.0,100.0,80.4,74.5,78.2,74.4,93.7,86.4,93.8,86.9,90.1,83.1,91.7,84.6,87.6,81.3,90.8,83.7,-15.84,14.16,0.08,0.09,0.0,-7.33,-18.62,14.44,36.85,356.7,7.7,1.3459940564504733,12.243458148825987,8.282339370279303,-50.41423933592636,-21.606103100918997,0,4
314,15.65,448.9,44.05347643335356,-78.67919810726369,53.7,-110.4,366.2,145.5,2020.1,2020.0,13.4,0.0,1.0,1.0,0.0,1.0,1.0,0.0,0.0,0.0,100.0,1.0,1.186,26.0,0.0,-19.446,74.678,66.0,0.0,26.0,26.0,26.0,26.0,-0.97,1.14,0.36,379.5,0.89,-4.5,-0.91,-2.12,-432.8,562.47,5.0,0.0,0.0,0.0,0.0,0.25,-7.49,-7.49,0.85,5.87,-2.32,-8.21,-3.3,-1.61,0.03,78.65,100.0,0.0,0.0,17.99,0.0,0.0,0.0,0.0,0.0,0.0,0.0,2438.0,0.0,30.0,1.0,13.4,1.0,0.0,0.0,0.0,0.0,0.0,1.0,0.0,15.681,15.681,74.679,19.926,1.0,110.0,435.8,8750.0,0.0,0.0,110.0,110.0,433.0,0.0,0.0,0.0,1.0,333.3,81.2,81.2,62.2,62.2,34.0,15.86,0.0,15.9,2.8,1.0,-92.94,-278.3,100.0,24.0,8.6,45.1,32.2,0.0,1.0,0.0,0.0,0.0,0.0,0.0,5296.0,0.0,7806.0,4768.0,311.4,325.0,335.3,342.6,24.71,23.76,25.36,24.74,325.0,325.0,355.0,355.0,99.76,99.7,99.76,99.71,-11.77,0.0,-61.41,-39.52,-0.7,0.0,100.0,100.0,80.4,74.5,78.2,74.4,93.6,86.4,94.1,87.5,90.1,83.1,92.0,85.2,87.5,81.2,91.0,84.2,-17.27,15.38,0.05,0.06,0.0,-6.99,-12.73,4.31,31.67,356.7,7.7,1.5395129099815954,10.082847924087638,7.562135914614545,-39.61118778546684,-10.803051550459504,0,4
315,15.7,449.0,44.053475264235466,-78.67919720794208,-17.5,-54.4,113.2,24.4,2020.2,2020.0,10.9,0.0,1.0,1.0,0.0,1.0,1.0,0.0,0.0,0.0,100.0,1.0,1.186,26.0,0.0,-19.17,74.678,66.0,0.0,26.0,26.0,26.0,26.0,-1.01,0.93,0.21,382.0,1.46,-4.7,-0.8,-2.29,-432.7,562.34,5.0,0.0,0.0,0.0,0.0,0.25,-7.49,-7.49,1.11,-0.64,-2.4,0.87,-2.84,-0.92,-0.13,49.55,100.0,0.0,0.0,10.74,0.0,0.0,0.0,0.0,0.0,0.0,0.0,1456.0,0.0,30.0,1.0,10.9,0.0,0.0,0.0,0.0,0.0,0.0,1.0,0.0,15.731,15.731,74.679,19.926,0.0,110.0,435.8,8750.0,0.0,0.0,110.0,110.0,433.0,0.0,0.0,0.0,1.0,333.3,87.3,87.3,60.5,60.5,34.0,12.02,0.0,20.5,1.8,1.0,-92.99,-303.4,100.0,23.1,5.9,50.8,33.5,0.0,1.0,0.0,0.0,0.0,0.0,0.0,4257.0,0.0,7405.0,3907.0,314.0,325.0,336.1,344.8,24.71,23.76,25.36,24.74,325.0,325.0,355.0,355.0,99.76,99.7,99.76,99.71,-9.4,0.0,-52.71,-34.1,0.1,0.0,97.0,100.0,80.5,74.5,78.2,74.4,93.6,86.3,94.2,88.0,90.0,83.0,92.1,85.7,87.5,81.2,91.2,84.7,-19.0,16.74,0.04,0.06,0.0,-6.12,-12.73,-4.31,25.8,356.7,7.7,1.3889204440859815,8.282339370279303,7.202034215233352,-39.611188354490515,-7.202033987623864,0,4
316,15.75,449.1,44.05347436491386,-78.67919630862048,-57.2,-26.4,-127.2,-94.6,2020.4,2020.0,9.2,0.0,1.0,1.0,0.0,1.0,1.0,0.0,0.0,0.0,100.0,1.0,1.186,26.0,0.0,-19.17,74.678,66.0,0.0,26.0,26.0,26.0,26.0,-0.81,0.68,-0.11,388.5,1.61,-4.51,-0.87,-2.06,-432.6,562.24,5.0,0.0,0.0,0.0,0.0,0.25,-7.49,-7.49,1.01,-5.29,-2.19,5.54,-2.49,-0.39,-0.11,24.24,100.0,0.0,0.0,6.11,0.0,0.0,0.0,0.0,0.0,0.0,0.0,828.0,0.0,30.0,1.0,9.2,1.0,0.0,0.0,0.0,0.0,0.0,1.0,0.0,15.783,15.783,74.679,19.926,1.0,110.0,435.8,8750.0,0.0,0.0,110.0,110.0,433.0,0.0,0.0,0.0,1.0,166.7,89.6,89.6,70.5,70.5,34.0,9.17,0.0,13.6,0.9,1.0,-93.04,-320.0,100.0,20.2,4.6,44.4,28.7,0.0,1.0,0.0,0.0,0.0,0.0,0.0,3504.0,0.0,5060.0,2643.0,316.0,325.0,342.1,348.1,24.72,23.77,25.36,24.75,325.0,325.0,355.0,355.0,99.76,99.7,99.76,99.71,-12.32,0.0,-38.47,-25.88,0.6,0.0,47.2,100.0,80.5,74.5,78.3,74.4,93.5,86.3,94.2,88.2,90.0,83.0,92.1,85.9,87.4,81.1,91.2,84.9,-20.47,17.82,0.06,0.07,0.0,-6.53,-12.73,-3.82,16.04,356.7,7.7,1.0632967600815872,6.121729088638586,6.841932515852158,-39.611188354490544,-7.2020339876238815,0,4
317,15.8,449.2,44.053473735388735,-78.67919549923103,-27.7,13.2,-221.7,-106.6,2020.5,2020.0,8.0,0.0,1.0,1.0,0.0,1.0,1.0,0.0,0.0,0.0,100.0,1.0,1.186,26.0,0.0,-19.17,74.678,66.0,0.0,26.0,26.0,26.0,26.0,-0.84,0.52,-0.13,391.5,1.26,-4.16,-1.01,-1.64,-432.51,562.17,5.0,0.0,0.0,0.0,0.0,0.25,-7.49,-7.49,0.76,-5.75,-1.87,5.32,-2.21,0.01,0.0,14.47,100.0,0.0,0.0,2.44,0.0,0.0,0.0,0.0,0.0,0.0,0.0,330.0,0.0,30.0,1.0,8.0,0.0,0.0,0.0,0.0,0.0,0.0,1.0,0.0,15.831,15.831,74.679,19.926,0.0,110.0,435.8,8750.0,0.0,0.0,110.0,110.0,433.0,0.0,0.0,0.0,1.0,166.7,85.3,85.3,80.1,80.1,34.0,10.38,1.85,8.4,0.6,1.0,-93.09,-320.0,100.0,18.8,5.2,33.3,23.4,0.0,1.0,0.0,0.0,0.0,0.0,0.0,3870.0,1426.0,3749.0,2471.0,315.2,321.4,345.4,348.6,24.72,23.77,25.37,24.75,325.0,325.0,355.0,355.0,99.76,99.7,99.76,99.71,-14.04,-5.56,-23.72,-16.74,0.3,-9.0,37.0,100.0,80.5,74.6,78.3,74.4,93.5,86.2,94.2,88.4,90.0,82.9,92.1,86.0,87.4,81.1,91.2,85.0,-20.52,17.84,0.08,0.08,0.0,-6.28,-4.57,-4.41,9.28,356.7,7.7,0.9964436762808021,4.321220534830248,6.481830816470964,-36.010171360678605,-7.202034556647581,0,4
318,15.85,449.3,44.05347328572793,-78.67919468984158,32.4,91.8,-104.5,-63.3,2020.6,2021.0,6.9,0.0,1.0,1.0,0.0,1.0,1.0,0.0,0.0,0.0,100.0,1.0,1.186,26.0,0.0,-19.17,74.678,66.0,0.0,26.0,26.0,26.0,26.0,-0.99,0.68,-0.04,391.0,1.04,-4.2,-0.99,-1.55,-432.42,562.12,5.0,0.0,0.0,0.0,0.0,0.25,-7.49,-7.49,0.64,-0.27,-1.83,-3.79,-1.84,0.49,0.05,17.19,100.0,0.0,0.0,1.58,0.0,0.0,0.0,0.0,0.0,0.0,0.0,0.0,0.0,30.0,1.0,6.9,1.0,0.0,0.0,0.0,0.0,0.0,1.0,0.0,15.881,15.881,74.679,19.926,1.0,110.0,435.8,8750.0,0.0,0.0,110.0,110.0,433.0,0.0,0.0,0.0,1.0,333.3,74.6,74.6,75.9,75.9,34.0,-23.56,-18.5,10.5,0.3,1.0,-93.14,-320.0,100.0,20.5,9.8,28.1,20.2,0.0,1.0,0.0,0.0,0.0,0.0,0.0,4632.0,1627.0,4179.0,2491.0,313.1,320.7,344.5,348.5,24.72,23.77,25.37,24.75,325.0,325.0,355.0,355.0,99.76,99.7,99.76,99.71,-5.46,-2.85,-11.06,-7.02,0.1,-0.2,14.7,100.0,80.5,74.6,78.3,74.5,93.4,86.2,94.1,88.4,89.9,82.9,92.1,86.1,87.4,81.1,91.1,85.1,-20.49,17.78,0.08,0.09,0.0,-5.81,-3.98,-5.78,2.63,356.7,7.7,1.2017071190602144,2.520711952570725,6.1217290601874,-25.207119810219098,-7.202034556647572,0,4
319,15.9,449.4,44.05347310586362,-78.6791939703843,48.0,-4.5,19.9,-3.8,2020.7,2021.0,6.3,0.0,1.0,1.0,0.0,1.0,1.0,0.0,0.0,0.0,100.0,1.0,1.186,26.0,0.0,-19.17,74.678,66.0,0.0,26.0,26.0,26.0,26.0,0.63,0.42,0.02,389.8,1.05,-4.15,-0.94,-1.6,-432.34,562.1,5.0,0.0,0.0,0.0,0.0,0.25,-7.49,-7.49,0.71,1.17,-1.83,11.06,-1.6,0.63,0.04,6.35,100.0,0.0,0.0,5.25,0.0,0.0,0.0,0.0,0.0,0.0,0.0,0.0,0.0,30.0,1.0,6.3,0.0,0.0,0.0,0.0,0.0,0.0,1.0,0.0,15.93,15.93,74.679,19.926,0.0,110.0,435.8,8750.0,0.0,0.0,110.0,110.0,433.0,0.0,0.0,0.0,1.0,333.3,74.6,74.6,75.9,75.9,34.0,65.42,14.69,40.3,-0.5,1.0,-93.19,-320.0,100.0,22.9,9.6,29.1,20.0,0.0,1.0,0.0,0.0,0.0,0.0,0.0,3916.0,1607.0,4901.0,3180.0,314.8,320.9,342.4,346.9,24.72,23.77,25.38,24.76,325.0,325.0,355.0,355.0,99.76,99.7,99.76,99.71,2.93,3.51,0.79,3.68,-0.0,2.2,1.1,100.0,80.5,74.6,78.3,74.5,93.4,86.2,94.1,88.4,89.9,82.9,92.0,86.1,87.3,81.0,91.1,85.1,-20.45,17.78,0.08,0.09,0.0,-5.22,-4.93,-4.41,-6.08,356.7,7.7,0.7574298647399639,1.800508553808338,5.761627360806207,2.8451184963529386e-07,-7.202033987623864,0,4
320,15.95,449.5,44.05347283606713,-78.67919325092701,-169.2,165.9,-131.5,273.4,2020.7,2021.0,5.6,0.0,1.0,1.0,0.0,1.0,1.0,0.0,0.0,0.0,100.0,1.0,1.186,26.0,0.0,-19.17,74.678,66.0,0.0,26.0,26.0,26.0,26.0,0.37,-0.6,-0.1,388.5,0.13,-3.28,-2.06,-0.59,-432.26,562.07,5.0,0.0,0.0,0.0,0.0,0.25,-7.49,-7.49,0.76,-0.55,-0.59,19.94,-1.54,0.24,0.05,10.08,100.0,0.0,0.0,7.0,0.0,0.0,0.0,0.0,0.0,0.0,0.0,0.0,0.0,30.0,1.0,5.6,1.0,0.0,0.0,0.0,0.0,0.0,1.0,0.0,15.984,15.984,74.679,19.926,1.0,110.0,435.8,8750.0,0.0,0.0,110.0,110.0,433.0,0.0,0.0,0.0,1.0,166.7,74.6,74.6,75.9,75.9,34.0,-9.36,-6.7,-0.7,-10.0,1.0,-93.24,-320.0,100.0,14.4,17.9,22.5,33.7,0.0,1.0,0.0,0.0,0.0,0.0,0.0,907.0,4716.0,1467.0,5359.0,322.5,312.6,351.1,341.1,24.72,23.77,25.38,24.76,325.0,325.0,355.0,355.0,99.76,99.7,99.76,99.71,-1.54,-0.51,2.92,4.18,0.4,1.5,-19.5,-11.5,80.5,74.6,78.4,74.5,93.3,86.1,94.1,88.4,89.8,82.8,92.0,86.1,87.3,81.0,91.0,85.1,-20.57,17.66,0.09,0.06,0.0,-4.39,-6.21,-14.56,0.57,356.7,7.7,0.7119691004531026,2.52071198102191,5.401525661425014,10.803051265947653,-3.601016993811932,0,4
321,16.0,449.6,44.05347247633849,-78.6791926214019,-21.4,103.3,-72.6,68.2,2020.8,2021.0,5.8,0.0,1.0,1.0,0.0,1.0,1.0,0.0,0.0,0.0,100.0,1.0,1.186,26.0,0.0,-19.17,74.678,66.0,0.0,26.0,26.0,26.0,26.0,0.0,0.05,0.06,386.7,0.0,-3.27,-2.14,-0.51,-432.19,562.03,4.9,0.0,0.0,0.0,0.0,0.25,-7.49,-7.49,0.69,-2.09,-0.6,-15.37,-1.61,0.21,0.05,16.36,100.0,0.0,0.0,5.12,0.0,0.0,0.0,0.0,0.0,0.0,0.0,0.0,0.0,30.0,1.0,5.8,0.0,0.0,0.0,0.0,0.0,0.0,1.0,0.0,16.031,16.031,74.679,19.926,0.0,110.0,435.8,8750.0,0.0,0.0,110.0,110.0,433.0,0.0,0.0,0.0,1.0,333.3,74.6,74.6,75.9,75.9,34.0,0.55,10.85,0.2,-4.9,1.0,-93.29,-320.0,100.0,13.3,23.1,18.9,37.1,0.0,1.0,0.0,0.0,0.0,0.0,0.0,2251.0,4793.0,2173.0,4647.0,319.5,312.2,349.7,342.8,24.73,23.78,25.38,24.76,325.0,325.0,355.0,355.0,99.76,99.7,99.76,99.71,0.02,-0.21,-1.42,-0.18,-0.3,-0.9,-63.0,2.5,80.5,74.6,78.4,74.5,93.3,86.1,94.0,88.4,89.7,82.8,91.9,86.1,87.2,80.9,91.0,85.1,-20.59,17.61,0.1,0.05,0.0,-5.25,-5.76,-1.64,-8.59,356.7,7.7,0.07810249675906655,2.8808136804031035,5.401525661425014,3.6010169938119363,0.0,0,4
322,16.05,449.7,44.053472116609846,-78.6791919019446,206.1,-34.9,101.1,-194.0,2020.9,2021.0,6.5,0.0,1.0,1.0,0.0,1.0,1.0,0.0,0.0,0.0,100.0,1.0,1.186,26.0,0.0,-19.17,74.678,66.0,0.0,26.0,26.0,26.0,26.0,-0.15,0.62,0.11,385.2,0.54,-4.01,-1.32,-1.26,-432.11,561.99,4.9,0.0,0.0,0.0,0.0,0.25,-7.49,-7.49,0.55,-1.44,-1.41,-13.61,-1.76,0.19,0.04,10.74,100.0,0.0,0.0,2.89,0.0,0.0,0.0,0.0,0.0,0.0,0.0,0.0,0.0,30.0,1.0,6.5,1.0,0.0,0.0,0.0,0.0,0.0,1.0,0.0,16.083,16.083,74.679,19.926,1.0,110.0,435.8,8750.0,0.0,0.0,110.0,110.0,433.0,0.0,0.0,0.0,1.0,166.7,74.6,74.6,75.9,75.9,34.0,-16.77,-3.29,-1.5,0.1,1.0,-93.34,-320.0,100.0,23.6,21.3,23.9,27.4,0.0,1.0,0.0,0.0,0.0,0.0,0.0,5000.0,3000.0,4279.0,2484.0,312.3,316.9,344.3,348.6,24.73,23.78,25.39,24.77,325.0,325.0,355.0,355.0,99.76,99.7,99.76,99.71,-0.3,-0.56,-0.86,-0.38,0.1,-0.4,11.5,13.8,80.6,74.6,78.4,74.5,93.2,86.0,94.0,88.4,89.7,82.7,91.9,86.1,87.2,80.9,91.0,85.0,-20.42,17.63,0.1,0.08,0.0,-4.85,-5.38,-5.2,-0.58,356.7,7.7,0.6473020933072904,2.8808136804031035,5.401525661425014,0.0,-3.6010169938119407,0,4
323,16.1,449.8,44.05347175688121,-78.67919127241949,61.4,-71.1,95.0,-99.6,2021.0,2021.0,5.5,0.0,1.0,1.0,0.0,1.0,1.0,0.0,0.0,0.0,100.0,1.0,1.186,26.0,0.0,-19.17,74.678,66.0,0.0,26.0,26.0,26.0,26.0,-0.06,0.18,0.04,385.9,0.81,-4.24,-1.21,-1.51,-432.04,561.95,4.9,0.0,0.0,0.0,0.0,0.25,-7.49,-7.49,0.65,3.59,-1.67,2.62,-1.51,0.28,-0.01,10.78,100.0,0.0,0.0,6.53,0.0,0.0,0.0,0.0,0.0,0.0,0.0,0.0,0.0,30.0,1.0,5.5,0.0,0.0,0.0,0.0,0.0,0.0,0.0,0.0,16.131,16.131,74.679,19.926,0.0,110.0,435.8,8750.0,0.0,0.0,110.0,110.0,433.0,0.0,0.0,0.0,1.0,333.3,74.6,74.6,75.9,75.9,34.0,-4.48,-2.71,-7.5,12.5,1.0,-93.39,-320.0,100.0,26.7,17.8,28.7,22.4,0.0,1.0,0.0,0.0,0.0,0.0,0.0,4539.0,1957.0,4541.0,2991.0,313.2,319.8,343.5,347.4,24.73,23.78,25.39,24.77,325.0,325.0,355.0,355.0,99.76,99.7,99.76,99.71,-0.16,-0.63,0.06,0.25,-0.4,-0.5,-1.6,3.1,80.6,74.6,78.4,74.6,93.2,86.0,94.0,88.3,89.6,82.7,91.9,86.0,87.1,80.9,90.9,85.0,-20.4,17.68,0.08,0.09,0.0,-3.76,-4.77,-3.27,-9.79,356.7,7.7,0.19390719429665315,2.8808136804031035,5.04142396204382,2.8451185407618595e-07,0.0,0,4
324,16.15,449.8,44.05347139715256,-78.67919064289435,-77.5,-17.1,-23.8,58.4,2021.1,2021.0,6.1,0.0,1.0,1.0,0.0,1.0,1.0,0.0,0.0,0.0,100.0,1.0,1.186,26.0,0.0,-19.17,74.678,66.0,0.0,26.0,26.0,26.0,26.0,-0.18,0.69,-0.04,387.4,0.58,-3.89,-1.54,-1.2,-431.97,561.91,4.9,0.0,0.0,0.0,0.0,0.25,-7.49,-7.49,0.72,0.81,-1.29,5.72,-1.63,0.34,0.0,11.49,100.0,0.0,0.0,3.93,0.0,0.0,0.0,0.0,0.0,0.0,0.0,0.0,0.0,30.0,1.0,6.1,1.0,0.0,0.0,0.0,0.0,0.0,0.0,0.0,16.181,16.181,74.679,19.926,1.0,110.0,435.8,8750.0,0.0,0.0,110.0,110.0,433.0,0.0,0.0,0.0,1.0,333.3,74.6,74.6,75.9,75.9,34.0,-13.4,-19.44,-4.7,0.5,1.0,-93.44,-320.0,100.0,22.8,16.9,27.5,25.4,0.0,1.0,0.0,0.0,0.0,0.0,0.0,3076.0,3136.0,2898.0,3815.0,317.1,316.8,347.7,345.2,24.73,23.78,25.4,24.77,325.0,325.0,355.0,355.0,99.76,99.7,99.76,99.71,-0.42,-1.08,-0.23,-0.16,-0.0,-0.5,6.8,5.2,80.6,74.6,78.5,74.6,93.1,85.9,93.9,88.3,89.6,82.6,91.8,86.0,87.1,80.8,90.9,85.0,-20.46,17.69,0.08,0.08,0.0,-5.17,-5.46,-3.12,-4.74,356.7,7.7,0.7142128534267638,2.880813708854289,5.401525661425014,0.0,3.6010169938119407,0,4
325,16.2,449.9,44.05347103742392,-78.67918992343708,-47.2,6.3,-37.9,58.1,2021.1,2021.0,6.1,0.0,1.0,1.0,0.0,1.0,1.0,0.0,0.0,0.0,100.0,1.0,1.186,26.0,0.0,-19.17,74.678,66.0,0.0,26.0,26.0,26.0,26.0,0.28,-0.34,-0.02,387.8,0.48,-3.75,-1.69,-1.06,-431.89,561.87,4.9,0.0,0.0,0.0,0.0,0.25,-7.49,-7.49,0.78,-0.89,-1.11,2.83,-1.66,0.26,0.02,10.64,100.0,0.0,0.0,3.44,0.0,0.0,0.0,0.0,0.0,0.0,0.0,0.0,0.0,30.0,1.0,6.1,0.0,0.0,0.0,0.0,0.0,0.0,0.0,0.0,16.233,16.233,74.679,19.926,0.0,110.0,435.8,8750.0,0.0,0.0,110.0,110.0,433.0,0.0,0.0,0.0,1.0,166.7,74.6,74.6,75.9,75.9,34.0,19.48,7.72,4.3,22.6,1.0,-93.49,-320.0,100.0,20.5,17.2,25.6,28.3,0.0,1.0,0.0,0.0,0.0,0.0,0.0,2486.0,3385.0,2721.0,3850.0,318.7,316.1,348.0,345.0,24.74,23.79,25.4,24.78,325.0,325.0,355.0,355.0,99.76,99.7,99.76,99.71,0.66,-0.27,0.39,0.26,-0.2,0.2,-0.4,0.2,80.6,74.7,78.5,74.6,93.0,85.9,93.9,88.3,89.5,82.6,91.8,85.9,87.0,80.8,90.8,84.9,-20.49,17.68,0.09,0.07,0.0,-4.83,-5.6,-2.36,-4.51,356.7,7.7,0.4409081537009721,2.8808136804031035,5.401525661425014,-2.8451185407618595e-07,-3.6010169938119407,0,4
