,Time,Distance,GPS Latitude,GPS Longitude,Damper Velocity (Calc) FL,Damper Velocity (Calc) FR,Damper Velocity (Calc) RL,Damper Velocity (Calc) RR,Corr Dist,Corr Dist (Unstretched),Corr Speed,ABS Active,ABS Enabled,AID Allow Tire Blankets,AID Auto Blip,AID Auto Clutch,AID Auto Shift,AID Fuel Rate,AID Ideal Line,AID Mech Damage,AID Stability,AID Tire Wear Rate,Air Density,Air Temp,Ballast,Best Lap Delta,Best Lap Time,Brake Bias,Brake Pos,Brake Temp FL,Brake Temp FR,Brake Temp RL,Brake Temp RR,CG Accel Lateral,CG Accel Longitudinal,CG Accel Vertical,CG Height,Camber FL,Camber FR,Camber RL,Camber RR,Car Coord X,Car Coord Y,Car Coord Z,Car Damage Front,Car Damage Left,Car Damage Rear,Car Damage Right,Car Pos Norm,Caster FL,Caster FR,Chassis Pitch Angle,Chassis Pitch Rate,Chassis Roll Angle,Chassis Roll Rate,Chassis Velocity X,Chassis Velocity Y,Chassis Velocity Z,Chassis Yaw Rate,Clutch Pos,DRS Active,DRS Available,Drive Train Speed,ERS Heat Charging,ERS Is Charging,ERS Max Energy,ERS Power Level,ERS Recovery Level,Engine Brake Setting,Engine Limiter,Engine RPM,Flags,Fuel Level,Gear,Ground Speed,HR Sample Clock,In Pit,KERS Charge,KERS Deployed Energy,KERS Input,KERS Max Energy,LR Sample Clock,Lap Invalidated,Lap Time,Lap Time2,Last Lap Time,Last Sector Time,MR Sample Clock,Max Fuel,Max Power,Max RPM,Max Sus Travel FL,Max Sus Travel FR,Max Sus Travel RL,Max Sus Travel RR,Max Torque,Max Turbo Boost,Num Tires Off Track,Penalties Enabled,Position,Raw Data Sample Rate,Ride Height FL,Ride Height FR,Ride Height RL,Ride Height RR,Road Temp,Self Align Torque FL,Self Align Torque FR,Self Align Torque RL,Self Align Torque RR,Session Lap Count,Session Time Left,Steering Angle,Surface Grip,Suspension Travel FL,Suspension Travel FR,Suspension Travel RL,Suspension Travel RR,TC Active,TC Enabled,Throttle Pos,Tire Dirt Level FL,Tire Dirt Level FR,Tire Dirt Level RL,Tire Dirt Level RR,Tire Load FL,Tire Load FR,Tire Load RL,Tire Load RR,Tire Loaded Radius FL,Tire Loaded Radius FR,Tire Loaded Radius RL,Tire Loaded Radius RR,Tire Pressure FL,Tire Pressure FR,Tire Pressure RL,Tire Pressure RR,Tire Radius FL,Tire Radius FR,Tire Radius RL,Tire Radius RR,Tire Rubber Grip FL,Tire Rubber Grip FR,Tire Rubber Grip RL,Tire Rubber Grip RR,Tire Slip Angle FL,Tire Slip Angle FR,Tire Slip Angle RL,Tire Slip Angle RR,Tire Slip Ratio FL,Tire Slip Ratio FR,Tire Slip Ratio RL,Tire Slip Ratio RR,Tire Temp Core FL,Tire Temp Core FR,Tire Temp Core RL,Tire Temp Core RR,Tire Temp Inner FL,Tire Temp Inner FR,Tire Temp Inner RL,Tire Temp Inner RR,Tire Temp Middle FL,Tire Temp Middle FR,Tire Temp Middle RL,Tire Temp Middle RR,Tire Temp Outer FL,Tire Temp Outer FR,Tire Temp Outer RL,Tire Temp Outer RR,Toe In FL,Toe In FR,Toe In RL,Toe In RR,Turbo Boost,Wheel Angular Speed FL,Wheel Angular Speed FR,Wheel Angular Speed RL,Wheel Angular Speed RR,Wind Direction,Wind Speed,CG Distance,Lateral Velocity,Longitudinal Velocity,Lateral Acceleration,Longitudinal Acceleration,level,curve_number
175,8.7,317.4,44.05352059004441,-78.68013924732428,46.6,-40.6,263.0,249.8,5425.6,5426.0,144.8,0.0,1.0,1.0,0.0,1.0,1.0,0.0,0.0,0.0,100.0,1.0,1.186,26.0,0.0,-0.126,50.194,66.0,0.0,26.0,26.0,26.0,26.0,-0.32,-0.19,0.36,371.6,-2.48,-2.8,-0.76,-2.44,-537.45,567.38,5.5,0.0,0.0,0.0,0.0,0.19,-7.49,-7.49,-0.57,10.88,0.98,-0.38,40.2,-0.05,-0.38,7.38,100.0,0.0,0.0,112.94,0.0,0.0,0.0,0.0,0.0,0.0,0.0,7571.0,0.0,30.0,3.0,144.8,1.0,0.0,0.0,0.0,0.0,0.0,1.0,0.0,8.736,8.736,50.194,17.865,1.0,110.0,435.8,8750.0,0.0,0.0,110.0,110.0,433.0,0.0,0.0,0.0,1.0,333.3,59.7,59.7,64.9,64.9,34.0,-52.2,-4.19,-49.4,22.0,3.0,-193.065,11.4,100.0,34.9,29.9,39.2,33.4,0.0,1.0,0.0,0.0,0.0,0.0,0.0,4994.0,3367.0,6292.0,6142.0,312.2,315.9,339.7,339.0,25.15,23.03,26.09,24.78,325.0,325.0,355.0,355.0,100.0,99.9,100.0,100.0,-0.51,-0.43,-0.41,-0.16,0.0,0.1,-0.4,-0.2,83.2,69.9,82.8,74.6,84.2,75.8,83.2,77.5,80.9,72.5,81.5,75.1,78.4,70.9,80.5,74.1,0.69,-0.65,0.06,0.06,0.0,124.05,123.4,113.06,112.81,174.7,27.6,0.5177837386399847,50.05413780725227,138.99926039952555,3.6010172783237238,43.212204494766695,1,2
176,8.75,319.4,44.05352679536349,-78.68012189041728,-172.7,-133.9,238.5,203.4,5427.6,5428.0,144.4,0.0,1.0,1.0,0.0,1.0,1.0,0.0,0.0,0.0,100.0,1.0,1.186,26.0,0.0,-0.129,50.194,66.0,0.0,26.0,26.0,26.0,26.0,-0.41,-0.17,0.11,372.5,-2.38,-2.2,-1.4,-1.86,-535.52,568.07,5.5,0.0,0.0,0.0,0.0,0.19,-7.49,-7.49,-0.27,1.61,0.92,-0.94,40.11,-0.12,-0.32,7.0,100.0,0.0,0.0,112.51,0.0,0.0,0.0,0.0,0.0,0.0,0.0,7542.0,0.0,30.0,3.0,144.4,0.0,0.0,0.0,0.0,0.0,0.0,1.0,0.0,8.787,8.787,50.194,17.865,0.0,110.0,435.8,8750.0,0.0,0.0,110.0,110.0,433.0,0.0,0.0,0.0,1.0,333.3,71.1,71.1,52.6,52.6,34.0,-36.5,-7.76,-61.1,-2.9,3.0,-193.12,11.3,100.0,26.3,23.2,51.2,43.6,0.0,1.0,0.0,0.0,0.0,0.0,0.0,3657.0,2465.0,6356.0,5555.0,315.7,318.9,339.2,340.9,25.15,23.03,26.1,24.78,325.0,325.0,355.0,355.0,100.0,99.9,100.0,100.0,-0.56,-0.56,-0.43,-0.32,0.0,0.1,-0.5,-0.1,83.2,70.0,82.8,74.6,84.2,75.7,83.2,77.4,80.9,72.4,81.5,75.1,78.3,70.8,80.5,74.1,0.65,-0.66,0.03,0.03,0.0,123.45,122.76,112.62,112.39,174.7,27.6,0.457274534606947,47.89352755406273,135.0381415356253,-32.4091540823548,-43.21220563281429,1,2
177,8.8,321.4,44.05353255102177,-78.68010552276407,6.9,-38.6,-126.2,-78.0,5429.6,5430.0,144.1,0.0,1.0,1.0,0.0,1.0,1.0,0.0,0.0,0.0,100.0,1.0,1.186,26.0,0.0,-0.129,50.194,66.0,0.0,26.0,26.0,26.0,26.0,-0.43,-0.22,0.04,376.1,-2.62,-1.96,-1.55,-1.64,-533.7,568.71,5.5,0.0,0.0,0.0,0.0,0.19,-7.49,-7.49,-0.31,-1.07,0.86,-0.8,40.02,-0.15,-0.4,7.79,100.0,0.0,0.0,112.12,0.0,0.0,0.0,0.0,0.0,0.0,0.0,7516.0,0.0,30.0,3.0,144.1,1.0,0.0,0.0,0.0,0.0,0.0,1.0,0.0,8.834,8.834,50.194,17.865,1.0,110.0,435.8,8750.0,0.0,0.0,110.0,110.0,433.0,0.0,0.0,0.0,1.0,166.7,68.8,68.8,64.7,64.7,34.0,-57.6,-11.22,-48.2,-10.0,3.0,-193.165,10.8,100.0,26.6,21.3,44.9,39.7,0.0,1.0,0.0,0.0,0.0,0.0,0.0,5018.0,3085.0,4904.0,4190.0,312.0,317.3,342.9,344.2,25.15,23.03,26.09,24.78,325.0,325.0,355.0,355.0,100.0,99.9,100.0,100.0,-0.59,-0.56,-0.49,-0.43,-0.0,0.0,-0.6,-0.2,83.2,70.0,82.8,74.6,84.1,75.7,83.2,77.4,80.8,72.4,81.5,75.1,78.3,70.8,80.5,74.0,0.63,-0.64,0.03,0.03,0.0,123.16,122.38,112.26,111.97,174.7,27.6,0.48466483264210536,46.81322239901679,134.67803983624412,-3.6010172783237238,36.01017164519078,1,2
178,8.85,323.4,44.05353848654436,-78.68008825578923,-4.2,-37.8,-81.7,-89.4,5431.6,5432.0,143.8,0.0,1.0,1.0,0.0,1.0,1.0,0.0,0.0,0.0,100.0,1.0,1.186,26.0,0.0,-0.132,50.194,66.0,0.0,26.0,26.0,26.0,26.0,-0.49,-0.17,0.02,379.3,-2.94,-2.67,-1.02,-0.94,-531.78,569.37,5.5,0.0,0.0,0.0,0.0,0.19,-7.49,-7.49,-0.37,-1.96,0.82,0.21,39.92,-0.19,-0.44,7.68,100.0,0.0,0.0,111.7,0.0,0.0,0.0,0.0,0.0,0.0,0.0,7488.0,0.0,30.0,3.0,143.8,0.0,0.0,0.0,0.0,0.0,0.0,0.0,0.0,8.886,8.886,50.194,17.865,0.0,110.0,435.8,8750.0,0.0,0.0,110.0,110.0,433.0,0.0,0.0,0.0,1.0,333.3,70.4,70.4,71.2,71.2,34.0,-61.4,-6.81,-41.5,-18.5,3.0,-193.215,10.3,100.0,26.4,19.4,40.8,35.2,0.0,1.0,0.0,0.0,0.0,0.0,0.0,5036.0,2535.0,4162.0,3984.0,312.2,318.4,343.9,343.9,25.15,23.03,26.09,24.78,325.0,325.0,355.0,355.0,100.0,99.9,100.0,100.0,-0.64,-0.57,-0.59,-0.48,-0.0,-0.0,-0.5,-0.2,83.2,70.0,82.8,74.6,84.1,75.7,83.1,77.4,80.8,72.4,81.4,75.0,78.3,70.8,80.4,74.0,0.6,-0.6,0.06,0.06,0.0,122.73,122.12,111.83,111.57,174.7,27.6,0.5190375708944391,47.533425826230356,138.63915870014438,2.845117563765598e-07,43.21220563281429,1,2
179,8.9,325.4,44.05354442206696,-78.68007089888224,-124.9,-38.1,-59.8,-113.5,5433.6,5434.0,143.4,0.0,1.0,1.0,0.0,1.0,1.0,0.0,0.0,0.0,100.0,1.0,1.186,26.0,0.0,-0.135,50.194,66.0,0.0,26.0,26.0,26.0,26.0,-0.4,-0.21,-0.36,386.6,-2.19,-3.55,-1.82,-2.44,-529.85,570.03,5.5,0.0,0.0,0.0,0.0,0.19,-7.49,-7.49,-0.51,-4.05,0.8,-1.15,39.83,-0.23,-0.48,6.51,100.0,0.0,0.0,111.38,0.0,0.0,0.0,0.0,0.0,0.0,0.0,7466.0,0.0,30.0,3.0,143.4,1.0,0.0,0.0,0.0,0.0,0.0,0.0,0.0,8.937,8.937,50.194,17.865,1.0,110.0,435.8,8750.0,0.0,0.0,110.0,110.0,433.0,0.0,0.0,0.0,1.0,333.3,79.3,79.3,71.8,71.8,34.0,-33.8,-2.44,-52.3,-3.0,3.0,-193.265,10.1,100.0,20.2,17.5,37.8,29.5,0.0,1.0,0.0,0.0,0.0,0.0,0.0,3200.0,1043.0,4607.0,2571.0,316.8,322.2,343.7,348.4,25.15,23.03,26.09,24.78,325.0,325.0,355.0,355.0,100.0,99.9,100.0,100.0,-0.68,-0.7,-0.6,-0.48,-0.0,0.1,-0.6,-0.3,83.2,70.0,82.8,74.6,84.1,75.6,83.1,77.3,80.8,72.3,81.4,75.0,78.2,70.7,80.4,74.0,0.58,-0.61,0.06,0.06,0.0,122.35,121.72,111.38,111.38,174.7,27.6,0.5776677245614472,46.81322242746796,138.99926039952555,-32.40915379784305,-39.611188069978596,1,2
180,8.95,327.4,44.05355017772524,-78.68005354197524,43.7,24.5,-144.4,-42.1,5435.6,5436.0,143.1,0.0,1.0,1.0,0.0,1.0,1.0,0.0,0.0,0.0,100.0,1.0,1.186,26.0,0.0,-0.135,50.194,66.0,0.0,26.0,26.0,26.0,26.0,-0.38,-0.22,-0.3,386.7,-2.88,-2.45,-1.21,-2.1,-527.92,570.67,5.5,0.0,0.0,0.0,0.0,0.19,-7.49,-7.49,-0.75,-3.1,0.83,-2.51,39.73,-0.24,-0.56,7.49,100.0,0.0,0.0,110.94,0.0,0.0,0.0,0.0,0.0,0.0,0.0,7437.0,0.0,30.0,3.0,143.1,0.0,0.0,0.0,0.0,0.0,0.0,0.0,0.0,8.988,8.988,50.194,17.865,0.0,110.0,435.8,8750.0,0.0,0.0,110.0,110.0,433.0,0.0,0.0,0.0,1.0,166.7,73.2,73.2,80.8,80.8,34.0,-40.2,-12.17,-25.2,-6.9,3.0,-193.315,9.3,100.0,22.3,18.7,30.6,27.4,0.0,1.0,0.0,0.0,0.0,0.0,0.0,3522.0,3524.0,2893.0,3116.0,315.8,315.4,348.4,346.4,25.15,23.04,26.09,24.78,325.0,325.0,355.0,355.0,100.0,99.9,100.0,100.0,-0.65,-0.58,-0.63,-0.49,-0.0,-0.0,-1.0,-0.3,83.2,70.0,82.8,74.6,84.0,75.6,83.1,77.3,80.7,72.3,81.3,75.0,78.2,70.7,80.4,73.9,0.55,-0.55,0.09,0.07,0.0,122.06,121.47,111.18,110.71,174.7,27.6,0.5317894320123332,44.29251044644605,134.67803989314652,-21.606102816407144,-7.202033987623793,1,2
181,9.0,329.4,44.05355548372272,-78.68003726425417,-37.0,0.4,-19.6,-144.0,5437.5,5438.0,142.7,0.0,1.0,1.0,0.0,1.0,1.0,0.0,0.0,0.0,100.0,1.0,1.186,26.0,0.0,-0.138,50.194,66.0,0.0,26.0,26.0,26.0,26.0,-0.47,-0.19,-0.2,388.0,-2.27,-3.94,-0.97,-2.16,-526.11,571.26,5.5,0.0,0.0,0.0,0.0,0.19,-7.49,-7.49,-0.82,-1.24,0.56,-4.7,39.64,-0.3,-0.47,6.98,100.0,0.0,0.0,110.98,0.0,0.0,0.0,0.0,0.0,0.0,0.0,7440.0,0.0,30.0,3.0,142.7,1.0,0.0,0.0,0.0,0.0,0.0,0.0,0.0,9.036,9.036,50.194,17.865,1.0,110.0,435.8,8750.0,0.0,0.0,110.0,110.0,433.0,0.0,0.0,0.0,1.0,333.3,76.6,76.6,76.5,76.5,34.0,-43.8,-3.05,-68.9,-7.4,3.0,-193.365,8.1,100.0,20.5,18.7,29.6,20.2,0.0,1.0,0.0,0.0,0.0,0.0,0.0,3953.0,1556.0,5714.0,3397.0,315.1,320.4,341.1,346.1,25.15,23.04,26.09,24.78,325.0,325.0,355.0,355.0,100.0,99.9,100.0,100.0,-0.68,-0.66,-0.75,-0.5,0.0,0.0,-0.5,-0.2,83.2,70.0,82.8,74.6,84.0,75.6,83.0,77.2,80.7,72.3,81.3,74.9,78.2,70.7,80.3,73.9,0.49,-0.5,0.08,0.09,0.0,121.93,121.25,111.09,110.87,174.7,27.6,0.5449770637375485,44.65261214582725,138.27905700076317,-18.005085822595106,-3.6010175628356933,1,2
182,9.05,331.4,44.053561329313155,-78.68001900802557,204.9,98.8,20.6,103.4,5439.5,5440.0,142.3,0.0,1.0,1.0,0.0,1.0,1.0,0.0,0.0,0.0,100.0,1.0,1.186,26.0,0.0,-0.138,50.194,66.0,0.0,26.0,26.0,26.0,26.0,-0.48,-0.21,0.2,381.6,-2.64,-3.75,-1.46,-1.84,-524.08,571.91,5.5,0.0,0.0,0.0,0.0,0.19,-7.49,-7.49,-0.86,2.54,0.44,-3.36,39.53,-0.3,-0.53,7.6,100.0,0.0,0.0,110.62,0.0,0.0,0.0,0.0,0.0,0.0,0.0,7416.0,0.0,30.0,3.0,142.3,0.0,0.0,0.0,0.0,0.0,0.0,0.0,0.0,9.09,9.09,50.194,17.865,0.0,110.0,435.8,8750.0,0.0,0.0,110.0,110.0,433.0,0.0,0.0,0.0,1.0,166.7,63.8,63.8,81.1,81.1,34.0,-72.3,-1.96,-50.6,-8.5,3.0,-193.42,6.2,100.0,30.7,23.7,30.6,25.4,0.0,1.0,0.0,0.0,0.0,0.0,0.0,6075.0,2960.0,4225.0,2589.0,310.1,316.4,344.3,347.9,25.15,23.04,26.09,24.78,325.0,325.0,355.0,355.0,100.0,99.9,100.0,100.0,-0.61,-0.49,-0.75,-0.56,0.0,0.1,-0.7,-0.4,83.2,70.0,82.8,74.6,84.0,75.5,83.0,77.2,80.7,72.2,81.3,74.9,78.1,70.6,80.3,73.8,0.39,-0.38,0.08,0.09,0.0,121.84,121.15,110.84,110.41,174.7,27.6,0.5608029957123981,42.49200186418654,134.31793813686295,-43.21220534830246,-79.22237670898085,1,2
183,9.1,333.4,44.05356609571766,-78.68000371955827,65.8,23.7,111.7,-14.3,5441.5,5441.0,142.0,0.0,1.0,1.0,0.0,1.0,1.0,0.0,0.0,0.0,100.0,1.0,1.186,26.0,0.0,-0.138,50.194,66.0,0.0,26.0,26.0,26.0,26.0,-0.59,-0.2,0.25,377.3,-2.28,-2.89,-1.0,-1.33,-522.38,572.44,5.5,0.0,0.0,0.0,0.0,0.19,-7.49,-7.49,-0.59,7.85,0.47,4.47,39.44,-0.29,-0.42,6.78,100.0,0.0,0.0,110.65,0.0,0.0,0.0,0.0,0.0,0.0,0.0,7418.0,0.0,30.0,3.0,142.0,1.0,0.0,0.0,0.0,0.0,0.0,0.0,0.0,9.134,9.134,50.194,17.865,1.0,110.0,435.8,8750.0,0.0,0.0,110.0,110.0,433.0,0.0,0.0,0.0,1.0,333.3,60.2,60.2,74.6,74.6,34.0,-80.5,-4.04,-69.6,-20.5,3.0,-193.465,3.7,100.0,34.0,24.9,36.2,24.7,0.0,1.0,0.0,0.0,0.0,0.0,0.0,7116.0,3191.0,5472.0,3867.0,307.4,316.3,341.6,345.3,25.15,23.04,26.09,24.78,325.0,325.0,355.0,355.0,100.0,99.9,100.0,100.0,-0.55,-0.44,-0.82,-0.63,-0.0,0.0,-0.5,-0.2,83.2,70.0,82.8,74.6,83.9,75.5,83.0,77.1,80.7,72.2,81.2,74.8,78.1,70.6,80.3,73.8,0.27,-0.24,0.07,0.08,0.0,121.57,120.97,110.83,110.47,174.7,27.6,0.6712674578735365,40.331391610997,130.3568193298651,-3.60101670930014,39.61118863900225,1,2
184,9.15,335.3,44.05357140171514,-78.67998645258344,-177.6,-70.3,177.2,277.1,5443.5,5443.0,141.7,0.0,1.0,1.0,0.0,1.0,1.0,0.0,0.0,0.0,100.0,1.0,1.186,26.0,0.0,-0.138,50.194,66.0,0.0,26.0,26.0,26.0,26.0,-0.4,-0.17,0.08,376.9,-2.67,-2.81,-2.23,-2.43,-520.46,573.03,5.5,0.0,0.0,0.0,0.0,0.2,-7.49,-7.49,-0.23,3.61,0.72,4.06,39.34,-0.23,-0.33,3.33,100.0,0.0,0.0,110.4,0.0,0.0,0.0,0.0,0.0,0.0,0.0,7401.0,0.0,30.0,3.0,141.7,0.0,0.0,0.0,0.0,0.0,0.0,0.0,0.0,9.186,9.186,50.194,17.865,0.0,110.0,435.8,8750.0,0.0,0.0,110.0,110.0,433.0,0.0,0.0,0.0,1.0,333.3,73.9,73.9,61.2,61.2,34.0,-28.2,-0.54,-76.9,-6.6,3.0,-193.515,0.5,100.0,25.1,21.3,45.1,38.5,0.0,1.0,0.0,0.0,0.0,0.0,0.0,3587.0,1136.0,5893.0,5636.0,315.6,321.5,340.4,340.4,25.15,23.04,26.09,24.78,325.0,325.0,355.0,355.0,100.0,99.9,100.0,100.0,-0.3,-0.37,-0.6,-0.45,-0.0,0.1,-0.3,-0.1,83.2,70.0,82.8,74.6,83.9,75.5,82.9,77.1,80.6,72.2,81.2,74.8,78.1,70.6,80.2,73.8,0.06,-0.05,0.06,0.05,0.0,120.84,120.62,110.4,110.4,174.7,27.6,0.4419275958796871,42.13190019325653,138.27905700076317,2.845117563765598e-07,36.01017107616656,1,2
185,9.2,337.3,44.05357661778046,-78.6799691856086,-134.2,-116.3,11.9,90.6,5445.4,5445.0,141.3,0.0,1.0,1.0,0.0,1.0,1.0,0.0,0.0,0.0,100.0,1.0,1.186,26.0,0.0,-0.135,50.194,66.0,1.0,26.0,26.0,26.0,26.0,-0.19,-0.16,0.16,381.1,-1.81,-2.8,-1.69,-1.1,-518.54,573.61,5.5,0.0,0.0,0.0,0.0,0.2,-7.49,-7.49,-0.36,-7.32,0.9,2.66,39.25,-0.14,-0.43,0.46,100.0,0.0,0.0,109.63,0.0,0.0,0.0,0.0,0.0,0.0,0.0,7349.0,0.0,30.0,3.0,141.3,1.0,0.0,0.0,0.0,0.0,0.0,0.0,0.0,9.237,9.237,50.194,17.865,1.0,110.0,435.8,8750.0,0.0,0.0,110.0,110.0,433.0,0.0,0.0,0.0,1.0,166.7,77.7,77.7,65.7,65.7,34.0,-25.2,5.07,-21.9,-1.6,3.0,-193.565,-0.3,100.0,18.4,15.5,45.7,43.0,0.0,1.0,0.0,0.0,0.0,0.0,0.0,4050.0,2824.0,3067.0,3008.0,314.9,317.3,346.7,347.3,25.15,23.04,26.09,24.78,325.0,325.0,355.0,355.0,100.0,99.9,100.0,100.0,-0.26,-0.18,-0.29,-0.21,-0.1,-0.1,-0.4,-0.3,83.2,70.0,82.8,74.6,83.9,75.4,82.9,77.1,80.6,72.1,81.2,74.8,78.0,70.5,80.2,73.7,-0.01,0.01,0.04,0.04,0.0,120.2,120.12,109.63,109.63,174.7,27.6,0.29546573405388316,40.33139163944818,133.95783643748175,-21.606102816407216,-46.81322262662604,1,2
186,9.25,339.2,44.05358147411713,-78.6799529978197,4.5,28.3,-372.1,-305.3,5447.4,5447.0,141.0,0.0,1.0,1.0,0.0,1.0,1.0,0.0,0.0,0.0,100.0,1.0,1.186,26.0,0.0,-0.138,50.194,66.0,3.3,26.0,26.0,26.0,26.0,-0.14,-0.24,-0.37,389.3,-2.98,-1.82,-1.35,-2.62,-516.74,574.15,5.5,0.0,0.0,0.0,0.0,0.2,-7.49,-7.49,-0.66,-4.9,0.98,0.16,39.16,-0.09,-0.48,0.73,100.0,0.0,0.0,109.39,0.0,0.0,0.0,0.0,0.0,0.0,0.0,7333.0,0.0,30.0,3.0,141.0,0.0,0.0,0.0,0.0,0.0,0.0,0.0,0.0,9.284,9.284,50.194,17.865,0.0,110.0,435.8,8750.0,0.0,0.0,110.0,110.0,433.0,0.0,0.0,0.0,1.0,333.3,76.8,76.8,85.1,85.1,34.0,-29.6,2.3,-14.7,12.4,3.0,-193.615,0.4,100.0,18.7,16.9,27.0,27.8,0.0,1.0,0.0,0.0,0.0,0.0,0.0,4176.0,2343.0,2731.0,3038.0,314.9,318.6,348.2,346.2,25.14,23.04,26.09,24.78,325.0,325.0,355.0,355.0,100.0,99.9,100.0,100.0,-0.2,-0.13,-0.24,-0.11,-0.2,-0.1,-0.6,-0.4,83.2,70.0,82.8,74.6,83.8,75.4,82.9,77.0,80.5,72.1,81.1,74.7,78.0,70.5,80.2,73.7,0.02,-0.02,0.1,0.08,0.0,119.85,119.72,109.39,109.39,174.7,27.6,0.46270941205037097,39.971289911615806,133.59773473810057,3.601016709300211,32.40915408235509,1,2
187,9.3,341.2,44.053586600250284,-78.67993582077702,194.4,149.2,-10.9,-31.2,5449.3,5449.0,140.5,0.0,1.0,1.0,0.0,1.0,1.0,0.0,0.0,0.0,100.0,1.0,1.186,26.0,0.0,-0.138,50.194,66.0,11.7,26.0,26.0,26.0,26.0,-0.16,-0.36,0.14,382.9,-3.11,-3.47,-1.98,-1.42,-514.83,574.72,5.5,0.0,0.0,0.0,0.0,0.2,-7.49,-7.49,-0.82,0.09,1.09,3.1,39.0,-0.04,-0.57,1.39,100.0,0.0,0.0,108.79,0.0,0.0,0.0,0.0,0.0,0.0,0.0,7293.0,0.0,30.0,3.0,140.5,1.0,0.0,0.0,0.0,0.0,0.0,0.0,0.0,9.336,9.336,50.194,17.865,1.0,110.0,435.8,8750.0,0.0,0.0,110.0,110.0,433.0,0.0,0.0,0.0,1.0,166.7,62.9,62.9,85.4,85.4,34.0,-45.1,19.86,-15.0,7.3,3.0,-193.665,1.8,100.0,28.4,24.4,26.5,26.2,0.0,1.0,0.0,0.0,0.0,0.0,0.0,5437.0,4523.0,2372.0,3379.0,311.0,312.7,348.6,346.4,25.14,23.04,26.09,24.78,325.0,325.0,355.0,355.0,100.0,99.9,100.0,100.0,-0.23,-0.09,-0.23,-0.05,-0.4,-0.4,-0.8,-0.7,83.1,70.0,82.8,74.6,83.8,75.3,82.8,77.0,80.5,72.0,81.1,74.7,78.0,70.5,80.1,73.7,0.11,-0.1,0.08,0.07,0.0,119.32,119.11,108.79,108.79,174.7,27.6,0.41809089920733744,40.6914933103782,137.19875184571725,-2.845117563765598e-07,32.40915351333115,1,2
188,9.35,343.1,44.05359163645127,-78.67991873366651,-21.2,75.9,11.6,4.1,5451.3,5451.0,139.7,0.0,1.0,1.0,0.0,1.0,1.0,0.0,0.0,0.0,100.0,1.0,1.186,26.0,0.0,-0.135,50.194,66.0,15.2,26.0,26.0,26.0,26.0,-0.17,-0.5,0.25,378.9,-3.17,-3.39,-2.17,-1.08,-512.93,575.28,5.5,0.0,0.0,0.0,0.0,0.2,-7.49,-7.49,-0.68,4.61,1.17,-0.72,38.79,-0.02,-0.48,1.03,100.0,0.0,0.0,108.6,0.0,0.0,0.0,0.0,0.0,0.0,0.0,7280.0,0.0,30.0,3.0,139.7,0.0,0.0,0.0,0.0,0.0,0.0,1.0,0.0,9.387,9.387,50.194,17.865,0.0,110.0,435.8,8750.0,0.0,0.0,110.0,110.0,433.0,0.0,0.0,0.0,1.0,333.3,62.2,62.2,73.8,73.8,34.0,-40.3,18.52,-46.0,17.0,3.0,-193.715,2.9,100.0,27.3,28.2,27.1,26.4,0.0,1.0,0.0,0.0,0.0,0.0,0.0,5140.0,4796.0,5629.0,5597.0,312.3,311.7,341.5,341.0,25.14,23.04,26.09,24.78,325.0,325.0,355.0,355.0,100.0,99.9,100.0,100.0,-0.22,-0.12,-0.23,0.03,-0.6,-0.5,-0.7,-0.6,83.1,70.0,82.8,74.6,83.7,75.3,82.8,76.9,80.5,72.0,81.0,74.7,77.9,70.4,80.1,73.6,0.16,-0.15,0.09,0.08,0.0,118.6,118.42,108.6,108.6,174.7,27.6,0.5842944463196617,39.97128988316463,136.83865008943368,-21.606102531895175,-50.414239620438366,1,2
189,9.4,345.1,44.053596582720104,-78.679901646556,6.3,-67.2,170.5,132.2,5453.2,5453.0,138.9,0.0,1.0,1.0,0.0,1.0,1.0,0.0,0.0,0.0,100.0,1.0,1.186,26.0,0.0,-0.132,50.194,66.0,18.9,26.0,26.0,26.0,26.0,-0.14,-0.54,-0.09,378.5,-2.68,-2.17,-1.25,-1.49,-511.03,575.83,5.5,0.0,0.0,0.0,0.0,0.2,-7.49,-7.49,-0.52,2.43,1.24,3.18,38.56,0.0,-0.46,2.02,100.0,0.0,0.0,107.78,0.0,0.0,0.0,0.0,0.0,0.0,0.0,7225.0,0.0,30.0,3.0,138.9,1.0,0.0,0.0,0.0,0.0,0.0,1.0,0.0,9.438,9.438,50.194,17.865,1.0,110.0,435.8,8750.0,0.0,0.0,110.0,110.0,433.0,0.0,0.0,0.0,1.0,166.7,66.5,66.5,72.4,72.4,34.0,-31.1,4.26,-20.0,18.0,3.0,-193.765,4.1,100.0,27.6,24.8,35.6,33.0,0.0,1.0,0.0,0.0,0.0,0.0,0.0,4459.0,3416.0,4071.0,5490.0,313.6,315.9,344.7,341.9,25.14,23.04,26.09,24.78,325.0,325.0,355.0,355.0,100.0,99.9,100.0,100.0,-0.22,-0.15,-0.17,-0.0,-0.8,-1.0,-0.8,-0.7,83.1,70.0,82.8,74.6,83.7,75.3,82.7,76.9,80.4,72.0,81.0,74.6,77.9,70.4,80.0,73.6,0.23,-0.23,0.08,0.05,0.0,117.6,117.11,107.78,107.78,174.7,27.6,0.5650663677834666,38.53088305718868,132.15732788367342,-18.005085253571593,-57.616273039038504,1,2
190,9.45,347.0,44.053601259192455,-78.67988572856358,3.2,-27.2,-5.3,56.3,5455.1,5455.0,138.0,0.0,1.0,1.0,0.0,1.0,1.0,0.0,0.0,0.0,100.0,1.0,1.186,26.0,0.0,-0.132,50.194,66.0,23.5,26.0,26.0,26.0,26.0,-0.28,-0.58,0.12,378.0,-2.86,-2.51,-1.56,-0.57,-509.26,576.35,5.5,0.0,0.0,0.0,0.0,0.2,-7.49,-7.49,-0.48,-0.02,1.31,3.39,38.31,0.0,-0.49,2.82,100.0,0.0,0.0,106.9,0.0,0.0,0.0,0.0,0.0,0.0,0.0,7166.0,0.0,30.0,3.0,138.0,0.0,0.0,0.0,0.0,0.0,0.0,1.0,0.0,9.486,9.486,50.194,17.865,0.0,110.0,435.8,8750.0,0.0,0.0,110.0,110.0,433.0,0.0,0.0,0.0,1.0,333.3,64.8,64.8,74.7,74.7,34.0,-57.3,2.3,-30.1,1.2,3.0,-193.815,5.9,100.0,27.8,23.5,35.3,35.9,0.0,1.0,0.0,0.0,0.0,0.0,0.0,6562.0,3140.0,4612.0,3867.0,308.9,316.4,343.2,345.8,25.14,23.04,26.09,24.78,325.0,325.0,355.0,355.0,100.0,99.9,100.0,100.0,-0.3,-0.23,-0.22,-0.06,-0.8,-1.3,-0.7,-0.8,83.1,70.0,82.8,74.6,83.7,75.3,82.7,76.9,80.4,72.0,81.0,74.6,77.9,70.4,80.0,73.5,0.33,-0.34,0.07,0.06,0.0,116.91,115.88,106.95,106.85,174.7,27.6,0.655133574166368,38.17078135780747,131.07702278552983,2.845117563765598e-07,18.00508553808328,1,2
191,9.5,348.9,44.05360611552913,-78.67986891124954,-115.0,-61.9,-50.6,-39.2,5457.0,5457.0,136.9,0.0,1.0,1.0,0.0,1.0,1.0,0.0,0.0,0.0,100.0,1.0,1.186,26.0,0.0,-0.132,50.194,66.0,32.4,26.0,26.0,26.0,26.0,-0.22,-0.68,-0.16,384.1,-4.42,-1.67,-1.47,-0.46,-507.39,576.89,5.6,0.0,0.0,0.0,0.0,0.2,-7.49,-7.49,-0.53,-3.16,1.59,4.02,38.0,-0.0,-0.49,3.72,100.0,0.0,0.0,105.76,0.0,0.0,0.0,0.0,0.0,0.0,0.0,7090.0,0.0,30.0,3.0,136.9,1.0,0.0,0.0,0.0,0.0,0.0,1.0,0.0,9.537,9.537,50.194,17.865,1.0,110.0,435.8,8750.0,0.0,0.0,110.0,110.0,433.0,0.0,0.0,0.0,1.0,333.3,74.6,74.6,74.2,74.2,34.0,-19.2,-4.39,-24.1,-1.3,3.0,-193.87,8.2,100.0,22.0,20.4,32.8,33.9,0.0,1.0,0.0,0.0,0.0,0.0,0.0,2774.0,3099.0,3726.0,4140.0,318.6,316.7,345.7,344.3,25.14,23.04,26.08,24.78,325.0,325.0,355.0,355.0,100.0,99.9,100.0,100.0,-0.34,-0.34,-0.29,-0.09,-2.6,-2.0,-1.1,-0.7,83.1,70.0,82.8,74.6,83.6,75.2,82.6,76.8,80.4,71.9,80.9,74.6,77.8,70.4,79.9,73.5,0.46,-0.46,0.08,0.06,0.0,113.49,114.09,105.76,105.76,174.7,27.6,0.7323933369440222,38.53088308563986,133.95783643748175,-18.00508553808335,-21.606103100919256,1,2
192,9.55,350.8,44.05361088193364,-78.67985227379984,-51.5,-3.0,-31.0,-109.2,5458.9,5459.0,135.6,0.0,1.0,1.0,0.0,1.0,1.0,0.0,0.0,0.0,100.0,1.0,1.186,26.0,0.0,-0.132,50.194,66.0,38.5,26.0,26.0,26.0,26.0,-0.32,-0.86,-0.1,385.2,-2.36,-2.19,-2.09,-1.72,-505.54,577.42,5.6,0.0,0.0,0.0,0.0,0.2,-7.49,-7.49,-0.86,-7.42,1.62,-2.02,37.63,-0.01,-0.61,4.13,100.0,0.0,0.0,104.04,0.0,0.0,0.0,0.0,0.0,0.0,0.0,6974.0,0.0,30.0,3.0,135.6,0.0,0.0,0.0,0.0,0.0,0.0,1.0,0.0,9.588,9.588,50.194,17.865,0.0,110.0,435.8,8750.0,0.0,0.0,110.0,110.0,433.0,0.0,0.0,0.0,1.0,166.7,69.6,69.6,79.3,79.3,34.0,-63.3,-7.85,-18.5,3.3,3.0,-193.915,10.9,100.0,19.5,20.2,31.3,28.4,0.0,1.0,0.0,0.0,0.0,0.0,0.0,5938.0,4402.0,2956.0,1703.0,309.8,313.1,347.8,350.1,25.14,23.05,26.08,24.78,325.0,325.0,355.0,355.0,100.0,99.9,100.0,100.0,-0.58,-0.42,-0.24,-0.08,-1.3,-1.7,-1.5,-1.2,83.1,70.0,82.8,74.6,83.6,75.2,82.6,76.8,80.3,71.9,80.9,74.5,77.8,70.3,79.9,73.5,0.61,-0.62,0.08,0.08,0.0,114.74,113.07,104.3,103.77,174.7,27.6,0.9230384607371461,36.370272803999136,128.9164124754379,-32.40915436686677,-61.21729060187391,1,2
193,9.6,352.6,44.05361519867735,-78.67983671553606,126.3,92.6,-194.8,-194.3,5460.8,5461.0,134.1,0.0,1.0,1.0,0.0,1.0,1.0,0.0,0.0,0.0,100.0,1.0,1.186,26.0,0.0,-0.129,50.194,66.0,49.5,26.0,26.0,26.0,26.0,-0.28,-1.02,-0.11,387.0,-2.4,-2.14,-0.3,-1.2,-503.81,577.9,5.6,0.0,0.0,0.0,0.0,0.21,-7.49,-7.49,-1.04,-0.22,1.47,-4.83,37.22,-0.06,-0.65,7.43,100.0,0.0,0.0,102.07,0.0,0.0,0.0,0.0,0.0,0.0,0.0,6843.0,0.0,30.0,3.0,134.1,1.0,0.0,0.0,0.0,0.0,0.0,1.0,0.0,9.636,9.636,50.194,17.865,1.0,110.0,435.8,8750.0,0.0,0.0,110.0,110.0,433.0,0.0,0.0,0.0,1.0,333.3,63.0,63.0,89.7,89.7,34.0,-53.4,-9.36,-7.1,-0.1,3.0,-193.965,12.7,100.0,25.8,24.9,21.5,18.7,0.0,1.0,0.0,0.0,0.0,0.0,0.0,5693.0,5248.0,1886.0,2256.0,310.7,310.6,350.0,349.3,25.14,23.05,26.08,24.78,325.0,325.0,355.0,355.0,100.0,99.9,100.0,100.0,-0.55,-0.41,-0.39,-0.19,-2.0,-2.0,-2.3,-2.7,83.1,70.0,82.8,74.6,83.6,75.2,82.5,76.8,80.3,71.9,80.8,74.5,77.8,70.3,79.9,73.4,0.72,-0.73,0.09,0.09,0.0,112.38,111.74,102.01,102.14,174.7,27.6,1.063437821407533,35.28996764895318,127.83610737729435,-18.00508553808335,-25.20711952570693,1,2
194,9.65,354.5,44.05361969528538,-78.67982034788282,76.6,-28.4,175.4,20.5,5462.6,5463.0,132.2,0.0,1.0,1.0,0.0,1.0,1.0,0.0,0.0,0.0,100.0,1.0,1.186,26.0,0.0,-0.126,50.194,66.0,53.3,26.0,26.0,26.0,26.0,-0.42,-1.08,0.12,383.6,-2.04,-2.79,-0.98,-1.16,-501.99,578.4,5.6,0.0,0.0,0.0,0.0,0.21,-7.49,-7.49,-0.97,1.35,1.28,0.83,36.69,-0.14,-0.61,9.1,100.0,0.0,0.0,101.41,0.0,0.0,0.0,0.0,0.0,0.0,0.0,6798.0,0.0,30.0,3.0,132.2,0.0,0.0,0.0,0.0,0.0,0.0,1.0,0.0,9.687,9.687,50.194,17.865,0.0,110.0,435.8,8750.0,0.0,0.0,110.0,110.0,433.0,0.0,0.0,0.0,1.0,333.3,63.8,63.8,83.0,83.0,34.0,-56.8,-7.43,-24.1,-7.4,3.0,-194.015,13.3,100.0,29.6,23.4,30.3,19.7,0.0,1.0,0.0,0.0,0.0,0.0,0.0,5661.0,3947.0,3025.0,2989.0,310.5,314.4,347.2,347.3,25.14,23.05,26.08,24.78,325.0,325.0,355.0,355.0,100.0,99.9,100.0,100.0,-0.69,-0.58,-0.63,-0.4,-2.2,-3.4,-2.0,-1.4,83.1,70.0,82.8,74.6,83.6,75.2,82.5,76.7,80.3,71.9,80.8,74.4,77.8,70.3,79.8,73.4,0.79,-0.78,0.08,0.09,0.0,110.55,108.77,101.41,101.41,174.7,27.6,1.1649892703368558,34.5697642501908,126.39570052286722,-10.803050981435831,3.6010169938120384,1,2
195,9.7,356.3,44.05362383216477,-78.67980514934769,3.8,28.1,5.3,76.3,5464.4,5464.0,130.4,0.0,1.0,1.0,0.0,1.0,1.0,0.0,0.0,0.0,100.0,1.0,1.186,26.0,0.0,-0.123,50.194,66.0,52.7,26.0,26.0,26.0,26.0,-0.54,-1.02,0.17,381.7,-2.08,-2.28,-1.51,-1.31,-500.3,578.86,5.6,0.0,0.0,0.0,0.0,0.21,-7.49,-7.49,-0.91,1.47,1.21,-1.99,36.19,-0.2,-0.62,9.92,100.0,0.0,0.0,100.07,0.0,0.0,0.0,0.0,0.0,0.0,0.0,6708.0,0.0,30.0,3.0,130.4,1.0,0.0,0.0,0.0,0.0,0.0,1.0,0.0,9.734,9.734,50.194,17.865,1.0,110.0,435.8,8750.0,0.0,0.0,110.0,110.0,433.0,0.0,0.0,0.0,1.0,333.3,61.4,61.4,79.8,79.8,34.0,-70.0,-13.76,-44.2,-5.2,3.0,-194.065,13.1,100.0,29.8,24.8,30.6,23.6,0.0,1.0,0.0,0.0,0.0,0.0,0.0,6406.0,4477.0,3914.0,1597.0,308.6,312.9,344.8,350.6,25.14,23.05,26.08,24.78,325.0,325.0,355.0,355.0,100.0,99.9,100.0,100.0,-0.72,-0.62,-0.74,-0.57,-2.0,-2.8,-1.4,-1.7,83.1,70.0,82.7,74.6,83.6,75.2,82.5,76.7,80.3,71.9,80.8,74.4,77.8,70.3,79.8,73.4,0.77,-0.77,0.08,0.08,0.0,109.48,107.67,100.67,99.48,174.7,27.6,1.1665761869676579,34.2096625508096,128.19620907667556,-18.00508553808342,3.6010169938120384,1,2
196,9.75,358.1,44.05362823884064,-78.67978833203365,44.7,13.8,4.6,-20.0,5466.2,5466.0,128.4,0.0,1.0,1.0,0.0,1.0,1.0,0.0,0.0,0.0,100.0,1.0,1.186,26.0,0.0,-0.12,50.194,66.0,48.9,26.0,26.0,26.0,26.0,-0.57,-0.99,0.18,380.2,-2.29,-3.49,-1.74,-1.38,-498.43,579.35,5.6,0.0,0.0,0.0,0.0,0.21,-7.49,-7.49,-0.77,4.2,1.26,0.74,35.64,-0.26,-0.58,11.24,100.0,0.0,0.0,98.9,0.0,0.0,0.0,0.0,0.0,0.0,0.0,6630.0,0.0,30.0,3.0,128.4,0.0,0.0,0.0,0.0,0.0,0.0,1.0,0.0,9.789,9.789,50.194,17.865,0.0,110.0,435.8,8750.0,0.0,0.0,110.0,110.0,433.0,0.0,0.0,0.0,1.0,166.7,60.4,60.4,78.6,78.6,34.0,-62.0,-11.14,-50.1,-22.6,3.0,-194.12,12.3,100.0,32.0,25.5,30.8,22.6,0.0,1.0,0.0,0.0,0.0,0.0,0.0,5479.0,5022.0,4068.0,4022.0,310.9,311.4,345.2,345.2,25.14,23.05,26.08,24.78,325.0,325.0,355.0,355.0,100.0,99.9,100.0,100.0,-0.75,-0.63,-0.95,-0.71,-1.8,-2.1,-1.8,-1.3,83.1,70.1,82.7,74.6,83.6,75.2,82.5,76.6,80.3,71.9,80.7,74.4,77.8,70.3,79.8,73.3,0.72,-0.72,0.09,0.09,0.0,107.68,106.93,99.06,98.74,174.7,27.6,1.1564601160437828,32.76925569638246,126.75580222224842,-46.813222626626114,-100.82847924087645,1,2
170,8.45,318.7,44.05351744241879,-78.68012054143487,-75.4,-73.9,255.7,180.5,7148.8,7149.0,153.2,0.0,1.0,1.0,0.0,1.0,1.0,0.0,0.0,0.0,100.0,1.0,1.186,26.0,0.0,-0.318,48.272,66.0,0.0,26.0,26.0,26.0,26.0,-0.48,0.39,0.28,371.1,-1.75,-3.06,-1.07,-2.98,-535.37,567.03,5.5,0.0,0.0,0.0,0.0,0.19,-7.49,-7.49,-0.21,3.28,0.76,2.95,42.57,-0.27,-0.26,7.3,100.0,0.0,0.0,121.33,0.0,0.0,0.0,0.0,0.0,0.0,0.0,8133.0,0.0,30.0,3.0,153.2,1.0,0.0,0.0,0.0,0.0,0.0,1.0,0.0,8.463,8.463,48.272,17.725,1.0,110.0,435.8,8750.0,0.0,0.0,110.0,110.0,433.0,0.0,0.0,0.0,1.0,333.3,69.5,69.5,52.6,52.6,34.0,-38.2,-4.94,-79.8,-9.4,4.0,-241.065,5.5,100.0,28.0,20.8,51.6,41.3,0.0,1.0,86.7,0.0,0.0,0.0,0.0,4122.0,3193.0,6973.0,6303.0,314.2,316.4,338.2,338.2,25.35,22.85,26.47,24.82,325.0,325.0,355.0,355.0,99.98,100.0,99.98,100.0,-0.52,-0.49,-0.67,-0.58,-0.0,-0.1,1.1,1.7,84.5,68.8,85.2,74.9,85.5,74.8,86.0,78.2,82.4,71.5,84.4,75.9,79.8,70.0,83.4,74.9,0.35,-0.35,0.02,0.03,0.0,130.99,130.31,121.33,121.33,174.7,27.6,0.6788961628997472,50.77434123446583,142.9603792065234,3.6010169938120384,57.616273608061874,1,2
171,8.5,320.8,44.05352391753435,-78.68010210534196,-71.6,41.4,-51.0,-21.7,7150.9,7151.0,153.8,0.0,1.0,1.0,0.0,1.0,1.0,0.0,0.0,0.0,100.0,1.0,1.186,26.0,0.0,-0.321,48.272,66.0,0.0,26.0,26.0,26.0,26.0,-0.38,0.37,0.12,375.0,-2.11,-2.48,-1.25,-2.22,-533.32,567.75,5.5,0.0,0.0,0.0,0.0,0.19,-7.49,-7.49,-0.12,1.65,0.72,-2.82,42.74,-0.28,-0.3,5.14,100.0,0.0,0.0,122.26,0.0,0.0,0.0,0.0,0.0,0.0,0.0,8196.0,0.0,30.0,3.0,153.8,0.0,0.0,0.0,0.0,0.0,0.0,1.0,0.0,8.514,8.514,48.272,17.725,0.0,110.0,435.8,8750.0,0.0,0.0,110.0,110.0,433.0,0.0,0.0,0.0,1.0,166.7,71.2,71.2,52.9,52.9,34.0,-28.5,-3.64,-60.5,-6.6,4.0,-241.115,3.5,100.0,24.4,22.8,49.0,40.2,0.0,1.0,87.9,0.0,0.0,0.0,0.0,3461.0,2768.0,6148.0,4346.0,316.0,316.3,339.8,343.9,25.35,22.85,26.47,24.82,325.0,325.0,355.0,355.0,99.98,100.0,99.98,100.0,-0.41,-0.39,-0.57,-0.48,-0.1,-0.1,1.6,1.9,84.4,68.8,85.2,74.9,85.5,74.7,86.0,78.2,82.4,71.5,84.4,75.9,79.8,70.0,83.4,74.9,0.22,-0.2,0.05,0.05,0.0,131.31,130.87,122.26,122.26,174.7,27.6,0.543783044972901,51.85464636106061,148.00180316856725,-7.20203427213562,18.005085538083563,1,2
172,8.55,323.0,44.05353039264991,-78.68008357931687,-8.9,-244.0,-81.1,20.7,7153.1,7153.0,154.5,0.0,1.0,1.0,0.0,1.0,1.0,0.0,0.0,0.0,100.0,1.0,1.186,26.0,0.0,-0.324,48.272,66.0,0.0,26.0,26.0,26.0,26.0,-0.38,0.33,0.09,379.7,-1.05,-3.21,-1.16,-1.67,-531.26,568.47,5.5,0.0,0.0,0.0,0.0,0.19,-7.49,-7.49,-0.18,-3.65,0.81,6.14,42.92,-0.25,-0.33,3.45,100.0,0.0,0.0,122.41,0.0,0.0,0.0,0.0,0.0,0.0,0.0,8206.0,0.0,30.0,3.0,154.5,1.0,0.0,0.0,0.0,0.0,0.0,1.0,0.0,8.564,8.564,48.272,17.725,1.0,110.0,435.8,8750.0,0.0,0.0,110.0,110.0,433.0,0.0,0.0,0.0,1.0,333.3,78.5,78.5,70.7,70.7,34.0,-37.2,-0.68,-44.6,-12.9,4.0,-241.165,3.2,100.0,24.0,10.6,45.0,41.2,0.0,1.0,87.5,0.0,0.0,0.0,0.0,4596.0,1271.0,4831.0,5373.0,312.8,322.0,342.6,341.2,25.35,22.85,26.47,24.83,325.0,325.0,355.0,355.0,99.98,100.0,99.98,100.0,-0.48,-0.43,-0.56,-0.45,-0.1,-0.2,1.4,1.7,84.4,68.8,85.2,74.9,85.4,74.7,85.9,78.2,82.3,71.4,84.4,75.9,79.8,69.9,83.4,74.9,0.18,-0.2,0.05,0.04,0.0,131.7,131.26,122.41,122.41,174.7,27.6,0.5112729212465686,50.05413780725227,144.76088776033177,-21.60610253189546,-25.207120094730726,1,2
173,8.6,325.1,44.05353641810467,-78.6800659526134,-82.4,39.1,-135.7,-222.5,7155.2,7155.0,155.0,0.0,1.0,1.0,0.0,1.0,1.0,0.0,0.0,0.0,100.0,1.0,1.186,26.0,0.0,-0.327,48.272,66.0,0.0,26.0,26.0,26.0,26.0,-0.26,0.32,-0.39,388.3,-2.33,-2.83,-0.84,-1.24,-529.3,569.14,5.5,0.0,0.0,0.0,0.0,0.19,-7.49,-7.49,-0.4,-4.3,1.1,9.47,43.07,-0.22,-0.4,3.4,100.0,0.0,0.0,123.8,0.0,0.0,0.0,0.0,0.0,0.0,0.0,8299.0,0.0,30.0,3.0,155.0,0.0,0.0,0.0,0.0,0.0,0.0,0.0,0.0,8.613,8.613,48.272,17.725,0.0,110.0,435.8,8750.0,0.0,0.0,110.0,110.0,433.0,0.0,0.0,0.0,1.0,166.7,82.7,82.7,71.6,71.6,34.0,-10.4,-1.36,-29.8,-6.6,4.0,-241.21,2.4,100.0,19.8,12.6,38.2,30.1,0.0,1.0,87.5,0.0,0.0,0.0,0.0,1530.0,2173.0,4179.0,2824.0,321.0,319.6,344.8,348.0,25.35,22.85,26.47,24.83,325.0,325.0,355.0,355.0,99.98,100.0,99.98,100.0,-0.4,-0.39,-0.56,-0.46,-0.0,-0.1,2.2,2.4,84.4,68.8,85.2,74.9,85.4,74.6,85.9,78.1,82.3,71.4,84.3,75.9,79.7,69.9,83.3,74.8,0.16,-0.16,0.06,0.08,0.0,131.95,131.73,123.8,123.8,174.7,27.6,0.5675385449465085,49.694036107871064,145.48109115909418,10.803051265947587,54.01525718327434,1,2
174,8.65,327.3,44.053542803288074,-78.680047246724,-16.0,154.9,-118.1,-4.2,7157.4,7157.0,155.6,0.0,1.0,1.0,0.0,1.0,1.0,0.0,0.0,0.0,100.0,1.0,1.186,26.0,0.0,-0.333,48.272,66.0,0.0,26.0,26.0,26.0,26.0,-0.26,0.29,-0.04,385.6,-3.7,-2.44,-2.28,-1.24,-527.22,569.85,5.5,0.0,0.0,0.0,0.0,0.19,-7.49,-7.49,-0.55,-1.03,1.43,-0.34,43.24,-0.2,-0.45,2.9,100.0,0.0,0.0,123.94,0.0,0.0,0.0,0.0,0.0,0.0,0.0,8309.0,0.0,30.0,3.0,155.6,1.0,0.0,0.0,0.0,0.0,0.0,0.0,0.0,8.664,8.664,48.272,17.725,1.0,110.0,435.8,8750.0,0.0,0.0,110.0,110.0,433.0,0.0,0.0,0.0,1.0,333.3,74.6,74.6,73.0,73.0,34.0,-22.4,0.61,-26.0,-4.3,4.0,-241.265,2.3,100.0,19.0,20.3,32.3,29.9,0.0,1.0,80.5,0.0,0.0,0.0,0.0,2570.0,4011.0,3202.0,3767.0,318.3,313.5,347.4,344.8,25.35,22.85,26.47,24.83,325.0,325.0,355.0,355.0,99.98,100.0,99.98,100.0,-0.34,-0.27,-0.45,-0.3,-0.1,-0.0,1.9,2.1,84.4,68.8,85.2,74.9,85.3,74.6,85.9,78.1,82.2,71.4,84.3,75.8,79.7,69.8,83.3,74.8,0.15,-0.13,0.08,0.06,0.0,132.63,132.52,123.94,123.94,174.7,27.6,0.39153543900903787,51.134442933847026,150.1624134786592,-3.6010172783237238,10.80305211948314,1,2
175,8.7,329.4,44.05354918847147,-78.68002845090243,-37.3,-5.6,53.3,3.0,7159.6,7160.0,156.2,0.0,1.0,1.0,0.0,1.0,1.0,0.0,0.0,0.0,100.0,1.0,1.186,26.0,0.0,-0.336,48.272,66.0,0.0,26.0,26.0,26.0,26.0,-0.27,0.28,0.16,383.0,-3.0,-2.67,-1.79,-1.44,-525.13,570.56,5.5,0.0,0.0,0.0,0.0,0.19,-7.49,-7.49,-0.57,-0.53,1.06,-10.2,43.4,-0.18,-0.38,2.14,100.0,0.0,0.0,123.43,0.0,0.0,0.0,0.0,0.0,0.0,0.0,8274.0,0.0,30.0,3.0,156.2,0.0,0.0,0.0,0.0,0.0,0.0,0.0,0.0,8.714,8.714,48.272,17.725,0.0,110.0,435.8,8750.0,0.0,0.0,110.0,110.0,433.0,0.0,0.0,0.0,1.0,333.3,75.3,75.3,67.7,67.7,34.0,-37.8,2.81,-43.0,5.0,4.0,-241.315,2.3,100.0,17.2,20.1,34.9,30.0,0.0,1.0,58.6,0.0,0.0,0.0,0.0,4482.0,2542.0,5232.0,4616.0,313.7,317.1,341.4,343.1,25.35,22.85,26.47,24.83,325.0,325.0,355.0,355.0,99.98,100.0,99.98,100.0,-0.29,-0.23,-0.34,-0.14,-0.1,-0.0,1.4,1.4,84.4,68.8,85.2,74.9,85.3,74.5,85.8,78.1,82.2,71.3,84.3,75.8,79.6,69.8,83.3,74.8,0.14,-0.14,0.07,0.07,0.0,133.3,133.02,123.42,123.42,174.7,27.6,0.4205948168962618,49.33393438003869,146.5613963710425,-25.207119525707213,-28.808137657567272,1,2
176,8.75,331.6,44.05355512399407,-78.68001064433463,169.3,10.1,8.0,-28.7,7161.7,7162.0,156.5,0.0,1.0,1.0,0.0,1.0,1.0,0.0,0.0,0.0,100.0,1.0,1.186,26.0,0.0,-0.339,48.272,66.0,0.0,26.0,26.0,26.0,26.0,-0.25,0.08,-0.07,380.5,-2.84,-3.45,-1.81,-2.09,-523.15,571.22,5.5,0.0,0.0,0.0,0.0,0.19,-7.49,-7.49,-0.55,2.71,0.77,-2.74,43.48,-0.15,-0.39,2.68,100.0,0.0,0.0,123.15,0.0,0.0,0.0,0.0,0.0,0.0,0.0,8255.0,0.0,30.0,3.0,156.5,1.0,0.0,0.0,0.0,0.0,0.0,0.0,0.0,8.763,8.763,48.272,17.725,1.0,110.0,435.8,8750.0,0.0,0.0,110.0,110.0,433.0,0.0,0.0,0.0,1.0,166.7,66.4,66.4,76.7,76.7,34.0,-60.6,9.44,-31.2,9.1,4.0,-241.36,2.0,100.0,25.6,20.6,35.3,28.6,0.0,1.0,19.0,0.0,0.0,0.0,0.0,6762.0,3383.0,4225.0,4188.0,308.1,315.6,345.3,344.8,25.35,22.85,26.47,24.83,325.0,325.0,355.0,355.0,99.98,100.0,99.98,100.0,-0.29,-0.19,-0.3,-0.16,-0.1,-0.0,0.8,0.9,84.4,68.8,85.2,74.9,85.2,74.5,85.8,78.1,82.1,71.3,84.2,75.8,79.6,69.8,83.2,74.8,0.14,-0.12,0.06,0.07,0.0,133.62,133.34,123.15,123.15,174.7,27.6,0.2716615541441225,48.613730981276305,147.28159971290248,3.6010172783237238,50.41423905141443,1,2
177,8.8,333.8,44.053561329313155,-78.67999166864875,122.2,37.3,125.8,142.5,7163.9,7164.0,156.3,0.0,1.0,1.0,0.0,1.0,1.0,0.0,0.0,0.0,100.0,1.0,1.186,26.0,0.0,-0.348,48.272,66.0,0.0,26.0,26.0,26.0,26.0,-0.27,-0.23,0.24,375.3,-3.16,-2.82,-1.46,-1.86,-521.04,571.91,5.5,0.0,0.0,0.0,0.0,0.2,-7.49,-7.49,-0.36,3.52,0.96,8.63,43.42,-0.1,-0.38,2.5,100.0,0.0,0.0,121.63,0.0,0.0,0.0,0.0,0.0,0.0,0.0,8154.0,0.0,30.0,3.0,156.3,0.0,0.0,0.0,0.0,0.0,0.0,0.0,0.0,8.814,8.814,48.272,17.725,0.0,110.0,435.8,8750.0,0.0,0.0,110.0,110.0,433.0,0.0,0.0,0.0,1.0,333.3,65.2,65.2,66.5,66.5,34.0,-28.3,7.37,-37.9,6.0,4.0,-241.415,2.0,100.0,31.8,22.4,41.6,35.7,0.0,1.0,0.0,0.0,0.0,0.0,0.0,3582.0,4157.0,4607.0,5313.0,315.0,313.7,343.4,341.4,25.35,22.85,26.47,24.83,325.0,325.0,355.0,355.0,99.98,100.0,99.98,100.0,-0.23,-0.2,-0.36,-0.21,0.0,-0.0,-0.5,-0.3,84.4,68.8,85.2,74.9,85.2,74.5,85.8,78.0,82.1,71.3,84.2,75.8,79.5,69.7,83.2,74.7,0.14,-0.12,0.05,0.05,0.0,133.37,133.3,121.64,121.64,174.7,27.6,0.4282522621072771,49.694036107871064,151.60282027618393,-7.202034272135762,-7.202033987623508,1,2
178,8.85,336.0,44.053567534632236,-78.67997278289502,-240.5,-32.6,68.9,62.0,7166.1,7166.0,156.0,0.0,1.0,1.0,0.0,1.0,1.0,0.0,0.0,0.0,100.0,1.0,1.186,26.0,0.0,-0.354,48.272,66.0,0.0,26.0,26.0,26.0,26.0,-0.21,-0.2,0.17,377.0,-2.65,-2.65,-2.61,-1.57,-518.94,572.6,5.5,0.0,0.0,0.0,0.0,0.2,-7.49,-7.49,-0.36,-3.8,1.23,4.73,43.31,-0.04,-0.41,0.81,100.0,0.0,0.0,121.18,0.0,0.0,0.0,0.0,0.0,0.0,0.0,8123.0,0.0,30.0,3.0,156.0,1.0,0.0,0.0,0.0,0.0,0.0,0.0,0.0,8.866,8.866,48.272,17.725,1.0,110.0,435.8,8750.0,0.0,0.0,110.0,110.0,433.0,0.0,0.0,0.0,1.0,166.7,73.5,73.5,56.7,56.7,34.0,-27.0,7.41,-52.5,14.4,4.0,-241.465,1.8,100.0,19.7,20.8,45.1,38.8,0.0,1.0,0.0,0.0,0.0,0.0,0.0,3844.0,3761.0,5835.0,5386.0,315.0,315.1,340.6,341.1,25.35,22.86,26.47,24.83,325.0,325.0,355.0,355.0,99.98,100.0,99.98,100.0,-0.22,-0.16,-0.2,-0.07,-0.1,0.0,-0.4,-0.3,84.4,68.8,85.2,74.9,85.1,74.4,85.7,78.0,82.0,71.2,84.2,75.7,79.5,69.7,83.1,74.7,0.1,-0.11,0.05,0.04,0.0,132.85,132.68,121.18,121.18,174.7,27.6,0.33615472627943227,47.89352755406273,146.56139631414013,-7.202034272135549,-7.2020345566474475,1,2
179,8.9,338.1,44.053573290290515,-78.6799550662594,14.4,30.6,-266.8,-70.0,7168.2,7168.0,155.6,0.0,1.0,1.0,0.0,1.0,1.0,0.0,0.0,0.0,100.0,1.0,1.186,26.0,0.0,-0.357,48.272,66.0,0.0,26.0,26.0,26.0,26.0,-0.06,-0.2,-0.28,384.2,-1.93,-2.59,-2.01,-2.65,-516.97,573.24,5.5,0.0,0.0,0.0,0.0,0.2,-7.49,-7.49,-0.57,-3.47,1.23,-4.79,43.22,-0.03,-0.55,1.31,100.0,0.0,0.0,120.65,0.0,0.0,0.0,0.0,0.0,0.0,0.0,8088.0,0.0,30.0,3.0,155.6,0.0,0.0,0.0,0.0,0.0,0.0,0.0,0.0,8.913,8.913,48.272,17.725,0.0,110.0,435.8,8750.0,0.0,0.0,110.0,110.0,433.0,0.0,0.0,0.0,1.0,333.3,71.7,71.7,77.5,77.5,34.0,-14.1,13.59,-6.5,18.4,4.0,-241.515,2.3,100.0,20.4,22.3,31.7,35.3,0.0,1.0,0.0,0.0,0.0,0.0,0.0,3261.0,4073.0,1597.0,3441.0,316.5,313.4,350.8,345.9,25.34,22.86,26.47,24.83,325.0,325.0,355.0,355.0,99.98,100.0,99.98,100.0,-0.11,-0.06,-0.07,-0.01,-0.0,-0.0,-0.7,-0.6,84.4,68.9,85.2,74.9,85.1,74.4,85.7,78.0,82.0,71.2,84.1,75.7,79.4,69.7,83.1,74.6,0.12,-0.13,0.09,0.06,0.0,132.52,132.41,120.65,120.65,174.7,27.6,0.3492849839314596,48.97383268065751,150.8826168205192,7.202033987623935,43.21220563281429,1,2
180,8.95,340.3,44.05357976540608,-78.67993510131974,173.8,-8.3,-17.0,-118.4,7170.4,7170.0,155.2,0.0,1.0,1.0,0.0,1.0,1.0,0.0,0.0,0.0,100.0,1.0,1.186,26.0,0.0,-0.36,48.272,66.0,0.0,26.0,26.0,26.0,26.0,-0.17,-0.23,0.14,381.3,-2.8,-2.4,-1.68,-1.96,-514.75,573.96,5.5,0.0,0.0,0.0,0.0,0.2,-7.49,-7.49,-0.72,-0.92,1.04,0.96,43.1,-0.02,-0.6,1.93,100.0,0.0,0.0,120.43,0.0,0.0,0.0,0.0,0.0,0.0,0.0,8073.0,0.0,30.0,3.0,155.2,1.0,0.0,0.0,0.0,0.0,0.0,0.0,0.0,8.967,8.967,48.272,17.725,1.0,110.0,435.8,8750.0,0.0,0.0,110.0,110.0,433.0,0.0,0.0,0.0,1.0,166.7,63.2,63.2,83.2,83.2,34.0,-53.1,9.6,-16.2,11.3,4.0,-241.565,3.2,100.0,29.1,21.9,30.9,29.4,0.0,1.0,0.0,0.0,0.0,0.0,0.0,6388.0,3822.0,2967.0,2908.0,308.9,313.6,347.3,347.3,25.34,22.86,26.47,24.83,325.0,325.0,355.0,355.0,99.98,100.0,99.98,100.0,-0.25,-0.1,-0.16,0.0,0.0,-0.0,-0.6,-0.4,84.4,68.9,85.2,74.9,85.0,74.3,85.6,77.9,81.9,71.1,84.0,75.6,79.4,69.6,83.0,74.6,0.19,-0.18,0.08,0.08,0.0,132.43,132.17,120.43,120.43,174.7,27.6,0.31843366656181316,48.61373095282512,150.88261687742155,-36.01017107616691,-93.62644411520506,1,2
181,9.0,342.4,44.05358543113219,-78.6799173846841,-30.1,39.0,-41.1,-26.6,7172.5,7173.0,154.8,0.0,1.0,1.0,0.0,1.0,1.0,0.0,0.0,0.0,100.0,1.0,1.186,26.0,0.0,-0.369,48.272,66.0,0.0,26.0,26.0,26.0,26.0,-0.21,-0.27,0.15,379.8,-2.41,-3.32,-1.92,-1.68,-512.78,574.59,5.5,0.0,0.0,0.0,0.0,0.2,-7.49,-7.49,-0.63,3.98,1.17,1.94,42.99,-0.04,-0.5,2.51,100.0,0.0,0.0,120.47,0.0,0.0,0.0,0.0,0.0,0.0,0.0,8076.0,0.0,30.0,3.0,154.8,0.0,0.0,0.0,0.0,0.0,0.0,0.0,0.0,9.014,9.014,48.272,17.725,0.0,110.0,435.8,8750.0,0.0,0.0,110.0,110.0,433.0,0.0,0.0,0.0,1.0,333.3,64.2,64.2,75.3,75.3,34.0,-43.9,11.66,-52.6,11.1,4.0,-241.615,4.3,100.0,27.6,23.9,28.8,28.1,0.0,1.0,0.0,0.0,0.0,0.0,0.0,5598.0,4197.0,6133.0,4071.0,310.6,313.4,340.4,344.6,25.34,22.86,26.47,24.83,325.0,325.0,355.0,355.0,99.98,100.0,99.98,100.0,-0.27,-0.19,-0.28,-0.06,-0.0,-0.0,-0.5,-0.4,84.4,68.9,85.2,74.9,85.0,74.3,85.6,77.9,81.9,71.1,84.0,75.6,79.3,69.6,83.0,74.6,0.24,-0.23,0.08,0.07,0.0,132.24,131.98,120.47,120.47,174.7,27.6,0.37349698793966196,45.37281557304082,141.51997240899868,-7.202033987623935,-7.202034556647732,1,2
182,9.05,344.6,44.05359109685831,-78.67989975798062,-30.7,35.5,157.9,122.4,7174.7,7175.0,154.4,0.0,1.0,1.0,0.0,1.0,1.0,0.0,0.0,0.0,100.0,1.0,1.186,26.0,0.0,-0.375,48.272,66.0,0.0,26.0,26.0,26.0,26.0,-0.08,-0.25,-0.05,379.2,-2.17,-2.71,-1.08,-2.3,-510.82,575.22,5.5,0.0,0.0,0.0,0.0,0.2,-7.49,-7.49,-0.46,3.29,1.28,-0.16,42.89,-0.03,-0.45,2.87,100.0,0.0,0.0,120.17,0.0,0.0,0.0,0.0,0.0,0.0,0.0,8056.0,0.0,30.0,3.0,154.4,1.0,0.0,0.0,0.0,0.0,0.0,0.0,0.0,9.063,9.063,48.272,17.725,1.0,110.0,435.8,8750.0,0.0,0.0,110.0,110.0,433.0,0.0,0.0,0.0,1.0,333.3,68.5,68.5,68.7,68.7,34.0,-23.1,3.77,-19.8,20.2,4.0,-241.665,5.3,100.0,26.1,25.7,36.7,34.2,0.0,1.0,0.0,0.0,0.0,0.0,0.0,3438.0,3431.0,4202.0,4620.0,316.8,315.4,345.2,342.8,25.34,22.86,26.47,24.83,325.0,325.0,355.0,355.0,99.98,100.0,99.98,100.0,-0.3,-0.23,-0.18,-0.06,0.0,0.0,-0.6,-0.4,84.4,68.9,85.2,74.9,85.0,74.3,85.5,77.8,81.8,71.1,83.9,75.5,79.3,69.6,82.9,74.5,0.31,-0.29,0.07,0.06,0.0,131.77,131.6,120.17,120.17,174.7,27.6,0.2672077843177478,47.89352755406273,150.16241342175678,18.00508553808342,82.82339313376895,1,2
183,9.1,346.7,44.05359739210955,-78.67987988297314,97.7,-8.6,51.5,84.6,7176.8,7177.0,154.0,0.0,1.0,1.0,0.0,1.0,1.0,0.0,0.0,0.0,100.0,1.0,1.186,26.0,0.0,-0.378,48.272,66.0,0.0,26.0,26.0,26.0,26.0,-0.26,-0.22,0.35,374.9,-1.92,-1.84,-1.85,-1.71,-508.61,575.92,5.5,0.0,0.0,0.0,0.0,0.2,-7.49,-7.49,-0.32,2.73,1.26,0.67,42.77,-0.05,-0.46,4.25,100.0,0.0,0.0,119.85,0.0,0.0,0.0,0.0,0.0,0.0,0.0,8034.0,0.0,30.0,3.0,154.0,0.0,0.0,0.0,0.0,0.0,0.0,1.0,0.0,9.117,9.117,48.272,17.725,0.0,110.0,435.8,8750.0,0.0,0.0,110.0,110.0,433.0,0.0,0.0,0.0,1.0,166.7,64.3,64.3,68.2,68.2,34.0,-36.2,-1.32,-45.0,9.5,4.0,-241.715,5.8,100.0,31.0,25.2,39.3,38.4,0.0,1.0,0.0,0.0,0.0,0.0,0.0,4885.0,2786.0,5428.0,4768.0,312.3,316.6,341.8,342.3,25.34,22.86,26.47,24.83,325.0,325.0,355.0,355.0,99.98,100.0,99.98,100.0,-0.31,-0.25,-0.29,-0.13,0.0,0.0,-0.5,-0.2,84.4,68.9,85.2,74.9,84.9,74.2,85.5,77.8,81.8,71.1,83.9,75.5,79.3,69.5,82.9,74.5,0.35,-0.33,0.06,0.06,0.0,131.48,131.16,119.85,119.85,174.7,27.6,0.4883646178829912,47.17332412684916,149.80231172237558,-39.61118835449042,-93.62644468422872,1,2
184,9.15,348.8,44.05360287797135,-78.67986234620182,-282.3,-193.6,51.2,-19.4,7179.0,7179.0,153.7,0.0,1.0,1.0,0.0,1.0,1.0,0.0,0.0,0.0,100.0,1.0,1.186,26.0,0.0,-0.381,48.272,66.0,0.1,26.0,26.0,26.0,26.0,-0.28,-0.18,-0.2,382.5,-2.12,-1.27,-1.75,-0.89,-506.66,576.53,5.5,0.0,0.0,0.0,0.0,0.2,-7.49,-7.49,-0.34,-4.85,1.32,1.53,42.68,-0.09,-0.4,3.26,100.0,0.0,0.0,119.4,0.0,0.0,0.0,0.0,0.0,0.0,0.0,8004.0,0.0,30.0,3.0,153.7,1.0,0.0,0.0,0.0,0.0,0.0,1.0,0.0,9.164,9.164,48.272,17.725,1.0,110.0,435.8,8750.0,0.0,0.0,110.0,110.0,433.0,0.0,0.0,0.0,1.0,333.3,82.4,82.4,59.9,59.9,34.0,-14.5,-5.74,-62.8,-2.7,4.0,-241.765,7.0,100.0,16.9,15.5,41.9,37.4,0.0,1.0,0.0,0.0,0.0,0.0,0.0,2130.0,2032.0,6587.0,4812.0,319.6,319.4,339.1,342.8,25.34,22.86,26.47,24.83,325.0,325.0,355.0,355.0,99.98,100.0,99.98,100.0,-0.38,-0.41,-0.36,-0.18,0.0,0.0,-0.3,-0.2,84.4,68.9,85.2,75.0,84.9,74.2,85.4,77.7,81.8,71.0,83.9,75.5,79.2,69.5,82.8,74.4,0.39,-0.4,0.06,0.05,0.0,130.87,130.61,119.4,119.4,174.7,27.6,0.388329756778952,43.93240871861369,140.7997689533339,-10.803051550459486,-3.60101699381147,1,2
185,9.2,351.0,44.05360836383314,-78.67984471949835,107.9,45.0,-186.5,-164.9,7181.1,7181.0,153.3,0.0,1.0,1.0,0.0,1.0,1.0,0.0,0.0,0.0,100.0,1.0,1.186,26.0,0.0,-0.39,48.272,66.0,1.7,26.0,26.0,26.0,26.0,-0.26,-0.23,-0.28,386.8,-1.5,-2.19,-1.07,-1.66,-504.7,577.14,5.5,0.0,0.0,0.0,0.0,0.21,-7.49,-7.49,-0.69,-5.31,1.4,2.43,42.58,-0.08,-0.59,4.77,100.0,0.0,0.0,118.68,0.0,0.0,0.0,0.0,0.0,0.0,0.0,7956.0,0.0,30.0,3.0,153.3,0.0,0.0,0.0,0.0,0.0,0.0,1.0,0.0,9.213,9.213,48.272,17.725,0.0,110.0,435.8,8750.0,0.0,0.0,110.0,110.0,433.0,0.0,0.0,0.0,1.0,333.3,73.1,73.1,81.3,81.3,34.0,-30.5,-7.68,-9.3,0.4,4.0,-241.815,8.3,100.0,22.3,17.8,32.5,29.2,0.0,1.0,0.0,0.0,0.0,0.0,0.0,3584.0,3831.0,1916.0,2389.0,315.2,314.8,350.4,348.7,25.34,22.86,26.46,24.83,325.0,325.0,355.0,355.0,99.98,100.0,99.98,100.0,-0.5,-0.42,-0.31,-0.24,-0.1,-0.1,-1.0,-0.6,84.4,68.9,85.2,75.0,84.8,74.2,85.4,77.7,81.7,71.0,83.8,75.4,79.2,69.4,82.8,74.4,0.47,-0.49,0.08,0.08,0.0,130.59,130.16,118.68,118.68,174.7,27.6,0.4459820624195552,46.09301897180321,149.44221002299443,14.404068544271311,82.82339370279288,1,2
186,9.25,353.1,44.0536143892879,-78.67982502435517,81.5,75.5,-78.9,-110.0,7183.2,7183.0,152.8,0.0,1.0,1.0,0.0,1.0,1.0,0.0,0.0,0.0,100.0,1.0,1.186,26.0,0.0,-0.399,48.272,66.0,13.1,26.0,26.0,26.0,26.0,-0.42,-0.38,0.08,383.4,-2.04,-2.44,-0.67,-1.11,-502.51,577.81,5.5,0.0,0.0,0.0,0.0,0.21,-7.49,-7.49,-0.79,0.35,1.22,-2.73,42.42,-0.13,-0.54,5.86,100.0,0.0,0.0,118.49,0.0,0.0,0.0,0.0,0.0,0.0,0.0,7943.0,0.0,30.0,3.0,152.8,1.0,0.0,0.0,0.0,0.0,0.0,1.0,0.0,9.267,9.267,48.272,17.725,1.0,110.0,435.8,8750.0,0.0,0.0,110.0,110.0,433.0,0.0,0.0,0.0,1.0,166.7,68.3,68.3,77.5,77.5,34.0,-55.2,-5.58,-54.7,-2.8,4.0,-241.865,9.3,100.0,26.3,21.6,28.6,23.7,0.0,1.0,0.0,0.0,0.0,0.0,0.0,5387.0,2826.0,6318.0,3065.0,311.3,317.2,339.6,347.1,25.34,22.86,26.46,24.83,325.0,325.0,355.0,355.0,99.98,100.0,99.98,100.0,-0.54,-0.46,-0.48,-0.24,-0.4,-0.6,-0.5,-0.6,84.4,68.9,85.1,74.9,84.8,74.1,85.3,77.6,81.7,70.9,83.7,75.4,79.1,69.4,82.7,74.3,0.53,-0.54,0.08,0.07,0.0,129.8,128.93,118.63,118.34,174.7,27.6,0.5720139858430037,45.37281557304082,149.0821083236132,-43.212205063790705,-100.82847924087616,1,2
187,9.3,355.2,44.05361969528538,-78.67980748758386,48.7,67.6,54.8,99.0,7185.3,7185.0,151.7,0.0,1.0,1.0,0.0,1.0,1.0,0.0,0.0,0.0,100.0,1.0,1.186,26.0,0.0,-0.405,48.272,66.0,45.3,26.0,26.0,26.0,26.0,-0.42,-0.9,0.21,378.6,-2.8,-3.07,-1.16,-1.75,-500.56,578.4,5.5,0.0,0.0,0.0,0.0,0.21,-7.49,-7.49,-0.78,1.08,1.17,-3.13,42.1,-0.18,-0.57,7.42,100.0,0.0,0.0,116.87,0.0,0.0,0.0,0.0,0.0,0.0,0.0,7834.0,0.0,30.0,3.0,151.7,0.0,0.0,0.0,0.0,0.0,0.0,1.0,0.0,9.314,9.314,48.272,17.725,0.0,110.0,435.8,8750.0,0.0,0.0,110.0,110.0,433.0,0.0,0.0,0.0,1.0,333.3,61.3,61.3,74.3,74.3,34.0,-69.7,-6.12,-51.6,-2.9,4.0,-241.915,9.7,100.0,28.8,25.0,31.3,28.7,0.0,1.0,0.0,0.0,0.0,0.0,0.0,6346.0,4922.0,5459.0,2981.0,309.5,311.2,342.0,347.1,25.34,22.87,26.46,24.83,325.0,325.0,355.0,355.0,99.98,100.0,99.98,100.0,-0.6,-0.47,-0.55,-0.36,-1.6,-1.8,-1.2,-1.2,84.4,68.9,85.1,75.0,84.8,74.1,85.3,77.6,81.7,70.9,83.7,75.3,79.1,69.4,82.7,74.3,0.57,-0.56,0.08,0.07,0.0,127.36,126.43,117.15,116.58,174.7,27.6,1.0151354589413177,41.77179846542414,139.35936209890681,-39.61118806997867,-72.0203421523334,1,2
188,9.35,357.3,44.05362482141853,-78.67979022060902,82.9,46.9,89.7,-29.8,7187.4,7187.0,149.9,0.0,1.0,1.0,0.0,1.0,1.0,0.0,0.0,0.0,100.0,1.0,1.186,26.0,0.0,-0.411,48.272,66.0,58.7,26.0,26.0,26.0,26.0,-0.54,-1.3,0.22,375.0,-2.01,-2.42,-1.16,-1.25,-498.64,578.97,5.5,0.0,0.0,0.0,0.0,0.21,-7.49,-7.49,-0.69,2.58,1.2,1.19,41.59,-0.22,-0.59,8.17,100.0,0.0,0.0,115.22,0.0,0.0,0.0,0.0,0.0,0.0,0.0,7724.0,0.0,30.0,3.0,149.9,1.0,0.0,0.0,0.0,0.0,0.0,1.0,0.0,9.363,9.363,48.272,17.725,1.0,110.0,435.8,8750.0,0.0,0.0,110.0,110.0,433.0,0.0,0.0,0.0,1.0,333.3,55.5,55.5,72.6,72.6,34.0,-77.2,-14.2,-50.3,-13.8,4.0,-241.96,9.8,100.0,32.9,27.3,35.8,27.2,0.0,1.0,0.0,0.0,0.0,0.0,0.0,7279.0,5567.0,5083.0,3844.0,306.0,309.9,343.0,345.1,25.34,22.87,26.46,24.83,325.0,325.0,355.0,355.0,99.98,100.0,99.98,100.0,-0.67,-0.54,-0.67,-0.5,-2.1,-2.5,-1.7,-1.5,84.4,68.9,85.1,74.9,84.8,74.1,85.2,77.6,81.7,70.9,83.7,75.3,79.1,69.4,82.7,74.3,0.57,-0.56,0.07,0.07,0.0,125.86,124.32,115.56,114.89,174.7,27.6,1.4247806848775009,41.41169676604295,141.88007410837986,7.202034272135762,93.62644468422815,1,2
170,8.45,317.7,44.05352175916249,-78.68012539777155,-149.8,-71.6,340.0,324.3,8876.4,8876.0,151.1,0.0,1.0,1.0,0.0,1.0,1.0,0.0,0.0,0.0,100.0,1.0,1.186,26.0,0.0,-0.276,48.272,66.0,0.0,26.0,26.0,26.0,26.0,0.2,0.44,0.44,371.1,-2.47,-2.16,-1.99,-1.2,-535.91,567.51,5.5,0.0,0.0,0.0,0.0,0.19,-7.49,-7.49,-0.09,5.69,1.48,0.78,41.99,0.13,-0.15,-1.23,100.0,0.0,0.0,119.91,0.0,0.0,0.0,0.0,0.0,0.0,0.0,8039.0,0.0,30.0,3.0,151.1,0.0,0.0,0.0,0.0,0.0,0.0,1.0,0.0,8.496,8.496,48.818,18.36,0.0,110.0,435.8,8750.0,0.0,0.0,110.0,110.0,433.0,0.0,0.0,0.0,1.0,333.3,72.7,72.7,46.2,46.2,34.0,-0.2,25.94,-15.5,45.6,5.0,-289.91,-1.8,100.0,21.1,26.2,47.3,51.1,0.0,1.0,98.4,0.0,0.0,0.0,0.0,1554.0,4082.0,6342.0,7061.0,321.3,313.6,339.5,336.7,26.09,23.27,26.48,24.97,325.0,325.0,355.0,355.0,99.92,100.0,99.93,99.98,0.27,0.23,0.13,0.27,-0.0,-0.1,1.5,1.4,89.1,71.4,85.3,75.8,89.4,77.7,85.0,79.9,86.1,74.2,83.5,77.4,83.1,72.4,82.3,76.1,-0.1,0.11,0.04,0.02,0.0,128.77,129.04,119.92,119.92,174.7,27.6,0.6536053855347277,51.494544661679406,150.16241342175678,10.803051550459557,14.404068544271524,1,2
171,8.5,319.8,44.05352841414238,-78.68010606235703,-66.0,-38.9,24.4,-37.2,8878.5,8878.0,151.9,0.0,1.0,1.0,0.0,1.0,1.0,0.0,0.0,0.0,100.0,1.0,1.186,26.0,0.0,-0.279,48.272,66.0,0.0,26.0,26.0,26.0,26.0,0.17,0.36,0.11,375.5,-2.68,-1.6,-1.64,-1.26,-533.76,568.25,5.5,0.0,0.0,0.0,0.0,0.19,-7.49,-7.49,-0.01,-1.1,1.25,-6.74,42.21,0.11,-0.24,-1.06,100.0,0.0,0.0,120.63,0.0,0.0,0.0,0.0,0.0,0.0,0.0,8086.0,0.0,30.0,3.0,151.9,1.0,0.0,0.0,0.0,0.0,0.0,1.0,0.0,8.55,8.55,48.818,18.36,1.0,110.0,435.8,8750.0,0.0,0.0,110.0,110.0,433.0,0.0,0.0,0.0,1.0,166.7,76.0,76.0,50.8,50.8,34.0,-1.8,14.72,-2.5,30.2,5.0,-289.965,-1.2,100.0,17.8,24.2,48.5,49.3,0.0,1.0,90.2,0.0,0.0,0.0,0.0,2294.0,2923.0,5125.0,5127.0,319.3,317.2,342.4,342.2,26.09,23.27,26.48,24.97,325.0,325.0,355.0,355.0,99.92,100.0,99.93,99.98,0.25,0.23,0.21,0.28,-0.1,-0.0,1.7,1.6,89.0,71.4,85.3,75.8,89.4,77.6,85.0,79.9,86.1,74.2,83.5,77.4,83.0,72.4,82.3,76.1,-0.07,0.07,0.04,0.02,0.0,129.38,129.43,120.62,120.62,174.7,27.6,0.4130375285612677,49.333934408489874,142.24017580776106,-32.409154082354874,-115.23254721612403,1,2
172,8.55,321.9,44.0535340798685,-78.68008987456811,71.9,-170.9,-112.8,-91.9,8880.6,8881.0,152.5,0.0,1.0,1.0,0.0,1.0,1.0,0.0,0.0,0.0,100.0,1.0,1.186,26.0,0.0,-0.282,48.272,66.0,0.0,26.0,26.0,26.0,26.0,0.04,0.3,0.09,378.4,-3.03,-2.68,-1.88,-0.68,-531.96,568.88,5.5,0.0,0.0,0.0,0.0,0.19,-7.49,-7.49,-0.11,-3.41,1.12,2.15,42.37,0.09,-0.32,-0.14,100.0,0.0,0.0,120.69,0.0,0.0,0.0,0.0,0.0,0.0,0.0,8091.0,0.0,30.0,3.0,152.5,0.0,0.0,0.0,0.0,0.0,0.0,1.0,0.0,8.594,8.594,48.818,18.36,0.0,110.0,435.8,8750.0,0.0,0.0,110.0,110.0,433.0,0.0,0.0,0.0,1.0,333.3,76.3,76.3,66.0,66.0,34.0,-14.1,12.39,-15.1,20.3,5.0,-290.01,-0.5,100.0,21.3,15.7,42.9,44.7,0.0,1.0,80.5,0.0,0.0,0.0,0.0,4257.0,2295.0,5046.0,5633.0,314.4,318.8,342.4,341.3,26.09,23.27,26.48,24.97,325.0,325.0,355.0,355.0,99.92,100.0,99.93,99.98,0.12,0.16,0.06,0.17,-0.1,-0.1,1.5,1.5,89.0,71.4,85.3,75.8,89.3,77.6,85.0,79.9,86.0,74.1,83.4,77.4,82.9,72.3,82.3,76.1,-0.03,0.03,0.06,0.04,0.0,129.86,129.82,120.69,120.69,174.7,27.6,0.31575306807693887,48.25362925344392,138.63915870014438,18.005085253571522,54.015256045226465,1,2
173,8.6,324.0,44.053540465051896,-78.6800714384752,-139.1,-10.3,-122.6,-202.4,8882.7,8883.0,153.1,0.0,1.0,1.0,0.0,1.0,1.0,0.0,0.0,0.0,100.0,1.0,1.186,26.0,0.0,-0.285,48.272,66.0,0.0,26.0,26.0,26.0,26.0,-0.03,0.33,-0.43,387.7,-2.39,-2.11,-2.17,-1.07,-529.91,569.59,5.5,0.0,0.0,0.0,0.0,0.19,-7.49,-7.49,-0.33,-5.58,1.25,4.18,42.53,0.09,-0.38,-0.09,100.0,0.0,0.0,121.6,0.0,0.0,0.0,0.0,0.0,0.0,0.0,8151.0,0.0,30.0,3.0,153.1,1.0,0.0,0.0,0.0,0.0,0.0,1.0,0.0,8.646,8.646,48.818,18.36,1.0,110.0,435.8,8750.0,0.0,0.0,110.0,110.0,433.0,0.0,0.0,0.0,1.0,333.3,84.4,84.4,68.6,68.6,34.0,-3.9,5.48,-17.9,10.7,5.0,-290.065,0.1,100.0,14.4,15.2,36.7,34.5,0.0,1.0,71.9,0.0,0.0,0.0,0.0,1772.0,1588.0,4588.0,3404.0,320.2,320.7,343.7,346.1,26.08,23.27,26.48,24.97,325.0,325.0,355.0,355.0,99.92,100.0,99.93,99.98,0.09,0.08,0.0,0.12,-0.1,-0.0,1.9,1.8,89.0,71.4,85.3,75.8,89.2,77.5,84.9,79.9,86.0,74.1,83.4,77.4,82.9,72.3,82.3,76.1,0.0,-0.01,0.07,0.07,0.0,130.08,130.18,121.59,121.59,174.7,27.6,0.5428627819255986,51.134442933847026,147.6417014122837,14.404068544271453,50.414239620438366,1,2
174,8.65,326.2,44.0535468502353,-78.68005300238228,59.7,120.2,-140.2,-69.2,8884.9,8885.0,153.6,0.0,1.0,1.0,0.0,1.0,1.0,0.0,0.0,0.0,100.0,1.0,1.186,26.0,0.0,-0.285,48.272,66.0,0.0,26.0,26.0,26.0,26.0,0.02,0.24,-0.12,386.9,-2.79,-1.84,-1.75,-2.32,-527.86,570.3,5.5,0.0,0.0,0.0,0.0,0.19,-7.49,-7.49,-0.61,-3.14,1.44,-0.13,42.66,0.08,-0.5,0.05,100.0,0.0,0.0,122.41,0.0,0.0,0.0,0.0,0.0,0.0,0.0,8206.0,0.0,30.0,3.0,153.6,0.0,0.0,0.0,0.0,0.0,0.0,1.0,0.0,8.697,8.697,48.818,18.36,0.0,110.0,435.8,8750.0,0.0,0.0,110.0,110.0,433.0,0.0,0.0,0.0,1.0,333.3,74.2,74.2,77.8,77.8,34.0,-10.3,17.7,-1.7,22.2,5.0,-290.11,3.1,100.0,17.4,21.2,29.7,31.1,0.0,1.0,63.3,0.0,0.0,0.0,0.0,2155.0,5021.0,932.0,3748.0,318.7,311.9,351.9,344.7,26.08,23.27,26.48,24.97,325.0,325.0,355.0,355.0,99.92,100.0,99.93,99.98,-0.05,0.04,0.06,0.17,0.0,-0.0,1.9,2.1,89.0,71.4,85.3,75.8,89.2,77.5,84.9,79.9,85.9,74.0,83.3,77.3,82.8,72.2,82.2,76.0,0.15,-0.15,0.08,0.08,0.0,130.76,130.73,122.41,122.41,174.7,27.6,0.2690724809414742,49.694036107871064,143.68058266218821,-10.803051265947587,-36.0101705071429,1,2
175,8.7,328.3,44.05355287569006,-78.68003555554311,-32.9,-18.6,-56.5,-51.8,8887.0,8887.0,154.1,0.0,1.0,1.0,0.0,1.0,1.0,0.0,0.0,0.0,100.0,1.0,1.186,26.0,0.0,-0.291,48.272,66.0,0.0,26.0,26.0,26.0,26.0,-0.01,0.37,-0.17,387.3,-2.69,-2.34,-1.73,-1.01,-525.92,570.97,5.5,0.0,0.0,0.0,0.0,0.19,-7.49,-7.49,-0.64,-0.18,1.1,-9.48,42.81,0.06,-0.39,1.14,100.0,0.0,0.0,121.65,0.0,0.0,0.0,0.0,0.0,0.0,0.0,8155.0,0.0,30.0,3.0,154.1,1.0,0.0,0.0,0.0,0.0,0.0,1.0,0.0,8.744,8.744,48.818,18.36,1.0,110.0,435.8,8750.0,0.0,0.0,110.0,110.0,433.0,0.0,0.0,0.0,1.0,333.3,80.0,80.0,73.1,73.1,34.0,-13.4,2.15,-19.3,29.2,5.0,-290.16,7.5,100.0,15.7,20.2,26.9,28.5,0.0,1.0,53.1,0.0,0.0,0.0,0.0,2249.0,2218.0,5675.0,5325.0,319.7,319.1,341.7,341.4,26.08,23.27,26.48,24.97,325.0,325.0,355.0,355.0,99.92,100.0,99.93,99.98,-0.23,-0.19,0.01,0.27,-0.1,-0.0,1.5,1.5,89.0,71.5,85.2,75.8,89.1,77.4,84.9,79.8,85.8,74.0,83.3,77.3,82.7,72.2,82.2,76.0,0.4,-0.4,0.08,0.08,0.0,131.28,131.22,121.64,121.64,174.7,27.6,0.40730823708832603,50.05413780725227,144.04068436156942,18.00508553808342,50.41423905141414,1,2
176,8.75,330.5,44.05355935080562,-78.68001702951804,210.9,39.2,141.4,28.7,8889.1,8889.0,154.4,0.0,1.0,1.0,0.0,1.0,1.0,0.0,0.0,0.0,100.0,1.0,1.186,26.0,0.0,-0.294,48.272,66.0,0.0,26.0,26.0,26.0,26.0,-0.28,0.17,0.03,380.3,-3.2,-3.29,-1.76,-2.07,-523.86,571.69,5.5,0.0,0.0,0.0,0.0,0.19,-7.49,-7.49,-0.63,2.78,0.71,-4.98,42.9,0.03,-0.43,4.99,100.0,0.0,0.0,121.98,0.0,0.0,0.0,0.0,0.0,0.0,0.0,8177.0,0.0,30.0,3.0,154.4,0.0,0.0,0.0,0.0,0.0,0.0,0.0,0.0,8.796,8.796,48.818,18.36,0.0,110.0,435.8,8750.0,0.0,0.0,110.0,110.0,433.0,0.0,0.0,0.0,1.0,333.3,65.9,65.9,75.0,75.0,34.0,-71.3,1.27,-22.9,12.9,5.0,-290.215,11.7,100.0,26.3,22.2,34.0,29.9,0.0,1.0,34.9,0.0,0.0,0.0,0.0,6315.0,3902.0,4408.0,3190.0,309.8,314.7,343.9,346.9,26.08,23.27,26.48,24.98,325.0,325.0,355.0,355.0,99.92,100.0,99.93,99.98,-0.47,-0.36,-0.12,0.03,-0.0,-0.0,1.0,1.3,89.0,71.5,85.2,75.8,89.1,77.4,84.8,79.8,85.8,74.0,83.3,77.3,82.7,72.2,82.1,76.0,0.66,-0.66,0.07,0.07,0.0,131.99,131.48,121.98,121.98,174.7,27.6,0.3289376840679706,51.494544661679406,148.72200656732963,-7.202034272135762,7.202033987623508,1,2
177,8.8,332.6,44.053565735989025,-78.6799984135608,127.6,40.9,173.3,91.0,8891.3,8891.0,154.5,0.0,1.0,1.0,0.0,1.0,1.0,0.0,0.0,0.0,100.0,1.0,1.186,26.0,0.0,-0.3,48.272,66.0,0.0,26.0,26.0,26.0,26.0,-0.44,-0.25,0.44,371.7,-2.33,-3.04,-1.42,-2.45,-521.79,572.4,5.5,0.0,0.0,0.0,0.0,0.19,-7.49,-7.49,-0.33,6.67,0.65,2.61,42.91,-0.04,-0.34,7.88,100.0,0.0,0.0,120.21,0.0,0.0,0.0,0.0,0.0,0.0,0.0,8058.0,0.0,30.0,3.0,154.5,1.0,0.0,0.0,0.0,0.0,0.0,0.0,0.0,8.847,8.847,48.818,18.36,1.0,110.0,435.8,8750.0,0.0,0.0,110.0,110.0,433.0,0.0,0.0,0.0,1.0,166.7,61.4,61.4,62.7,62.7,34.0,-73.0,-8.26,-65.1,16.3,5.0,-290.26,12.8,100.0,32.7,24.2,42.6,34.5,0.0,1.0,0.0,0.0,0.0,0.0,0.0,6246.0,4190.0,7040.0,5503.0,309.6,314.0,338.4,340.1,26.08,23.28,26.48,24.98,325.0,325.0,355.0,355.0,99.92,100.0,99.93,99.98,-0.6,-0.52,-0.39,-0.19,-0.0,0.0,-0.5,-0.3,89.0,71.5,85.2,75.9,89.0,77.4,84.8,79.8,85.8,73.9,83.2,77.2,82.7,72.1,82.1,75.9,0.75,-0.75,0.04,0.06,0.0,132.33,131.54,120.44,119.98,174.7,27.6,0.6705967491719595,49.33393438003869,144.76088776033177,-28.808137088542836,-39.611188069978596,1,2
178,8.85,334.7,44.05357167151162,-78.67998087678949,-233.6,-141.9,106.8,141.2,8893.4,8893.0,154.1,0.0,1.0,1.0,0.0,1.0,1.0,0.0,0.0,0.0,100.0,1.0,1.186,26.0,0.0,-0.303,48.272,66.0,0.0,26.0,26.0,26.0,26.0,-0.36,-0.18,-0.16,377.8,-2.33,-3.09,-2.35,-2.68,-519.84,573.06,5.5,0.0,0.0,0.0,0.0,0.2,-7.49,-7.49,-0.16,-1.39,0.76,1.5,42.81,-0.14,-0.3,7.3,100.0,0.0,0.0,119.86,0.0,0.0,0.0,0.0,0.0,0.0,0.0,8035.0,0.0,30.0,3.0,154.1,0.0,0.0,0.0,0.0,0.0,0.0,0.0,0.0,8.894,8.894,48.818,18.36,0.0,110.0,435.8,8750.0,0.0,0.0,110.0,110.0,433.0,0.0,0.0,0.0,1.0,333.3,78.0,78.0,56.1,56.1,34.0,-30.4,-7.95,-74.5,3.4,5.0,-290.31,11.6,100.0,21.0,17.1,48.0,41.5,0.0,1.0,0.0,0.0,0.0,0.0,0.0,3194.0,2723.0,6267.0,5088.0,318.0,318.2,340.2,341.9,26.08,23.28,26.48,24.98,325.0,325.0,355.0,355.0,99.92,100.0,99.93,99.98,-0.62,-0.64,-0.48,-0.37,0.1,0.1,-0.5,-0.1,89.0,71.5,85.2,75.9,89.0,77.3,84.7,79.7,85.7,73.9,83.2,77.2,82.6,72.1,82.1,75.9,0.7,-0.68,0.04,0.05,0.0,131.42,130.81,120.17,119.54,174.7,27.6,0.43312815655415426,48.61373095282512,144.76088776033177,2.8451182743083336e-07,43.21220563281429,1,2
179,8.9,336.9,44.0535778768307,-78.67996226083224,9.4,-5.0,-124.1,-52.4,8895.6,8896.0,153.8,0.0,1.0,1.0,0.0,1.0,1.0,0.0,0.0,0.0,100.0,1.0,1.186,26.0,0.0,-0.309,48.272,66.0,0.0,26.0,26.0,26.0,26.0,-0.38,-0.19,-0.24,382.9,-2.9,-2.7,-1.75,-1.79,-517.77,573.75,5.5,0.0,0.0,0.0,0.0,0.2,-7.49,-7.49,-0.47,-6.99,0.8,-0.6,42.7,-0.19,-0.53,7.4,100.0,0.0,0.0,119.19,0.0,0.0,0.0,0.0,0.0,0.0,0.0,7990.0,0.0,30.0,3.0,153.8,1.0,0.0,0.0,0.0,0.0,0.0,0.0,0.0,8.946,8.946,48.818,18.36,1.0,110.0,435.8,8750.0,0.0,0.0,110.0,110.0,433.0,0.0,0.0,0.0,1.0,333.3,75.5,75.5,69.6,69.6,34.0,-47.0,-8.63,-35.7,-2.5,5.0,-290.365,10.2,100.0,21.4,16.9,41.8,38.9,0.0,1.0,0.0,0.0,0.0,0.0,0.0,4113.0,2805.0,3691.0,1341.0,315.1,317.5,345.7,351.0,26.07,23.28,26.48,24.98,325.0,325.0,355.0,355.0,99.92,100.0,99.93,99.98,-0.64,-0.6,-0.51,-0.45,-0.0,0.0,-0.7,-0.5,89.0,71.5,85.2,75.9,88.9,77.3,84.7,79.7,85.7,73.8,83.2,77.2,82.6,72.1,82.0,75.9,0.6,-0.62,0.06,0.07,0.0,131.04,130.42,119.33,119.04,174.7,27.6,0.48795491595023405,49.333934408489874,149.0821083236132,-18.005085253571593,-3.601016993811754,1,2
180,8.95,339.0,44.053583992217625,-78.679943644875,34.4,1.5,-205.3,-258.9,8897.7,8898.0,153.4,0.0,1.0,1.0,0.0,1.0,1.0,0.0,0.0,0.0,100.0,1.0,1.186,26.0,0.0,-0.315,48.272,66.0,0.0,26.0,26.0,26.0,26.0,-0.57,-0.2,-0.05,384.6,-3.0,-2.41,-0.73,-2.01,-515.7,574.43,5.5,0.0,0.0,0.0,0.0,0.2,-7.49,-7.49,-0.71,-3.99,0.78,1.3,42.59,-0.27,-0.56,8.4,100.0,0.0,0.0,119.02,0.0,0.0,0.0,0.0,0.0,0.0,0.0,7979.0,0.0,30.0,3.0,153.4,0.0,0.0,0.0,0.0,0.0,0.0,0.0,0.0,8.997,8.997,48.818,18.36,0.0,110.0,435.8,8750.0,0.0,0.0,110.0,110.0,433.0,0.0,0.0,0.0,1.0,333.3,70.5,70.5,79.0,79.0,34.0,-86.2,-15.18,-52.2,-8.1,5.0,-290.41,10.5,100.0,23.2,17.0,31.5,26.0,0.0,1.0,0.0,0.0,0.0,0.0,0.0,6242.0,3957.0,4806.0,2882.0,310.2,315.0,343.4,347.6,26.07,23.28,26.48,24.98,325.0,325.0,355.0,355.0,99.92,100.0,99.93,99.98,-0.77,-0.62,-0.73,-0.55,-0.0,-0.0,-0.6,-0.3,89.0,71.5,85.2,75.9,88.9,77.2,84.7,79.6,85.6,73.8,83.1,77.1,82.5,72.0,82.0,75.8,0.59,-0.61,0.08,0.08,0.0,130.92,130.18,119.02,119.02,174.7,27.6,0.6061352984276696,46.81322242746796,144.4007860609506,-25.20712009473087,-3.601016993811754,1,2
181,9.0,341.1,44.05358956801158,-78.67992619803584,142.4,107.2,-40.1,-43.6,8899.8,8900.0,153.0,0.0,1.0,1.0,0.0,1.0,1.0,0.0,0.0,0.0,100.0,1.0,1.186,26.0,0.0,-0.315,48.272,66.0,0.0,26.0,26.0,26.0,26.0,-0.63,-0.26,-0.15,383.5,-2.13,-2.87,-1.43,-0.94,-513.76,575.05,5.5,0.0,0.0,0.0,0.0,0.2,-7.49,-7.49,-0.71,2.92,0.82,1.13,42.48,-0.34,-0.55,10.18,100.0,0.0,0.0,118.81,0.0,0.0,0.0,0.0,0.0,0.0,0.0,7965.0,0.0,30.0,3.0,153.0,1.0,0.0,0.0,0.0,0.0,0.0,0.0,0.0,9.046,9.046,48.818,18.36,1.0,110.0,435.8,8750.0,0.0,0.0,110.0,110.0,433.0,0.0,0.0,0.0,1.0,333.3,64.8,64.8,81.7,81.7,34.0,-73.6,-18.13,-53.4,-12.2,5.0,-290.46,12.6,100.0,30.3,22.3,29.5,23.8,0.0,1.0,0.0,0.0,0.0,0.0,0.0,5415.0,4099.0,4179.0,2095.0,311.5,315.1,344.8,349.7,26.07,23.28,26.48,24.98,325.0,325.0,355.0,355.0,99.92,100.0,99.93,99.98,-0.87,-0.74,-0.88,-0.71,-0.1,-0.0,-0.8,-0.5,89.0,71.5,85.2,75.9,88.9,77.2,84.6,79.6,85.6,73.8,83.1,77.1,82.5,72.0,81.9,75.8,0.72,-0.72,0.08,0.08,0.0,130.87,129.98,119.01,118.61,174.7,27.6,0.6978538528947161,46.81322239901679,148.72200662423202,-10.803051550459415,43.21220563281429,1,2
