,Time,Distance,GPS Latitude,GPS Longitude,Damper Velocity (Calc) FL,Damper Velocity (Calc) FR,Damper Velocity (Calc) RL,Damper Velocity (Calc) RR,Corr Dist,Corr Dist (Unstretched),Corr Speed,ABS Active,ABS Enabled,AID Allow Tire Blankets,AID Auto Blip,AID Auto Clutch,AID Auto Shift,AID Fuel Rate,AID Ideal Line,AID Mech Damage,AID Stability,AID Tire Wear Rate,Air Density,Air Temp,Ballast,Best Lap Delta,Best Lap Time,Brake Bias,Brake Pos,Brake Temp FL,Brake Temp FR,Brake Temp RL,Brake Temp RR,CG Accel Lateral,CG Accel Longitudinal,CG Accel Vertical,CG Height,Camber FL,Camber FR,Camber RL,Camber RR,Car Coord X,Car Coord Y,Car Coord Z,Car Damage Front,Car Damage Left,Car Damage Rear,Car Damage Right,Car Pos Norm,Caster FL,Caster FR,Chassis Pitch Angle,Chassis Pitch Rate,Chassis Roll Angle,Chassis Roll Rate,Chassis Velocity X,Chassis Velocity Y,Chassis Velocity Z,Chassis Yaw Rate,Clutch Pos,DRS Active,DRS Available,Drive Train Speed,ERS Heat Charging,ERS Is Charging,ERS Max Energy,ERS Power Level,ERS Recovery Level,Engine Brake Setting,Engine Limiter,Engine RPM,Flags,Fuel Level,Gear,Ground Speed,HR Sample Clock,In Pit,KERS Charge,KERS Deployed Energy,KERS Input,KERS Max Energy,LR Sample Clock,Lap Invalidated,Lap Time,Lap Time2,Last Lap Time,Last Sector Time,MR Sample Clock,Max Fuel,Max Power,Max RPM,Max Sus Travel FL,Max Sus Travel FR,Max Sus Travel RL,Max Sus Travel RR,Max Torque,Max Turbo Boost,Num Tires Off Track,Penalties Enabled,Position,Raw Data Sample Rate,Ride Height FL,Ride Height FR,Ride Height RL,Ride Height RR,Road Temp,Self Align Torque FL,Self Align Torque FR,Self Align Torque RL,Self Align Torque RR,Session Lap Count,Session Time Left,Steering Angle,Surface Grip,Suspension Travel FL,Suspension Travel FR,Suspension Travel RL,Suspension Travel RR,TC Active,TC Enabled,Throttle Pos,Tire Dirt Level FL,Tire Dirt Level FR,Tire Dirt Level RL,Tire Dirt Level RR,Tire Load FL,Tire Load FR,Tire Load RL,Tire Load RR,Tire Loaded Radius FL,Tire Loaded Radius FR,Tire Loaded Radius RL,Tire Loaded Radius RR,Tire Pressure FL,Tire Pressure FR,Tire Pressure RL,Tire Pressure RR,Tire Radius FL,Tire Radius FR,Tire Radius RL,Tire Radius RR,Tire Rubber Grip FL,Tire Rubber Grip FR,Tire Rubber Grip RL,Tire Rubber Grip RR,Tire Slip Angle FL,Tire Slip Angle FR,Tire Slip Angle RL,Tire Slip Angle RR,Tire Slip Ratio FL,Tire Slip Ratio FR,Tire Slip Ratio RL,Tire Slip Ratio RR,Tire Temp Core FL,Tire Temp Core FR,Tire Temp Core RL,Tire Temp Core RR,Tire Temp Inner FL,Tire Temp Inner FR,Tire Temp Inner RL,Tire Temp Inner RR,Tire Temp Middle FL,Tire Temp Middle FR,Tire Temp Middle RL,Tire Temp Middle RR,Tire Temp Outer FL,Tire Temp Outer FR,Tire Temp Outer RL,Tire Temp Outer RR,Toe In FL,Toe In FR,Toe In RL,Toe In RR,Turbo Boost,Wheel Angular Speed FL,Wheel Angular Speed FR,Wheel Angular Speed RL,Wheel Angular Speed RR,Wind Direction,Wind Speed,CG Distance,Lateral Velocity,Longitudinal Velocity,Lateral Acceleration,Longitudinal Acceleration,level,curve_number
76,3.75,157.7,44.053297198557495,-78.6814746499769,-7.8,-26.4,103.2,13.2,5265.9,5266.0,106.0,0.0,1.0,1.0,0.0,1.0,1.0,0.0,0.0,0.0,100.0,1.0,1.186,26.0,0.0,-0.054,50.194,66.0,0.0,26.0,26.0,26.0,26.0,1.54,-0.25,0.1,382.6,-2.56,-3.27,-2.85,-0.52,-685.94,542.54,5.9,0.0,0.0,0.0,0.0,0.09,-7.49,-7.49,-0.92,-1.8,-0.9,1.29,29.43,0.68,-0.37,-28.73,100.0,0.0,0.0,82.44,0.0,0.0,0.0,0.0,0.0,0.0,0.0,5526.0,0.0,30.0,3.0,106.0,0.0,0.0,0.0,0.0,0.0,0.0,1.0,0.0,3.786,3.786,50.194,17.865,0.0,110.0,435.8,8750.0,0.0,0.0,110.0,110.0,433.0,0.0,0.0,0.0,1.0,333.3,73.4,73.4,71.9,71.9,34.0,-2.6,-18.49,41.0,129.5,3.0,-188.115,-144.1,100.0,13.3,27.6,21.2,41.9,0.0,1.0,0.0,0.0,0.0,0.0,0.0,1414.0,5768.0,2993.0,6644.0,321.7,309.0,347.8,338.0,25.25,22.88,26.16,24.74,325.0,325.0,355.0,355.0,100.0,99.87,100.0,100.0,8.61,8.09,2.57,2.7,-0.1,-0.5,-0.2,-0.5,83.8,69.0,83.3,74.4,87.5,73.2,85.0,76.3,83.9,69.9,83.2,73.9,81.1,68.3,82.3,72.8,-8.68,8.06,0.09,0.04,0.0,88.04,90.24,81.34,83.54,174.7,27.6,1.5633617623570046,73.10064730737948,79.94257982323163,-43.21220534830232,25.207119525707355,1,1
77,3.8,159.2,44.05328820534144,-78.68146457757493,-20.3,40.1,-87.7,-53.2,5267.3,5267.0,105.5,0.0,1.0,1.0,0.0,1.0,1.0,0.0,0.0,0.0,100.0,1.0,1.186,26.0,0.0,-0.054,50.194,66.0,0.0,26.0,26.0,26.0,26.0,1.33,-0.25,-0.09,386.0,-2.03,-1.85,-2.12,-1.34,-684.82,541.54,5.9,0.0,0.0,0.0,0.0,0.1,-7.49,-7.49,-1.04,-0.84,-0.88,-5.3,29.29,0.76,-0.39,-30.56,100.0,0.0,0.0,81.97,0.0,0.0,0.0,0.0,0.0,0.0,0.0,5495.0,0.0,30.0,3.0,105.5,1.0,0.0,0.0,0.0,0.0,0.0,1.0,0.0,3.837,3.837,50.194,17.865,1.0,110.0,435.8,8750.0,0.0,0.0,110.0,110.0,433.0,0.0,0.0,0.0,1.0,333.3,72.9,72.9,74.8,74.8,34.0,-0.2,-23.06,18.5,80.4,3.0,-188.17,-147.6,100.0,12.2,29.6,16.8,39.2,0.0,1.0,0.0,0.0,0.0,0.0,0.0,208.0,7056.0,1561.0,4757.0,324.5,306.2,351.0,342.7,25.25,22.88,26.16,24.74,325.0,325.0,355.0,355.0,100.0,99.87,100.0,100.0,9.0,8.44,2.89,2.93,0.2,-0.6,-0.3,-0.6,83.8,69.0,83.3,74.4,87.5,73.4,84.9,76.3,83.9,70.1,83.2,73.9,81.1,68.5,82.2,72.8,-8.9,8.25,0.11,0.04,0.0,87.66,89.79,80.87,83.08,174.7,27.6,1.356281681657612,68.41932507316803,78.86227466818568,-54.015256614250404,28.808137088542765,1,1
78,3.85,160.6,44.05328011144698,-78.68145495483374,80.1,21.5,36.9,-33.9,5268.8,5269.0,105.0,0.0,1.0,1.0,0.0,1.0,1.0,0.0,0.0,0.0,100.0,1.0,1.186,26.0,0.0,-0.057,50.194,66.0,0.0,26.0,26.0,26.0,26.0,1.52,-0.28,-0.04,383.4,-1.66,-2.36,-2.5,-0.98,-683.75,540.64,5.9,0.0,0.0,0.0,0.0,0.1,-7.49,-7.49,-1.06,1.21,-1.06,-0.66,29.14,0.81,-0.4,-33.18,100.0,0.0,0.0,81.61,0.0,0.0,0.0,0.0,0.0,0.0,0.0,5471.0,0.0,30.0,3.0,105.0,0.0,0.0,0.0,0.0,0.0,0.0,0.0,0.0,3.884,3.884,50.194,17.865,0.0,110.0,435.8,8750.0,0.0,0.0,110.0,110.0,433.0,0.0,0.0,0.0,1.0,333.3,68.5,68.5,73.7,73.7,34.0,-3.0,-23.68,35.7,68.8,3.0,-188.215,-151.7,100.0,16.2,30.7,18.6,37.5,0.0,1.0,0.0,0.0,0.0,0.0,0.0,1477.0,7248.0,2691.0,4417.0,321.0,306.2,348.6,343.7,25.25,22.89,26.16,24.74,325.0,325.0,355.0,355.0,100.0,99.87,100.0,100.0,9.14,8.61,3.03,3.14,-0.0,-0.6,-0.2,-0.8,83.8,69.0,83.3,74.4,87.5,73.6,84.9,76.3,83.9,70.3,83.1,74.0,81.1,68.6,82.2,72.8,-9.13,8.45,0.1,0.06,0.0,86.9,89.44,80.45,82.78,174.7,27.6,1.5460918472070149,67.69912164595443,82.8233935320859,-28.80813708854305,50.414239620438224,1,1
79,3.9,162.1,44.05327129809525,-78.68144389317798,-0.0,58.2,-45.0,62.5,5270.2,5270.0,104.3,0.0,1.0,1.0,0.0,1.0,1.0,0.0,0.0,0.0,100.0,1.0,1.186,26.0,0.0,-0.057,50.194,66.0,0.0,26.0,26.0,26.0,26.0,1.47,-0.25,-0.06,382.7,-2.52,-2.63,-2.11,-0.46,-682.52,539.66,5.9,0.0,0.0,0.0,0.0,0.1,-7.49,-7.49,-0.93,3.46,-0.95,-3.3,28.96,0.9,-0.37,-35.34,100.0,0.0,0.0,81.18,0.0,0.0,0.0,0.0,0.0,0.0,0.0,5442.0,0.0,30.0,3.0,104.3,1.0,0.0,0.0,0.0,0.0,0.0,0.0,0.0,3.939,3.939,50.194,17.865,1.0,110.0,435.8,8750.0,0.0,0.0,110.0,110.0,433.0,0.0,0.0,0.0,1.0,166.7,68.2,68.2,77.4,77.4,34.0,-1.4,-21.83,7.4,108.7,3.0,-188.27,-155.1,100.0,16.2,33.6,16.4,40.7,0.0,1.0,0.0,0.0,0.0,0.0,0.0,845.0,6665.0,842.0,6574.0,323.0,306.8,352.9,338.0,25.25,22.89,26.16,24.74,325.0,325.0,355.0,355.0,100.0,99.88,100.0,100.0,9.47,8.82,3.44,3.46,0.0,-0.6,-0.4,-0.6,83.8,69.0,83.3,74.4,87.5,73.8,84.9,76.4,83.9,70.5,83.1,74.0,81.1,68.8,82.2,72.9,-9.37,8.64,0.1,0.05,0.0,86.35,89.03,79.84,82.52,174.7,27.6,1.4923136399564267,65.53851136431372,83.9036986302295,-86.42441069660464,-25.20712009473087,1,1
80,3.95,163.5,44.05326374379376,-78.68143400064032,-29.8,-135.8,88.6,42.7,5271.7,5272.0,103.8,0.0,1.0,1.0,0.0,1.0,1.0,0.0,0.0,0.0,100.0,1.0,1.186,26.0,0.0,-0.054,50.194,66.0,0.0,26.0,26.0,26.0,26.0,1.64,-0.25,-0.0,381.8,-2.5,-3.72,-2.43,-0.52,-681.42,538.82,5.9,0.0,0.0,0.0,0.0,0.1,-7.49,-7.49,-0.88,-0.24,-1.05,1.28,28.82,0.97,-0.32,-31.22,100.0,0.0,0.0,80.72,0.0,0.0,0.0,0.0,0.0,0.0,0.0,5412.0,0.0,30.0,3.0,103.8,0.0,0.0,0.0,0.0,0.0,0.0,0.0,0.0,3.987,3.987,50.194,17.865,0.0,110.0,435.8,8750.0,0.0,0.0,110.0,110.0,433.0,0.0,0.0,0.0,1.0,166.7,73.7,73.7,75.9,75.9,34.0,-3.3,-14.2,31.8,146.6,3.0,-188.315,-156.6,100.0,14.7,26.8,20.8,42.8,0.0,1.0,0.0,0.0,0.0,0.0,0.0,1673.0,4562.0,2612.0,8312.0,320.9,311.2,349.1,334.2,25.24,22.89,26.16,24.74,325.0,325.0,355.0,355.0,100.0,99.88,100.0,100.0,9.86,9.15,3.35,3.45,-0.1,-0.5,-0.3,-0.5,83.8,69.0,83.3,74.4,87.5,74.0,84.8,76.4,83.9,70.7,83.1,74.1,81.1,69.0,82.1,72.9,-9.48,8.76,0.09,0.05,0.0,85.77,88.28,79.57,81.88,174.7,27.6,1.6589454481688057,59.05668057629397,80.30268152261282,-68.41932487400967,0.0,1,1
81,4.0,165.0,44.05325654922091,-78.68142383830617,-35.9,-14.3,-18.3,37.4,5273.1,5273.0,103.4,0.0,1.0,1.0,0.0,1.0,1.0,0.0,0.0,0.0,100.0,1.0,1.186,26.0,0.0,-0.057,50.194,66.0,0.0,26.0,26.0,26.0,26.0,1.44,-0.19,0.02,383.9,-2.46,-2.8,-2.69,-0.6,-680.29,538.02,5.9,0.0,0.0,0.0,0.0,0.1,-7.49,-7.49,-1.04,-3.72,-0.94,-0.35,28.7,0.95,-0.39,-28.05,100.0,0.0,0.0,80.71,0.0,0.0,0.0,0.0,0.0,0.0,0.0,5411.0,0.0,30.0,3.0,103.4,1.0,0.0,0.0,0.0,0.0,0.0,0.0,0.0,4.034,4.034,50.194,17.865,1.0,110.0,435.8,8750.0,0.0,0.0,110.0,110.0,433.0,0.0,0.0,0.0,1.0,333.3,74.6,74.6,76.8,76.8,34.0,-1.6,-18.83,15.4,111.9,3.0,-188.365,-157.9,100.0,13.0,26.1,19.9,44.7,0.0,1.0,4.0,0.0,0.0,0.0,0.0,954.0,5926.0,1429.0,6383.0,322.8,308.7,351.5,338.5,25.24,22.89,26.16,24.74,325.0,325.0,355.0,355.0,100.0,99.88,100.0,100.0,10.12,9.49,3.21,3.26,-0.1,-0.6,0.3,-0.2,83.8,69.1,83.2,74.4,87.5,74.2,84.8,76.5,83.9,70.8,83.1,74.1,81.1,69.1,82.1,73.0,-9.56,8.83,0.09,0.05,0.0,85.4,87.51,79.72,81.7,174.7,27.6,1.4526183256451088,58.69657887691275,83.9036986302295,-7.202033987624219,72.02034215233354,1,1
82,4.05,166.4,44.05324908485158,-78.6814130464469,45.2,-30.7,-56.8,-113.2,5274.5,5275.0,103.0,0.0,1.0,1.0,0.0,1.0,1.0,0.0,0.0,0.0,100.0,1.0,1.186,26.0,0.0,-0.057,50.194,66.0,0.0,26.0,26.0,26.0,26.0,1.35,-0.17,-0.14,387.2,-2.09,-3.5,-2.77,-0.04,-679.09,537.19,5.9,0.0,0.0,0.0,0.0,0.1,-7.49,-7.49,-1.22,-2.65,-0.83,5.05,28.59,1.0,-0.41,-29.17,100.0,0.0,0.0,80.35,0.0,0.0,0.0,0.0,0.0,0.0,0.0,5386.0,0.0,30.0,3.0,103.0,0.0,0.0,0.0,0.0,0.0,0.0,0.0,0.0,4.086,4.086,50.194,17.865,0.0,110.0,435.8,8750.0,0.0,0.0,110.0,110.0,433.0,0.0,0.0,0.0,1.0,333.3,74.7,74.7,81.9,81.9,34.0,-1.8,-16.44,20.3,64.5,3.0,-188.415,-160.2,100.0,15.2,24.6,17.1,39.0,0.0,1.0,3.2,0.0,0.0,0.0,0.0,979.0,5344.0,1764.0,4260.0,322.1,310.4,350.7,344.2,25.24,22.89,26.16,24.74,325.0,325.0,355.0,355.0,100.0,99.88,100.0,100.0,10.22,9.58,3.22,3.31,-0.2,-0.7,0.2,-0.1,83.8,69.1,83.2,74.4,87.5,74.3,84.8,76.5,83.9,71.0,83.0,74.1,81.1,69.3,82.1,73.0,-9.7,8.96,0.09,0.06,0.0,84.91,87.23,79.28,81.41,174.7,27.6,1.367845020461017,58.33647717753155,87.50471573784617,-43.21220534830239,21.606102531895175,1,1
83,4.1,167.8,44.05324198021089,-78.68140198479115,-96.0,-29.9,-87.9,-8.6,5276.0,5276.0,102.6,0.0,1.0,1.0,0.0,1.0,1.0,0.0,0.0,0.0,100.0,1.0,1.186,26.0,0.0,-0.057,50.194,66.0,0.0,26.0,26.0,26.0,26.0,1.09,-0.13,-0.34,390.7,-2.43,-1.75,-2.93,-0.22,-677.86,536.4,5.8,0.0,0.0,0.0,0.0,0.1,-7.49,-7.49,-1.37,-3.73,-0.66,-2.87,28.47,1.1,-0.37,-26.75,100.0,0.0,0.0,79.91,0.0,0.0,0.0,0.0,0.0,0.0,0.0,5357.0,0.0,30.0,3.0,102.6,1.0,0.0,0.0,0.0,0.0,0.0,0.0,0.0,4.137,4.137,50.194,17.865,1.0,110.0,435.8,8750.0,0.0,0.0,110.0,110.0,433.0,0.0,0.0,0.0,1.0,166.7,81.6,81.6,86.6,86.6,34.0,0.0,-10.95,11.8,95.2,3.0,-188.465,-162.2,100.0,10.4,23.1,12.7,38.6,0.0,1.0,3.6,0.0,0.0,0.0,0.0,0.0,3976.0,1221.0,6001.0,325.0,314.6,352.1,339.5,25.24,22.89,26.16,24.74,325.0,325.0,355.0,355.0,100.0,99.88,100.0,100.0,0.0,10.04,3.46,3.55,0.0,-0.4,-0.2,-0.1,83.8,69.1,83.2,74.4,87.5,74.5,84.7,76.5,83.9,71.1,83.0,74.2,81.1,69.4,82.0,73.0,-9.86,9.09,0.11,0.06,0.0,84.71,86.72,78.81,81.02,174.7,27.6,1.1491736161259534,54.375358342082514,86.06430888341902,-64.81830816470939,-10.803051550459486,1,1
84,4.15,169.2,44.05323550509533,-78.68139155266053,20.5,24.1,84.2,-93.9,5277.4,5277.0,102.2,0.0,1.0,1.0,0.0,1.0,1.0,0.0,0.0,0.0,100.0,1.0,1.186,26.0,0.0,-0.057,50.194,66.0,0.0,26.0,26.0,26.0,26.0,1.48,-0.16,-0.06,387.2,-2.17,-1.74,-2.53,-0.5,-676.7,535.68,5.8,0.0,0.0,0.0,0.0,0.1,-7.49,-7.49,-1.59,-3.52,-0.67,2.73,28.37,1.08,-0.4,-27.15,100.0,0.0,0.0,80.65,0.0,0.0,0.0,0.0,0.0,0.0,0.0,5406.0,0.0,30.0,3.0,102.2,0.0,0.0,0.0,0.0,0.0,0.0,0.0,0.0,4.184,4.184,50.194,17.865,0.0,110.0,435.8,8750.0,0.0,0.0,110.0,110.0,433.0,0.0,0.0,0.0,1.0,333.3,73.4,73.4,80.9,80.9,34.0,-4.4,-23.48,8.0,84.4,3.0,-188.515,-164.0,100.0,11.4,24.3,16.9,33.9,0.0,1.0,11.1,0.0,0.0,0.0,0.0,2140.0,7280.0,916.0,5517.0,319.9,305.9,352.5,341.3,25.24,22.89,26.16,24.74,325.0,325.0,355.0,355.0,100.0,99.88,100.0,100.0,10.79,10.18,3.4,3.5,-0.2,-0.8,2.0,-0.2,83.8,69.1,83.2,74.4,87.5,74.7,84.7,76.6,83.9,71.3,82.9,74.2,81.1,69.6,82.0,73.1,-9.96,9.18,0.11,0.07,0.0,84.18,86.21,80.7,80.6,174.7,27.6,1.4898322053170954,51.85464636106061,86.42441058280022,-32.409154082354874,43.21220563281443,1,1
85,4.2,170.6,44.05322902997977,-78.68138040107262,97.5,215.9,-100.8,-9.0,5278.8,5279.0,101.9,0.0,1.0,1.0,0.0,1.0,1.0,0.0,0.0,0.0,100.0,1.0,1.186,26.0,0.0,-0.057,50.194,66.0,0.0,26.0,26.0,26.0,26.0,1.48,-0.11,-0.01,384.3,-3.33,-1.92,-2.93,-0.98,-675.46,534.96,5.8,0.0,0.0,0.0,0.0,0.1,-7.49,-7.49,-1.62,4.01,-0.46,-0.14,28.28,1.06,-0.45,-34.38,100.0,0.0,0.0,83.13,0.0,0.0,0.0,0.0,0.0,0.0,0.0,5572.0,0.0,30.0,3.0,101.9,1.0,0.0,0.0,0.0,0.0,0.0,0.0,0.0,4.236,4.236,50.194,17.865,1.0,110.0,435.8,8750.0,0.0,0.0,110.0,110.0,433.0,0.0,0.0,0.0,1.0,333.3,63.4,63.4,80.1,80.1,34.0,-3.3,-31.01,1.9,52.3,3.0,-188.565,-164.0,100.0,16.3,35.1,11.8,33.4,0.0,1.0,38.9,0.0,0.0,0.0,0.0,1824.0,8862.0,556.0,4215.0,320.8,300.4,353.8,343.5,25.24,22.89,26.15,24.74,325.0,325.0,355.0,355.0,100.0,99.88,100.0,100.0,10.34,9.72,3.47,3.67,-0.3,-1.0,5.4,2.1,83.7,69.1,83.2,74.4,87.5,75.0,84.6,76.6,83.9,71.5,82.9,74.2,81.1,69.8,81.9,73.1,-9.95,9.14,0.12,0.07,0.0,83.85,86.56,83.13,83.13,174.7,27.6,1.484115898439202,51.134442933847026,90.38552944670046,-43.21220534830253,32.40915465137846,1,1
86,4.25,172.1,44.05322273472853,-78.68136897968822,-36.7,-39.2,55.6,109.9,5280.2,5280.0,102.1,0.0,1.0,1.0,0.0,1.0,1.0,0.0,0.0,0.0,100.0,1.0,1.186,26.0,0.0,-0.057,50.194,66.0,0.0,26.0,26.0,26.0,26.0,1.62,0.34,0.07,382.3,-2.25,-2.76,-2.42,-0.78,-674.19,534.26,5.8,0.0,0.0,0.0,0.0,0.1,-7.49,-7.49,-1.24,8.35,-0.55,-4.73,28.34,1.2,-0.29,-36.46,100.0,0.0,0.0,83.47,0.0,0.0,0.0,0.0,0.0,0.0,0.0,5595.0,0.0,30.0,3.0,102.1,0.0,0.0,0.0,0.0,0.0,0.0,0.0,0.0,4.287,4.287,50.194,17.865,0.0,110.0,435.8,8750.0,0.0,0.0,110.0,110.0,433.0,0.0,0.0,0.0,1.0,333.3,70.6,70.6,73.2,73.2,34.0,-1.3,-19.38,11.2,79.2,3.0,-188.62,-163.6,100.0,14.5,33.1,14.6,38.9,0.0,1.0,67.2,0.0,0.0,0.0,0.0,774.0,6107.0,3198.0,7269.0,323.0,308.4,347.2,336.0,25.24,22.9,26.15,24.74,325.0,325.0,355.0,355.0,100.0,99.88,100.0,100.0,10.63,9.88,4.14,4.22,-0.5,-0.8,6.5,2.6,83.7,69.1,83.2,74.4,87.5,75.2,84.6,76.7,83.9,71.8,82.9,74.3,81.2,70.0,81.9,73.2,-9.93,9.13,0.11,0.04,0.0,83.78,86.96,83.47,83.47,174.7,27.6,1.6567739737212197,47.533425826230356,89.66532604793807,-50.414239335926325,36.0101710761667,1,1
87,4.3,173.5,44.05321715893457,-78.68135800796462,-15.6,-50.9,234.2,184.6,5281.6,5282.0,102.5,0.0,1.0,1.0,0.0,1.0,1.0,0.0,0.0,0.0,100.0,1.0,1.186,26.0,0.0,-0.06,50.194,66.0,0.0,26.0,26.0,26.0,26.0,1.83,0.26,0.34,376.7,-2.04,-2.54,-3.3,-1.48,-672.97,533.64,5.8,0.0,0.0,0.0,0.0,0.1,-7.49,-7.49,-0.93,5.21,-0.71,-0.75,28.45,1.2,-0.24,-30.97,100.0,0.0,0.0,83.26,0.0,0.0,0.0,0.0,0.0,0.0,0.0,5581.0,0.0,30.0,3.0,102.5,1.0,0.0,0.0,0.0,0.0,0.0,0.0,0.0,4.334,4.334,50.194,17.865,1.0,110.0,435.8,8750.0,0.0,0.0,110.0,110.0,433.0,0.0,0.0,0.0,1.0,333.3,71.5,71.5,64.1,64.1,34.0,-3.9,-17.09,21.5,105.5,3.0,-188.665,-163.8,100.0,13.7,30.6,26.3,48.2,0.0,1.0,82.0,0.0,0.0,0.0,0.0,1837.0,5516.0,3797.0,8270.0,320.1,309.9,346.1,333.3,25.24,22.9,26.15,24.74,325.0,325.0,355.0,355.0,100.0,99.88,100.0,100.0,10.88,10.16,3.91,4.01,-0.9,-0.8,5.5,2.3,83.7,69.1,83.2,74.4,87.5,75.4,84.7,76.7,83.9,72.0,82.9,74.4,81.1,70.2,81.9,73.3,-9.95,9.15,0.08,0.02,0.0,84.06,86.88,83.26,83.26,174.7,27.6,1.879388198324125,46.093019000254394,93.98654655431713,-32.40915379784305,57.61627303903836,1,1
88,4.35,174.9,44.05321122341197,-78.6813455073943,-71.0,-185.8,-31.3,34.7,5283.1,5283.0,103.0,0.0,1.0,1.0,0.0,1.0,1.0,0.0,0.0,0.0,100.0,1.0,1.186,26.0,0.0,-0.06,50.194,66.0,0.0,26.0,26.0,26.0,26.0,1.27,0.38,-0.18,383.9,-2.27,-2.12,-2.64,-0.22,-671.58,532.98,5.8,0.0,0.0,0.0,0.0,0.1,-7.49,-7.49,-0.82,-0.27,-0.51,2.25,28.6,1.17,-0.21,-23.98,100.0,0.0,0.0,84.05,0.0,0.0,0.0,0.0,0.0,0.0,0.0,5634.0,0.0,30.0,3.0,103.0,0.0,0.0,0.0,0.0,0.0,0.0,1.0,0.0,4.389,4.389,50.194,17.865,0.0,110.0,435.8,8750.0,0.0,0.0,110.0,110.0,433.0,0.0,0.0,0.0,1.0,166.7,82.9,82.9,69.7,69.7,34.0,0.0,-14.82,10.3,109.6,3.0,-188.72,-165.2,100.0,10.1,21.3,24.8,49.9,0.0,1.0,79.7,0.0,0.0,0.0,0.0,0.0,5014.0,2064.0,7849.0,325.0,311.7,349.8,335.3,25.24,22.9,26.15,24.74,325.0,325.0,355.0,355.0,100.0,99.88,100.0,100.0,0.0,10.5,3.45,3.48,0.0,-0.8,5.8,3.2,83.7,69.1,83.2,74.4,87.5,75.6,84.7,76.8,83.9,72.1,82.9,74.5,81.1,70.4,81.9,73.3,-10.04,9.27,0.1,0.03,0.0,84.31,86.79,84.05,84.05,174.7,27.6,1.337796696064092,44.29251044644605,95.4269533518419,-50.414239620438224,0.0,1,1
89,4.4,176.4,44.05320609727882,-78.68133417594207,-54.2,-110.0,-10.1,-1.6,5284.5,5285.0,103.6,0.0,1.0,1.0,0.0,1.0,1.0,0.0,0.0,0.0,100.0,1.0,1.186,26.0,0.0,-0.063,50.194,66.0,0.0,26.0,26.0,26.0,26.0,1.15,0.36,-0.16,387.9,-2.06,-3.1,-2.56,-0.79,-670.32,532.41,5.8,0.0,0.0,0.0,0.0,0.1,-7.49,-7.49,-1.01,-7.34,-0.65,-3.86,28.78,1.08,-0.25,-15.67,100.0,0.0,0.0,83.17,0.0,0.0,0.0,0.0,0.0,0.0,0.0,5576.0,0.0,30.0,3.0,103.6,1.0,0.0,0.0,0.0,0.0,0.0,1.0,0.0,4.437,4.437,50.194,17.865,1.0,110.0,435.8,8750.0,0.0,0.0,110.0,110.0,433.0,0.0,0.0,0.0,1.0,166.7,89.9,89.9,71.1,71.1,34.0,0.0,-8.81,30.7,92.6,3.0,-188.765,-167.9,100.0,7.4,15.8,24.3,49.8,0.0,1.0,68.0,0.0,0.0,0.0,0.0,0.0,3310.0,3296.0,5761.0,325.0,316.2,346.9,339.5,25.23,22.9,26.15,24.74,325.0,325.0,355.0,355.0,100.0,99.88,100.0,100.0,0.0,10.98,2.95,3.08,0.0,-0.7,4.1,2.2,83.7,69.1,83.2,74.4,87.4,75.7,84.7,76.9,83.8,72.2,82.9,74.5,81.1,70.5,81.9,73.4,-10.23,9.44,0.09,0.02,0.0,84.31,86.65,83.17,83.17,174.7,27.6,1.215606844337428,41.05159503821057,93.98654655431713,-50.41423962043815,-3.6010164247880994,1,1
90,4.45,177.8,44.053200971145664,-78.68132203510038,40.6,66.6,-92.6,-270.2,5286.0,5286.0,104.0,0.0,1.0,1.0,0.0,1.0,1.0,0.0,0.0,0.0,100.0,1.0,1.186,26.0,0.0,-0.063,50.194,66.0,0.0,26.0,26.0,26.0,26.0,1.26,0.23,-0.19,388.7,-1.92,-2.69,-2.67,-0.37,-668.97,531.84,5.8,0.0,0.0,0.0,0.0,0.11,-7.49,-7.49,-1.45,-7.0,-0.64,0.84,28.88,0.89,-0.37,-17.35,100.0,0.0,0.0,84.53,0.0,0.0,0.0,0.0,0.0,0.0,0.0,5667.0,0.0,30.0,3.0,104.0,0.0,0.0,0.0,0.0,0.0,0.0,1.0,0.0,4.488,4.488,50.194,17.865,0.0,110.0,435.8,8750.0,0.0,0.0,110.0,110.0,433.0,0.0,0.0,0.0,1.0,166.7,79.1,79.1,81.0,81.0,34.0,-3.2,-18.42,5.7,79.1,3.0,-188.815,-170.8,100.0,9.5,19.1,19.6,36.3,0.0,1.0,57.4,0.0,0.0,0.0,0.0,1642.0,5925.0,1171.0,5717.0,320.9,309.1,352.3,340.5,25.23,22.9,26.15,24.74,325.0,325.0,355.0,355.0,100.0,99.88,100.0,100.0,11.36,10.69,2.54,2.63,-1.1,-1.1,5.2,3.5,83.7,69.1,83.2,74.4,87.4,75.9,84.6,76.9,83.8,72.4,82.9,74.5,81.1,70.6,81.9,73.4,-10.41,9.56,0.1,0.05,0.0,85.15,86.83,84.54,84.54,174.7,27.6,1.2948358969382954,39.25108648440224,95.06685170936309,-39.61118806997867,21.606101962871662,1,1
91,4.5,179.3,44.05319629467331,-78.68131043385166,153.2,208.2,-152.3,-160.7,5287.4,5287.0,104.1,0.0,1.0,1.0,0.0,1.0,1.0,0.0,0.0,0.0,100.0,1.0,1.186,26.0,0.0,-0.063,50.194,66.0,0.0,26.0,26.0,26.0,26.0,1.38,0.14,-0.02,386.7,-2.61,-3.11,-3.07,-1.36,-667.68,531.32,5.7,0.0,0.0,0.0,0.0,0.11,-7.49,-7.49,-1.57,2.86,-0.56,1.48,28.91,0.85,-0.39,-29.33,100.0,0.0,0.0,86.11,0.0,0.0,0.0,0.0,0.0,0.0,0.0,5772.0,0.0,30.0,3.0,104.1,1.0,0.0,0.0,0.0,0.0,0.0,1.0,0.0,4.536,4.536,50.194,17.865,1.0,110.0,435.8,8750.0,0.0,0.0,110.0,110.0,433.0,0.0,0.0,0.0,1.0,166.7,66.6,66.6,85.7,85.7,34.0,-7.8,-22.06,4.5,45.3,3.0,-188.865,-170.4,100.0,17.1,29.5,12.0,28.3,0.0,1.0,50.4,0.0,0.0,0.0,0.0,3487.0,6733.0,1776.0,4511.0,317.0,306.5,351.3,343.5,25.23,22.9,26.15,24.74,325.0,325.0,355.0,355.0,100.0,99.88,100.0,100.0,10.57,9.98,2.87,3.02,-0.7,-1.1,7.5,4.5,83.7,69.1,83.2,74.4,87.5,76.1,84.6,76.9,83.9,72.6,82.8,74.6,81.1,70.8,81.9,73.4,-10.35,9.52,0.12,0.07,0.0,85.61,88.0,86.11,86.11,174.7,27.6,1.387227450708787,37.090476231212705,96.1471567506043,-43.21220534830246,21.60610196287152,1,1
92,4.55,180.7,44.05319170813312,-78.68129802321351,-55.4,-7.0,39.0,177.4,5288.8,5289.0,104.5,0.0,1.0,1.0,0.0,1.0,1.0,0.0,0.0,0.0,100.0,1.0,1.186,26.0,0.0,-0.063,50.194,66.0,0.0,26.0,26.0,26.0,26.0,1.42,0.28,-0.07,384.4,-2.87,-1.9,-2.81,-0.2,-666.3,530.81,5.7,0.0,0.0,0.0,0.0,0.11,-7.49,-7.49,-1.29,6.4,-0.16,5.48,29.01,0.94,-0.29,-32.72,100.0,0.0,0.0,84.92,0.0,0.0,0.0,0.0,0.0,0.0,0.0,5693.0,0.0,30.0,3.0,104.5,0.0,0.0,0.0,0.0,0.0,0.0,1.0,0.0,4.587,4.587,50.194,17.865,0.0,110.0,435.8,8750.0,0.0,0.0,110.0,110.0,433.0,0.0,0.0,0.0,1.0,333.3,72.5,72.5,80.2,80.2,34.0,-2.2,-18.6,9.1,128.7,3.0,-188.915,-168.9,100.0,14.4,29.2,14.0,37.1,0.0,1.0,50.4,0.0,0.0,0.0,0.0,1335.0,6007.0,1770.0,7849.0,322.2,309.1,350.6,335.0,25.23,22.9,26.15,24.74,325.0,325.0,355.0,355.0,100.0,99.88,100.0,100.0,10.48,9.75,3.21,3.31,-0.4,-0.8,5.6,2.3,83.7,69.2,83.2,74.4,87.5,76.3,84.6,77.0,83.9,72.8,82.8,74.6,81.1,71.0,81.8,73.5,-10.29,9.44,0.12,0.05,0.0,85.9,88.78,84.92,84.92,174.7,27.6,1.4490341610879987,34.92986594957199,97.22746190565024,-43.21220563281429,25.207120663754523,1,1
93,4.6,182.2,44.05318757125374,-78.68128615216831,-78.0,11.6,128.4,255.9,5290.3,5290.0,104.8,0.0,1.0,1.0,0.0,1.0,1.0,0.0,0.0,0.0,100.0,1.0,1.186,26.0,0.0,-0.063,50.194,66.0,0.0,26.0,26.0,26.0,26.0,1.44,0.38,0.12,381.4,-2.67,-2.1,-3.14,-0.77,-664.98,530.35,5.7,0.0,0.0,0.0,0.0,0.11,-7.49,-7.49,-1.04,3.57,-0.12,-6.09,29.11,0.95,-0.25,-27.82,100.0,0.0,0.0,84.45,0.0,0.0,0.0,0.0,0.0,0.0,0.0,5661.0,0.0,30.0,3.0,104.8,1.0,0.0,0.0,0.0,0.0,0.0,1.0,0.0,4.634,4.634,50.194,17.865,1.0,110.0,435.8,8750.0,0.0,0.0,110.0,110.0,433.0,0.0,0.0,0.0,1.0,333.3,79.1,79.1,62.3,62.3,34.0,0.0,-16.06,39.6,122.0,3.0,-188.965,-169.0,100.0,10.5,29.7,20.4,49.9,0.0,1.0,61.3,0.0,0.0,0.0,0.0,0.0,5255.0,4803.0,7232.0,325.0,310.5,344.0,336.1,25.23,22.91,26.15,24.74,325.0,325.0,355.0,355.0,100.0,99.89,100.0,100.0,0.0,10.06,3.14,3.3,0.0,-0.7,4.9,1.9,83.7,69.2,83.2,74.4,87.5,76.5,84.6,77.0,83.9,73.0,82.8,74.7,81.1,71.2,81.8,73.6,-10.29,9.43,0.1,0.02,0.0,85.95,88.72,84.45,84.45,174.7,27.6,1.4941218156495808,32.769255667931276,98.66786881697975,-39.61118806997874,57.61627417708567,1,1
94,4.65,183.6,44.05318352430651,-78.6812733818015,-35.3,-108.5,100.7,-80.0,5291.8,5292.0,105.3,0.0,1.0,1.0,0.0,1.0,1.0,0.0,0.0,0.0,100.0,1.0,1.186,26.0,0.0,-0.066,50.194,66.0,0.0,26.0,26.0,26.0,26.0,1.28,0.39,-0.12,385.1,-1.49,-1.64,-3.09,-0.28,-663.56,529.9,5.7,0.0,0.0,0.0,0.0,0.11,-7.49,-7.49,-1.02,-0.96,-0.35,-7.28,29.23,0.91,-0.23,-21.39,100.0,0.0,0.0,85.11,0.0,0.0,0.0,0.0,0.0,0.0,0.0,5706.0,0.0,30.0,3.0,105.3,0.0,0.0,0.0,0.0,0.0,0.0,1.0,0.0,4.686,4.686,50.194,17.865,0.0,110.0,435.8,8750.0,0.0,0.0,110.0,110.0,433.0,0.0,0.0,0.0,1.0,333.3,84.3,84.3,58.0,58.0,34.0,0.0,-19.93,27.4,100.7,3.0,-189.015,-171.7,100.0,8.7,24.3,25.4,45.9,0.0,1.0,68.0,0.0,0.0,0.0,0.0,0.0,6362.0,3648.0,6401.0,325.0,308.0,346.5,338.7,25.23,22.91,26.14,24.75,325.0,325.0,355.0,355.0,100.0,99.89,100.0,100.0,0.0,10.55,2.84,2.93,0.0,-0.8,4.9,2.7,83.7,69.2,83.2,74.4,87.4,76.7,84.6,77.1,83.8,73.2,82.8,74.7,81.0,71.4,81.8,73.6,-10.46,9.57,0.09,0.04,0.0,85.95,88.41,85.11,85.11,174.7,27.6,1.3434656675925887,30.968747142574117,102.98908932335881,-46.8132220576026,21.606101962871804,1,1
95,4.7,185.1,44.053179837087924,-78.68126043157038,145.5,90.8,-34.2,-73.6,5293.2,5293.0,105.6,0.0,1.0,1.0,0.0,1.0,1.0,0.0,0.0,0.0,100.0,1.0,1.186,26.0,0.0,-0.066,50.194,66.0,0.0,26.0,26.0,26.0,26.0,1.63,0.21,0.29,379.3,-1.98,-2.8,-2.56,-0.7,-662.12,529.49,5.7,0.0,0.0,0.0,0.0,0.11,-7.49,-7.49,-1.1,0.61,-0.85,-8.8,29.33,0.72,-0.32,-23.33,100.0,0.0,0.0,85.23,0.0,0.0,0.0,0.0,0.0,0.0,0.0,5714.0,0.0,30.0,3.0,105.6,1.0,0.0,0.0,0.0,0.0,0.0,1.0,0.0,4.737,4.737,50.194,17.865,1.0,110.0,435.8,8750.0,0.0,0.0,110.0,110.0,433.0,0.0,0.0,0.0,1.0,333.3,67.0,67.0,67.7,67.7,34.0,-7.3,-23.94,32.1,65.7,3.0,-189.07,-175.0,100.0,16.0,28.9,23.7,42.3,0.0,1.0,61.3,0.0,0.0,0.0,0.0,3125.0,7190.0,3823.0,4274.0,317.1,305.1,345.7,343.8,25.23,22.91,26.14,24.75,325.0,325.0,355.0,355.0,100.0,99.89,100.0,100.0,10.98,10.38,2.54,2.63,-1.1,-1.1,4.7,2.3,83.7,69.2,83.1,74.4,87.4,77.0,84.6,77.1,83.8,73.4,82.8,74.8,81.0,71.6,81.8,73.7,-10.62,9.74,0.1,0.03,0.0,86.83,88.79,85.24,85.24,174.7,27.6,1.6688618876348036,28.087933462171016,100.82847901326693,-46.81322234211436,18.00508553808342,1,1
96,4.75,186.6,44.05317650959798,-78.68124820079655,62.1,85.0,-80.0,-99.4,5294.7,5295.0,105.8,0.0,1.0,1.0,0.0,1.0,1.0,0.0,0.0,0.0,100.0,1.0,1.186,26.0,0.0,-0.069,50.194,66.0,0.0,26.0,26.0,26.0,26.0,1.38,0.17,-0.04,381.9,-2.12,-2.83,-2.45,-1.74,-660.76,529.12,5.7,0.0,0.0,0.0,0.0,0.11,-7.49,-7.49,-0.88,7.24,-0.9,-1.51,29.38,0.66,-0.28,-29.89,100.0,0.0,0.0,85.92,0.0,0.0,0.0,0.0,0.0,0.0,0.0,5760.0,0.0,30.0,3.0,105.8,0.0,0.0,0.0,0.0,0.0,0.0,1.0,0.0,4.784,4.784,50.194,17.865,0.0,110.0,435.8,8750.0,0.0,0.0,110.0,110.0,433.0,0.0,0.0,0.0,1.0,333.3,67.5,67.5,75.3,75.3,34.0,-1.8,-19.41,8.0,115.6,3.0,-189.115,-175.6,100.0,19.1,33.1,19.7,37.3,0.0,1.0,41.3,0.0,0.0,0.0,0.0,978.0,6066.0,1499.0,6652.0,322.2,308.2,351.7,338.1,25.23,22.91,26.14,24.75,325.0,325.0,355.0,355.0,100.0,99.89,100.0,100.0,10.57,9.75,2.63,2.67,-0.5,-0.9,5.2,2.2,83.7,69.2,83.1,74.4,87.5,77.2,84.5,77.1,83.9,73.6,82.8,74.8,81.1,71.8,81.8,73.7,-10.68,9.77,0.11,0.07,0.0,87.16,89.69,85.92,85.92,174.7,27.6,1.391006829602213,26.28742490836268,104.78959787716715,-39.611188354490565,79.22237670898099,1,1
97,4.8,188.0,44.0531732720402,-78.68123426131164,-97.3,-146.5,227.0,263.2,5296.2,5296.0,106.0,0.0,1.0,1.0,0.0,1.0,1.0,0.0,0.0,0.0,100.0,1.0,1.186,26.0,0.0,-0.069,50.194,66.0,0.0,26.0,26.0,26.0,26.0,1.5,0.0,0.29,377.6,-2.58,-6.11,-2.78,-0.78,-659.21,528.76,5.7,0.0,0.0,0.0,0.0,0.11,-7.49,-7.49,-0.64,1.05,-0.78,5.97,29.45,0.61,-0.23,-23.27,100.0,0.0,0.0,83.69,0.0,0.0,0.0,0.0,0.0,0.0,0.0,5610.0,0.0,30.0,3.0,106.0,1.0,0.0,0.0,0.0,0.0,0.0,1.0,0.0,4.839,4.839,50.194,17.865,1.0,110.0,435.8,8750.0,0.0,0.0,110.0,110.0,433.0,0.0,0.0,0.0,1.0,166.7,75.6,75.6,63.0,63.0,34.0,-3.4,-11.93,51.3,152.8,3.0,-189.17,-175.2,100.0,14.2,25.8,31.1,50.4,0.0,1.0,21.8,0.0,0.0,0.0,0.0,1737.0,4150.0,4123.0,7278.0,320.6,313.0,345.3,336.0,25.23,22.92,26.14,24.75,325.0,325.0,355.0,355.0,100.0,99.89,100.0,100.0,10.67,9.83,2.16,2.34,-0.7,-0.6,2.0,0.2,83.7,69.2,83.1,74.4,87.5,77.4,84.5,77.2,83.9,73.8,82.8,74.8,81.1,72.0,81.8,73.7,-10.69,9.79,0.07,0.02,0.0,87.38,89.66,83.37,84.01,174.7,27.6,1.5277761616153067,24.12681462672196,108.75071668416503,-57.61627389257395,-50.414239620438224,1,1
98,4.85,189.5,44.05317048414322,-78.68122104128405,-69.2,-167.7,-132.2,2.4,5297.6,5298.0,106.1,0.0,1.0,1.0,0.0,1.0,1.0,0.0,0.0,0.0,100.0,1.0,1.186,26.0,0.0,-0.066,50.194,66.0,0.0,26.0,26.0,26.0,26.0,0.98,0.07,-0.35,386.6,-2.04,-4.04,-2.58,-1.59,-657.74,528.45,5.7,0.0,0.0,0.0,0.0,0.11,-7.49,-7.49,-0.86,-7.9,-0.58,-0.47,29.45,0.54,-0.31,-16.97,100.0,0.0,0.0,83.39,0.0,0.0,0.0,0.0,0.0,0.0,0.0,5590.0,0.0,30.0,3.0,106.1,0.0,0.0,0.0,0.0,0.0,0.0,0.0,0.0,4.89,4.89,50.194,17.865,0.0,110.0,435.8,8750.0,0.0,0.0,110.0,110.0,433.0,0.0,0.0,0.0,1.0,166.7,84.4,84.4,76.5,76.5,34.0,-0.5,-9.04,23.4,93.9,3.0,-189.22,-175.7,100.0,10.7,17.4,24.4,50.6,0.0,1.0,8.3,0.0,0.0,0.0,0.0,378.0,3293.0,2274.0,4999.0,324.1,315.7,349.2,342.0,25.22,22.92,26.14,24.75,325.0,325.0,355.0,355.0,100.0,99.89,100.0,100.0,11.03,10.21,1.81,1.87,-0.3,-0.5,1.6,0.5,83.7,69.2,83.1,74.4,87.4,77.5,84.5,77.2,83.8,73.9,82.7,74.9,81.1,72.0,81.7,73.7,-10.74,9.86,0.09,0.03,0.0,87.45,89.01,83.05,83.72,174.7,27.6,1.0429765098025938,20.525797519105286,99.74817391512333,-54.01525661425012,-90.02542769041696,1,1
99,4.9,191.0,44.053168145907044,-78.68120935010316,118.7,-42.3,-133.8,-188.6,5299.1,5299.0,105.9,0.0,1.0,1.0,0.0,1.0,1.0,0.0,0.0,0.0,100.0,1.0,1.186,26.0,0.0,-0.066,50.194,66.0,0.0,26.0,26.0,26.0,26.0,1.16,-0.17,-0.14,388.4,-2.44,-3.75,-3.33,-2.93,-656.44,528.19,5.6,0.0,0.0,0.0,0.0,0.11,-7.49,-7.49,-1.28,-9.39,-0.48,7.4,29.4,0.47,-0.4,-18.47,100.0,0.0,0.0,82.15,0.0,0.0,0.0,0.0,0.0,0.0,0.0,5507.0,0.0,30.0,3.0,105.9,1.0,0.0,0.0,0.0,0.0,0.0,0.0,0.0,4.934,4.934,50.194,17.865,1.0,110.0,435.8,8750.0,0.0,0.0,110.0,110.0,433.0,0.0,0.0,0.0,1.0,333.3,78.3,78.3,92.3,92.3,34.0,-8.1,-9.04,18.4,67.7,3.0,-189.265,-176.5,100.0,16.7,15.3,17.8,41.1,0.0,1.0,0.0,0.0,0.0,0.0,0.0,3489.0,3356.0,2068.0,3776.0,316.6,316.0,349.9,344.8,25.22,22.92,26.14,24.75,325.0,325.0,355.0,355.0,100.0,99.89,100.0,100.0,10.67,10.05,1.6,1.72,-0.5,-0.7,0.4,-0.4,83.6,69.2,83.1,74.4,87.5,77.6,84.5,77.2,83.9,74.0,82.7,74.9,81.1,72.1,81.7,73.7,-10.74,9.93,0.1,0.04,0.0,87.31,88.82,81.63,82.67,174.7,27.6,1.1807201192492656,18.725288965296947,99.74817391512333,-36.01017107616677,61.2172906018742,1,1
100,4.95,192.4,44.05316580767087,-78.68119613007556,90.2,329.2,-179.0,-144.9,5300.6,5301.0,105.3,0.0,1.0,1.0,0.0,1.0,1.0,0.0,0.0,0.0,100.0,1.0,1.186,26.0,0.0,-0.066,50.194,66.0,0.0,26.0,26.0,26.0,26.0,1.58,-0.41,0.14,379.9,-3.02,8.86,-3.37,-1.21,-654.97,527.93,5.6,0.0,0.0,0.0,0.0,0.11,-7.49,-7.49,-1.62,-2.17,0.31,15.38,29.24,0.45,-0.53,-29.92,100.0,0.0,0.0,81.62,0.0,0.0,0.0,0.0,0.0,0.0,0.0,5471.0,0.0,30.0,3.0,105.3,0.0,0.0,0.0,0.0,0.0,0.0,0.0,0.0,4.986,4.986,50.194,17.865,0.0,110.0,435.8,8750.0,0.0,0.0,110.0,110.0,433.0,0.0,0.0,0.0,1.0,333.3,55.9,55.9,92.3,92.3,34.0,-8.4,-33.49,0.0,82.7,3.0,-189.315,-175.6,100.0,21.2,31.7,8.8,33.9,0.0,1.0,0.0,0.0,0.0,0.0,0.0,3581.0,14022.0,0.0,4544.0,315.9,287.0,355.0,343.2,25.22,22.92,26.14,24.75,325.0,325.0,355.0,355.0,100.0,99.89,100.0,100.0,9.95,9.59,0.0,1.99,-0.5,-1.1,0.0,-0.5,83.6,69.3,83.1,74.4,87.6,77.8,84.4,77.2,84.0,74.2,82.6,74.8,81.2,72.3,81.6,73.7,-10.66,9.78,0.13,0.06,0.0,86.87,89.46,80.34,82.9,174.7,27.6,1.6383223126112885,16.92478041148861,105.86990297531075,-54.01525661425012,28.80813708854305,1,1
101,5.0,193.9,44.053163919095496,-78.68118291004795,-50.1,605.4,179.6,-135.9,5302.0,5302.0,104.4,0.0,1.0,1.0,0.0,1.0,1.0,0.0,0.0,0.0,100.0,1.0,1.186,26.0,0.0,-0.066,50.194,66.0,0.0,26.0,26.0,26.0,26.0,1.92,-0.46,0.64,370.8,-1.58,7.62,-2.34,-1.57,-653.5,527.72,5.6,0.0,0.0,0.0,0.0,0.11,-7.49,-7.49,-0.75,29.93,-0.46,-38.92,28.97,0.55,-0.55,-44.04,100.0,0.0,0.0,81.99,0.0,0.0,0.0,0.0,0.0,0.0,0.0,5496.0,0.0,30.0,3.0,104.4,1.0,0.0,0.0,0.0,0.0,0.0,0.0,0.0,5.037,5.037,50.194,17.865,1.0,110.0,435.8,8750.0,0.0,0.0,110.0,110.0,433.0,0.0,0.0,0.0,1.0,333.3,45.6,45.6,41.3,41.3,34.0,-0.9,-43.22,69.3,32.5,3.0,-189.37,-173.1,100.0,18.7,62.0,17.8,27.1,0.0,1.0,4.0,0.0,0.0,0.0,0.0,632.0,16006.0,4547.0,2856.0,323.7,280.9,343.9,347.4,25.22,22.93,26.14,24.75,325.0,325.0,355.0,355.0,100.0,99.89,100.0,100.0,9.99,9.47,3.32,3.52,-0.0,-0.9,-0.2,-1.4,83.6,69.3,83.1,74.4,87.6,78.2,84.4,77.2,84.0,74.7,82.6,74.8,81.2,73.0,81.6,73.7,-10.55,9.62,0.1,0.08,0.0,86.63,89.96,80.37,83.61,174.7,27.6,2.0754758490524527,13.323763303871935,102.62898762397764,-64.81830816470958,-32.40915351333115,1,1
102,5.05,195.3,44.05316248018093,-78.68117049940979,-79.5,-298.3,709.4,405.9,5303.5,5303.0,104.1,0.0,1.0,1.0,0.0,1.0,1.0,0.0,0.0,0.0,100.0,1.0,1.186,26.0,0.0,-0.066,50.194,66.0,0.0,26.0,26.0,26.0,26.0,2.0,0.13,0.84,365.6,1.24,5.78,-1.26,8.22,-652.12,527.56,5.6,0.0,0.0,0.0,0.0,0.11,-7.49,-7.49,0.77,32.1,-2.24,-36.06,28.91,0.69,0.0,-37.64,100.0,0.0,0.0,83.13,0.0,0.0,0.0,0.0,0.0,0.0,0.0,5572.0,0.0,30.0,3.0,104.1,0.0,0.0,0.0,0.0,0.0,0.0,0.0,0.0,5.084,5.084,50.194,17.865,0.0,110.0,435.8,8750.0,0.0,0.0,110.0,110.0,433.0,0.0,0.0,0.0,1.0,333.3,80.9,80.9,-5.8,-5.8,34.0,0.0,-24.33,142.9,125.8,3.0,-189.415,-170.3,100.0,14.7,47.1,53.3,47.4,0.0,1.0,37.7,0.0,0.0,0.0,0.0,0.0,9230.0,9060.0,8856.0,325.0,299.6,332.7,332.1,25.22,22.93,26.14,24.75,325.0,325.0,355.0,355.0,100.0,99.89,100.0,100.0,0.0,9.69,3.75,3.93,0.0,-0.6,2.0,0.3,83.6,69.3,83.1,74.4,87.5,78.5,84.4,77.3,83.9,75.0,82.6,74.9,81.1,73.3,81.6,73.8,-10.39,9.47,0.01,0.03,0.0,86.58,89.5,82.24,84.01,174.7,27.6,2.173131381210073,10.44294959501765,102.62898762397764,-46.81322234211439,68.4193245894977,1,1
103,5.1,196.8,44.053161311062844,-78.68115727938218,-179.7,-897.4,151.5,426.8,5304.9,5305.0,104.6,0.0,1.0,1.0,0.0,1.0,1.0,0.0,0.0,0.0,100.0,1.0,1.186,26.0,0.0,-0.063,50.194,66.0,0.0,26.0,26.0,26.0,26.0,1.17,0.43,0.37,393.4,3.59,-6.63,0.8,6.71,-650.65,527.43,5.7,0.0,0.0,0.0,0.0,0.12,-7.49,-7.49,1.63,2.54,-3.41,-10.4,29.06,0.57,0.21,-9.12,100.0,0.0,0.0,82.78,0.0,0.0,0.0,0.0,0.0,0.0,0.0,5549.0,0.0,30.0,3.0,104.6,1.0,0.0,0.0,0.0,0.0,0.0,0.0,0.0,5.136,5.136,50.194,17.865,1.0,110.0,435.8,8750.0,0.0,0.0,110.0,110.0,433.0,0.0,0.0,0.0,1.0,333.3,146.8,146.8,4.9,4.9,34.0,0.0,0.0,171.9,163.1,3.0,-189.465,-169.7,100.0,5.7,2.2,60.8,68.7,0.0,1.0,54.7,0.0,0.0,0.0,0.0,0.0,0.0,8783.0,12494.0,325.0,325.0,333.3,322.7,25.22,22.93,26.14,24.75,325.0,325.0,355.0,355.0,100.0,99.89,100.0,100.0,0.0,0.0,2.12,2.23,0.0,0.0,2.0,0.6,83.6,69.3,83.1,74.4,87.4,78.5,84.5,77.3,83.9,75.0,82.7,75.0,81.1,73.3,81.7,74.0,-10.39,9.66,0.01,-0.02,0.0,86.58,89.15,82.77,82.77,174.7,27.6,1.3002692028960772,8.642441069660496,109.4709200829274,-61.21729060187402,-5.690236548616667e-07,1,1
104,5.15,198.2,44.053160321809074,-78.68114316003297,-41.7,-21.1,-611.7,-327.8,5306.4,5306.0,105.2,0.0,1.0,1.0,0.0,1.0,1.0,0.0,0.0,0.0,100.0,1.0,1.186,26.0,0.0,-0.057,50.194,66.0,0.0,26.0,26.0,26.0,26.0,0.25,0.11,-0.82,439.9,3.55,-7.34,2.41,-5.92,-649.08,527.32,5.7,0.0,0.0,0.0,0.0,0.12,-7.49,-7.49,1.0,-18.67,-4.32,-26.52,29.22,0.3,-0.07,1.69,100.0,0.0,0.0,85.06,0.0,0.0,0.0,0.0,0.0,0.0,0.0,5702.0,0.0,30.0,3.0,105.2,0.0,0.0,0.0,0.0,0.0,0.0,0.0,0.0,5.19,5.19,50.194,17.865,0.0,110.0,435.8,8750.0,0.0,0.0,110.0,110.0,433.0,0.0,0.0,0.0,1.0,166.7,185.4,185.4,71.4,71.4,34.0,0.0,0.0,0.0,19.8,3.0,-189.52,-169.3,100.0,3.6,1.2,30.2,52.3,0.0,1.0,56.3,0.0,0.0,0.0,0.0,0.0,0.0,0.0,1868.0,325.0,325.0,355.0,349.6,25.22,22.93,26.14,24.75,325.0,325.0,355.0,355.0,100.0,99.89,100.0,100.0,0.0,0.0,0.0,0.74,0.0,0.0,0.0,3.0,83.6,69.3,83.1,74.4,87.4,78.4,84.4,77.3,83.8,74.9,82.7,75.0,81.0,73.3,81.7,74.0,-10.37,9.66,0.08,0.03,0.0,86.58,89.15,85.06,85.06,174.7,27.6,0.864291617453276,4.321220534830248,102.62898756707527,-50.41423962043819,-133.23763275420745,1,1
105,5.2,199.6,44.053160231876916,-78.68113164871642,-44.9,-12.7,-479.5,-888.2,5307.8,5308.0,100.1,0.0,1.0,1.0,0.0,1.0,1.0,0.0,0.0,0.0,100.0,1.0,1.186,26.0,0.0,-0.057,50.194,66.0,0.0,26.0,26.0,26.0,26.0,6.42,-3.07,-0.65,462.8,-7.76,-7.91,4.33,-6.09,-647.8,527.31,5.7,0.0,0.0,0.0,0.0,0.12,-7.49,-7.49,0.18,-4.58,-5.05,-19.73,27.7,-1.67,-0.14,-109.67,100.0,0.0,0.0,93.96,0.0,0.0,0.0,0.0,0.0,0.0,0.0,6299.0,0.0,30.0,3.0,100.1,1.0,0.0,0.0,0.0,0.0,0.0,0.0,0.0,5.234,5.234,50.194,17.865,1.0,110.0,435.8,8750.0,0.0,0.0,110.0,110.0,433.0,0.0,0.0,0.0,1.0,333.3,193.4,193.4,118.1,118.1,34.0,0.0,0.0,0.0,0.0,3.0,-189.565,-166.5,100.0,1.4,0.5,6.3,7.9,0.0,1.0,57.4,0.0,0.0,0.0,0.0,0.0,0.0,0.0,0.0,325.0,325.0,355.0,355.0,25.22,22.94,26.14,24.75,325.0,325.0,355.0,355.0,100.0,99.89,100.0,100.0,0.0,0.0,0.0,0.0,0.0,0.0,0.0,0.0,83.6,69.3,83.1,74.4,87.3,78.3,84.4,77.3,83.7,74.9,82.6,75.0,81.0,73.2,81.6,73.9,-10.21,9.53,0.14,0.11,0.0,86.58,89.15,93.96,93.96,174.7,27.6,7.14589392588499,3.6010171076166766,96.14715680750666,57.61627360806205,-39.611187500955225,1,1
106,5.25,201.0,44.05316122113068,-78.6811191481461,-9.6,-29.3,-50.7,-130.0,5309.1,5309.0,97.9,0.0,1.0,1.0,0.0,1.0,1.0,0.0,0.0,0.0,100.0,1.0,1.186,26.0,0.0,-0.057,50.194,66.0,0.0,26.0,26.0,26.0,26.0,1.16,-0.4,-0.6,473.4,5.79,-9.12,5.67,-7.41,-646.41,527.42,5.7,0.0,0.0,0.0,0.0,0.12,-7.49,-7.49,-0.34,10.92,-6.43,-34.19,27.19,0.37,0.25,-163.13,100.0,0.0,0.0,104.79,0.0,0.0,0.0,0.0,0.0,0.0,0.0,7025.0,0.0,30.0,3.0,97.9,0.0,0.0,0.0,0.0,0.0,0.0,0.0,0.0,5.286,5.286,50.194,17.865,0.0,110.0,435.8,8750.0,0.0,0.0,110.0,110.0,433.0,0.0,0.0,0.0,1.0,333.3,186.8,186.8,132.9,132.9,34.0,0.0,0.0,0.0,0.0,3.0,-189.615,-159.8,100.0,0.9,-0.9,3.7,1.4,0.0,1.0,64.8,0.0,0.0,0.0,0.0,0.0,0.0,0.0,0.0,325.0,325.0,355.0,355.0,25.22,22.94,26.13,24.75,325.0,325.0,355.0,355.0,100.0,99.89,100.0,100.0,0.0,0.0,0.0,0.0,0.0,0.0,0.0,0.0,83.6,69.4,83.1,74.4,87.2,78.3,84.3,77.2,83.7,74.8,82.5,74.9,80.9,73.2,81.6,73.9,-9.82,9.2,0.13,0.11,0.0,86.58,89.15,104.79,104.79,174.7,27.6,1.3658696863171098,10.082847895636453,98.66786881697975,133.2376330387193,-43.21220506379049,1,1
107,5.3,202.3,44.05316274997741,-78.6811070073044,21.7,71.0,-233.7,-70.8,5310.4,5310.0,93.8,0.0,1.0,1.0,0.0,1.0,1.0,0.0,0.0,0.0,100.0,1.0,1.186,26.0,0.0,-0.051,50.194,66.0,0.0,26.0,26.0,26.0,26.0,12.39,-2.37,0.84,444.4,6.28,-9.79,-6.11,-8.08,-645.06,527.59,5.7,0.0,0.0,0.0,0.0,0.12,-7.49,-7.49,-1.16,-11.06,-7.04,-16.87,25.96,1.42,0.54,-70.96,100.0,0.0,0.0,114.05,0.0,0.0,0.0,0.0,0.0,0.0,0.0,7646.0,0.0,30.0,3.0,93.8,1.0,0.0,0.0,0.0,0.0,0.0,0.0,0.0,5.337,5.337,50.194,17.865,1.0,110.0,435.8,8750.0,0.0,0.0,110.0,110.0,433.0,0.0,0.0,0.0,1.0,333.3,135.2,135.2,140.0,140.0,34.0,0.0,0.0,-2.6,0.0,3.0,-189.67,-153.0,100.0,2.0,2.6,-7.9,-2.1,1.0,1.0,73.8,0.0,0.0,0.0,0.0,0.0,0.0,5966.0,0.0,325.0,325.0,341.5,355.0,25.22,22.94,26.13,24.75,325.0,325.0,355.0,355.0,100.0,99.89,100.0,100.0,0.0,0.0,7.39,0.0,0.0,0.0,56.1,0.0,83.6,69.4,83.1,74.4,87.2,78.2,84.3,77.2,83.6,74.8,82.5,74.9,80.8,73.1,81.5,73.8,-9.38,8.77,0.14,0.14,0.0,86.58,89.15,111.87,116.24,174.7,27.6,12.64257094107049,16.92478041148861,91.82593630112761,133.23763303871942,-97.22746224706441,1,1
108,5.35,203.6,44.05316544794223,-78.68109621544514,772.5,36.7,378.2,-96.3,5311.7,5312.0,93.0,0.0,1.0,1.0,0.0,1.0,1.0,0.0,0.0,0.0,100.0,1.0,1.186,26.0,0.0,-0.042,50.194,66.0,0.0,26.0,26.0,26.0,26.0,2.87,-0.28,0.78,411.5,5.97,-10.72,7.01,-9.08,-643.86,527.89,5.6,0.0,0.0,0.0,0.0,0.12,-7.49,-7.49,-1.98,-18.3,-8.06,1.28,25.83,0.03,0.1,5.57,100.0,0.0,0.0,105.97,0.0,0.0,0.0,0.0,0.0,0.0,0.0,7104.0,0.0,30.0,3.0,93.0,0.0,0.0,0.0,0.0,0.0,0.0,1.0,0.0,5.384,5.384,50.194,17.865,0.0,110.0,435.8,8750.0,0.0,0.0,110.0,110.0,433.0,0.0,0.0,0.0,1.0,333.3,73.7,73.7,133.4,133.4,34.0,-34.2,0.0,-1.2,0.0,3.0,-189.715,-147.3,100.0,40.6,4.5,11.0,-6.9,1.0,1.0,77.7,0.0,0.0,0.0,0.0,9928.0,0.0,4751.0,0.0,300.6,325.0,344.4,355.0,25.21,22.94,26.13,24.75,325.0,325.0,355.0,355.0,100.0,99.89,100.0,100.0,9.45,0.0,0.3,0.0,-1.0,0.0,25.5,0.0,83.6,69.4,83.1,74.4,87.3,78.2,84.5,77.1,83.7,74.7,82.7,74.8,81.0,73.1,81.7,73.8,-8.7,8.44,0.12,0.14,0.0,77.54,89.15,87.63,124.33,174.7,27.6,2.987256266208174,23.406611199508397,88.94512259227331,97.22746196255261,-5.690237969702139e-07,1,1
109,5.4,204.9,44.05316859556785,-78.68108479406074,163.3,469.6,159.1,265.8,5313.0,5313.0,93.0,0.0,1.0,1.0,0.0,1.0,1.0,0.0,0.0,0.0,100.0,1.0,1.186,26.0,0.0,-0.027,50.194,66.0,0.0,26.0,26.0,26.0,26.0,0.91,0.2,1.26,382.2,3.75,-9.15,5.05,-6.97,-642.59,528.24,5.6,0.0,0.0,0.0,0.0,0.12,-7.49,-7.49,-1.67,33.91,-5.56,77.27,25.84,-0.52,-0.49,-12.41,100.0,0.0,0.0,103.74,0.0,0.0,0.0,0.0,0.0,0.0,0.0,6955.0,0.0,30.0,3.0,93.0,1.0,0.0,0.0,0.0,0.0,0.0,1.0,0.0,5.436,5.436,50.194,17.865,1.0,110.0,435.8,8750.0,0.0,0.0,110.0,110.0,433.0,0.0,0.0,0.0,1.0,333.3,51.3,51.3,93.6,93.6,34.0,10.0,-2.72,-10.3,0.0,3.0,-189.765,-139.1,100.0,48.8,27.9,18.9,6.4,1.0,1.0,80.9,0.0,0.0,0.0,0.0,4963.0,5102.0,3757.0,3646.0,311.4,311.2,345.8,347.9,25.22,22.94,26.13,24.75,325.0,325.0,355.0,355.0,100.0,99.89,100.0,100.0,5.29,5.57,-1.87,-1.02,-0.4,-0.9,6.8,67.5,83.6,69.4,83.1,74.4,87.4,78.2,84.5,77.1,83.9,74.8,82.8,74.8,81.2,73.1,81.8,73.8,-8.21,7.88,0.1,0.13,0.0,79.31,80.65,77.5,129.98,174.7,27.6,1.5670673246545601,26.64752660774387,91.82593624422523,54.01525689876191,32.40915351333115,1,1
110,5.45,206.2,44.05317210292211,-78.6810732827442,-800.0,68.2,73.7,1243.6,5314.3,5314.0,94.8,0.0,1.0,1.0,0.0,1.0,1.0,0.0,0.0,0.0,100.0,1.0,1.186,26.0,0.0,-0.027,50.194,66.0,0.0,26.0,26.0,26.0,26.0,1.11,0.47,0.73,378.6,1.67,-6.24,1.12,-4.64,-641.31,528.63,5.6,0.0,0.0,0.0,0.0,0.12,-7.49,-7.49,0.07,30.9,-2.48,32.2,26.34,-0.32,0.09,-32.45,100.0,0.0,0.0,74.72,0.0,0.0,0.0,0.0,0.0,0.0,0.0,5009.0,0.0,30.0,3.0,94.8,0.0,0.0,0.0,0.0,0.0,0.0,1.0,0.0,5.487,5.487,50.194,17.865,0.0,110.0,435.8,8750.0,0.0,0.0,110.0,110.0,433.0,0.0,0.0,0.0,1.0,333.3,91.0,91.0,44.8,44.8,34.0,0.0,44.94,1.3,231.7,3.0,-189.815,-127.2,100.0,8.8,31.3,22.6,68.6,0.0,1.0,84.4,0.0,0.0,0.0,0.0,0.0,6009.0,3386.0,13560.0,325.0,308.3,346.8,320.5,25.22,22.94,26.13,24.75,325.0,325.0,355.0,355.0,100.0,99.9,100.0,100.0,0.0,4.44,0.32,0.31,0.0,-0.4,10.0,-0.9,83.6,69.4,83.1,74.4,87.4,78.3,84.5,77.8,83.9,74.8,82.8,75.4,81.2,73.2,81.8,74.3,-7.77,7.24,0.09,-0.01,0.0,79.4,83.26,77.81,71.64,174.7,27.6,1.4092196422133776,28.80813688938459,92.18603794360642,28.80813680403115,-21.606101962871662,1,1
111,5.5,207.5,44.0531757901407,-78.68106177142764,-9.1,-296.1,156.8,245.4,5315.7,5316.0,95.4,0.0,1.0,1.0,0.0,1.0,1.0,0.0,0.0,0.0,100.0,1.0,1.186,26.0,0.0,-0.018,50.194,66.0,0.0,26.0,26.0,26.0,26.0,1.1,0.42,0.49,390.4,1.88,-5.49,0.54,-4.47,-640.03,529.04,5.6,0.0,0.0,0.0,0.0,0.12,-7.49,-7.49,0.84,2.18,-2.25,-15.81,26.52,-0.23,0.01,-24.61,100.0,0.0,0.0,76.49,0.0,0.0,0.0,0.0,0.0,0.0,0.0,5128.0,0.0,30.0,3.0,95.4,1.0,0.0,0.0,0.0,0.0,0.0,1.0,0.0,5.538,5.538,50.194,17.865,1.0,110.0,435.8,8750.0,0.0,0.0,110.0,110.0,433.0,0.0,0.0,0.0,1.0,166.7,122.3,122.3,35.0,35.0,34.0,0.0,7.25,25.4,293.2,3.0,-189.865,-113.0,100.0,8.3,16.5,30.4,80.8,0.0,1.0,87.5,0.0,0.0,0.0,0.0,0.0,1913.0,3452.0,13097.0,325.0,319.4,346.5,320.4,25.21,22.95,26.13,24.75,325.0,325.0,355.0,355.0,100.0,99.9,100.0,100.0,0.0,4.87,0.97,0.81,0.0,-0.1,3.7,0.7,83.6,69.4,83.1,74.5,87.3,78.4,84.5,77.9,83.8,74.9,82.7,75.5,81.1,73.2,81.8,74.4,-6.93,6.55,0.08,-0.05,0.0,79.4,82.18,76.49,76.49,174.7,27.6,1.27534309109353,29.528340288146985,89.66532604793807,25.20711952570732,-21.606101962871662,1,1
112,5.55,208.9,44.05317947735928,-78.6810508896362,-48.2,-275.1,-212.2,-568.6,5317.0,5317.0,96.2,0.0,1.0,1.0,0.0,1.0,1.0,0.0,0.0,0.0,100.0,1.0,1.186,26.0,0.0,-0.006,50.194,66.0,0.0,26.0,26.0,26.0,26.0,0.45,0.49,-0.56,413.7,1.47,-6.3,3.15,-5.37,-638.82,529.45,5.6,0.0,0.0,0.0,0.0,0.12,-7.49,-7.49,0.49,-10.81,-3.65,-36.16,26.73,-0.07,-0.02,-17.07,100.0,0.0,0.0,78.2,0.0,0.0,0.0,0.0,0.0,0.0,0.0,5242.0,0.0,30.0,3.0,96.2,0.0,0.0,0.0,0.0,0.0,0.0,1.0,0.0,5.586,5.586,50.194,17.865,0.0,110.0,435.8,8750.0,0.0,0.0,110.0,110.0,433.0,0.0,0.0,0.0,1.0,333.3,135.4,135.4,67.3,67.3,34.0,0.0,0.0,9.2,71.2,3.0,-189.915,-96.3,100.0,5.9,2.8,19.8,52.4,0.0,1.0,88.7,0.0,0.0,0.0,0.0,0.0,0.0,1614.0,4849.0,325.0,325.0,350.8,341.8,25.21,22.95,26.13,24.75,325.0,325.0,355.0,355.0,100.0,99.9,100.0,100.0,0.0,0.0,1.23,1.07,0.0,0.0,5.5,3.1,83.6,69.4,83.1,74.5,87.2,78.3,84.5,78.0,83.7,74.8,82.7,75.5,81.1,73.1,81.7,74.4,-5.93,5.71,0.1,0.02,0.0,79.4,82.02,78.2,78.2,174.7,27.6,0.8695976080923866,31.32884884195532,90.02542774731926,25.20711981021904,7.202033418600138,1,1
75,3.7,156.6,44.053319591665485,-78.68147473990908,25.6,47.7,-44.3,-104.7,6986.7,6987.0,115.5,0.0,1.0,1.0,0.0,1.0,1.0,0.0,0.0,0.0,100.0,1.0,1.186,26.0,0.0,-0.012,48.272,66.0,0.0,26.0,26.0,26.0,26.0,1.62,-0.24,0.07,382.0,-2.81,-2.71,-2.53,-0.94,-685.95,545.03,5.8,0.0,0.0,0.0,0.0,0.09,-7.49,-7.49,-1.09,1.61,-0.92,1.59,32.05,1.04,-0.42,-29.51,100.0,0.0,0.0,89.92,0.0,0.0,0.0,0.0,0.0,0.0,0.0,4796.0,0.0,30.0,4.0,115.5,0.0,0.0,0.0,0.0,0.0,0.0,0.0,0.0,3.717,3.717,48.272,17.725,0.0,110.0,435.8,8750.0,0.0,0.0,110.0,110.0,433.0,0.0,0.0,0.0,1.0,166.7,68.2,68.2,71.7,71.7,34.0,-0.6,-8.26,23.0,103.1,4.0,-236.315,-102.0,100.0,14.9,32.4,20.8,37.9,0.0,1.0,0.0,0.0,0.0,0.0,0.0,1513.0,6880.0,1882.0,5871.0,321.3,305.9,350.3,339.9,25.44,22.7,26.51,24.76,325.0,325.0,355.0,355.0,99.99,99.98,99.98,100.0,6.54,6.29,3.02,3.09,-0.2,-0.6,-0.2,-0.4,85.0,67.9,85.4,74.5,88.9,70.8,87.7,76.8,85.5,67.7,85.9,74.5,82.6,66.2,84.7,73.4,-6.02,5.7,0.09,0.05,0.0,96.5,98.73,88.83,91.0,174.7,27.6,1.639176622576103,77.4218678422097,88.94512259227331,-72.02034215233368,3.601018131859064,1,1
76,3.75,158.2,44.05331005885646,-78.681463498389,-40.2,-38.9,-34.3,161.5,6988.3,6988.0,115.0,0.0,1.0,1.0,0.0,1.0,1.0,0.0,0.0,0.0,100.0,1.0,1.186,26.0,0.0,-0.018,48.272,66.0,0.0,26.0,26.0,26.0,26.0,1.52,-0.16,0.07,382.4,-2.73,-2.56,-2.04,-1.69,-684.7,543.97,5.8,0.0,0.0,0.0,0.0,0.09,-7.49,-7.49,-1.06,-0.62,-0.93,-5.11,31.92,1.08,-0.39,-27.3,100.0,0.0,0.0,89.46,0.0,0.0,0.0,0.0,0.0,0.0,0.0,4772.0,0.0,30.0,4.0,115.0,1.0,0.0,0.0,0.0,0.0,0.0,0.0,0.0,3.768,3.768,48.272,17.725,1.0,110.0,435.8,8750.0,0.0,0.0,110.0,110.0,433.0,0.0,0.0,0.0,1.0,166.7,72.7,72.7,73.2,73.2,34.0,-0.4,-16.44,22.5,104.2,4.0,-236.365,-108.3,100.0,12.9,30.5,19.1,46.0,0.0,1.0,0.0,0.0,0.0,0.0,0.0,364.0,6093.0,1833.0,6013.0,324.1,308.2,350.3,338.8,25.44,22.7,26.51,24.77,325.0,325.0,355.0,355.0,99.99,99.98,99.98,100.0,7.22,6.86,3.09,3.2,0.1,-0.4,-0.1,-0.4,85.0,67.9,85.4,74.5,88.8,71.0,87.6,76.9,85.4,67.9,85.9,74.6,82.6,66.3,84.7,73.5,-6.41,6.05,0.11,0.04,0.0,96.15,98.06,88.49,90.43,174.7,27.6,1.53,72.74054560799826,87.50471579474852,-90.02542769041682,-28.808137088542907,1,1
77,3.8,159.8,44.05330142536904,-78.68145288639404,-17.2,-25.9,69.9,-92.7,6989.9,6990.0,114.6,0.0,1.0,1.0,0.0,1.0,1.0,0.0,0.0,0.0,100.0,1.0,1.186,26.0,0.0,-0.027,48.272,66.0,0.0,26.0,26.0,26.0,26.0,1.45,-0.19,-0.03,383.6,-3.06,-3.53,-1.94,-1.19,-683.52,543.01,5.8,0.0,0.0,0.0,0.0,0.1,-7.49,-7.49,-1.16,-2.37,-1.22,-3.93,31.81,1.09,-0.4,-25.24,100.0,0.0,0.0,89.07,0.0,0.0,0.0,0.0,0.0,0.0,0.0,4751.0,0.0,30.0,4.0,114.6,0.0,0.0,0.0,0.0,0.0,0.0,0.0,0.0,3.816,3.816,48.272,17.725,0.0,110.0,435.8,8750.0,0.0,0.0,110.0,110.0,433.0,0.0,0.0,0.0,1.0,166.7,74.9,74.9,68.6,68.6,34.0,-0.6,-16.44,44.3,83.1,4.0,-236.415,-114.5,100.0,12.0,29.2,22.6,41.4,0.0,1.0,0.0,0.0,0.0,0.0,0.0,356.0,5244.0,3132.0,5005.0,323.5,310.4,347.5,341.9,25.44,22.7,26.51,24.77,325.0,325.0,355.0,355.0,99.99,99.98,99.98,100.0,7.76,7.38,3.04,3.14,0.1,-0.5,-0.2,-0.4,85.0,67.9,85.4,74.5,88.8,71.1,87.6,76.9,85.4,68.0,85.8,74.6,82.6,66.4,84.7,73.5,-6.81,6.4,0.1,0.04,0.0,95.7,97.41,88.16,89.98,174.7,27.6,1.4627029773675857,68.41932507316803,86.06430888341902,-43.21220534830232,28.808135950495597,1,1
78,3.85,161.4,44.05329297174595,-78.68144200460262,98.6,32.3,-38.3,-55.2,6991.5,6991.0,114.2,0.0,1.0,1.0,0.0,1.0,1.0,0.0,0.0,0.0,100.0,1.0,1.186,26.0,0.0,-0.033,48.272,66.0,0.0,26.0,26.0,26.0,26.0,1.61,-0.1,0.13,381.6,-3.66,-1.65,-1.06,-0.48,-682.31,542.07,5.8,0.0,0.0,0.0,0.0,0.1,-7.49,-7.49,-1.27,0.32,-1.25,2.17,31.71,1.05,-0.45,-28.1,100.0,0.0,0.0,90.65,0.0,0.0,0.0,0.0,0.0,0.0,0.0,4835.0,0.0,30.0,4.0,114.2,1.0,0.0,0.0,0.0,0.0,0.0,0.0,0.0,3.864,3.864,48.272,17.725,1.0,110.0,435.8,8750.0,0.0,0.0,110.0,110.0,433.0,0.0,0.0,0.0,1.0,166.7,67.0,67.0,77.5,77.5,34.0,-5.2,-22.95,8.5,105.0,4.0,-236.465,-119.2,100.0,17.0,30.8,20.7,38.6,0.0,1.0,23.4,0.0,0.0,0.0,0.0,2513.0,7096.0,1077.0,5906.0,318.7,306.4,352.8,340.0,25.44,22.7,26.51,24.77,325.0,325.0,355.0,355.0,99.99,99.98,99.98,100.0,7.72,7.44,3.02,3.1,-0.2,-0.7,2.7,0.1,85.0,67.9,85.4,74.5,88.8,71.3,87.6,77.0,85.4,68.2,85.8,74.6,82.6,66.6,84.6,73.5,-7.1,6.68,0.1,0.05,0.0,95.14,97.22,90.65,90.65,174.7,27.6,1.6183324751113413,68.41932507316803,90.38552938979808,-21.606102816407144,54.01525661424998,1,1
79,3.9,163.0,44.05328433825853,-78.68143031342174,-47.4,68.0,-67.2,-9.8,6993.1,6993.0,114.1,0.0,1.0,1.0,0.0,1.0,1.0,0.0,0.0,0.0,100.0,1.0,1.186,26.0,0.0,-0.042,48.272,66.0,0.0,26.0,26.0,26.0,26.0,1.47,0.11,-0.02,382.4,-2.45,-1.84,-3.25,-0.83,-681.01,541.11,5.8,0.0,0.0,0.0,0.0,0.1,-7.49,-7.49,-1.15,4.93,-1.26,-4.85,31.68,1.12,-0.39,-30.83,100.0,0.0,0.0,91.86,0.0,0.0,0.0,0.0,0.0,0.0,0.0,4900.0,0.0,30.0,4.0,114.1,0.0,0.0,0.0,0.0,0.0,0.0,0.0,0.0,3.914,3.914,48.272,17.725,0.0,110.0,435.8,8750.0,0.0,0.0,110.0,110.0,433.0,0.0,0.0,0.0,1.0,333.3,69.1,69.1,71.9,71.9,34.0,-0.3,-23.36,14.5,108.3,4.0,-236.515,-123.5,100.0,14.6,34.2,17.3,38.1,0.0,1.0,47.2,0.0,0.0,0.0,0.0,305.0,6946.0,2099.0,6680.0,324.6,305.3,350.2,338.2,25.44,22.7,26.51,24.77,325.0,325.0,355.0,355.0,99.99,99.98,99.98,100.0,8.09,7.67,3.29,3.4,-0.2,-0.6,4.4,1.4,85.0,67.9,85.4,74.5,88.8,71.6,87.5,77.0,85.4,68.4,85.8,74.7,82.6,66.8,84.6,73.6,-7.38,6.91,0.11,0.06,0.0,94.94,97.34,91.86,91.86,174.7,27.6,1.4742455697745882,66.25871479152731,91.46583454484401,-43.21220563281443,28.80813765756642,1,1
80,3.95,164.6,44.0532764242284,-78.68141916183383,-61.5,-99.5,199.3,106.4,6994.7,6995.0,114.3,0.0,1.0,1.0,0.0,1.0,1.0,0.0,0.0,0.0,100.0,1.0,1.186,26.0,0.0,-0.048,48.272,66.0,0.0,26.0,26.0,26.0,26.0,1.55,0.2,0.11,380.0,-2.75,-2.64,-3.35,-0.22,-679.77,540.23,5.8,0.0,0.0,0.0,0.0,0.1,-7.49,-7.49,-1.02,1.23,-1.45,-2.41,31.75,1.11,-0.33,-24.05,100.0,0.0,0.0,91.05,0.0,0.0,0.0,0.0,0.0,0.0,0.0,4857.0,0.0,30.0,4.0,114.3,1.0,0.0,0.0,0.0,0.0,0.0,0.0,0.0,3.963,3.963,48.272,17.725,1.0,110.0,435.8,8750.0,0.0,0.0,110.0,110.0,433.0,0.0,0.0,0.0,1.0,333.3,76.5,76.5,61.2,61.2,34.0,0.0,-15.56,42.7,149.6,4.0,-236.565,-128.5,100.0,11.5,29.2,27.3,43.4,0.0,1.0,60.2,0.0,0.0,0.0,0.0,0.0,5023.0,3876.0,7912.0,324.9,310.8,345.5,334.7,25.43,22.7,26.51,24.77,325.0,325.0,355.0,355.0,99.99,99.98,99.98,100.0,0.0,8.2,3.05,3.2,0.0,-0.5,3.2,0.8,85.0,67.9,85.4,74.5,88.8,71.7,87.5,77.1,85.3,68.6,85.8,74.7,82.5,67.0,84.6,73.6,-7.69,7.2,0.08,0.05,0.0,94.96,97.05,91.05,91.05,174.7,27.6,1.5667163112701674,64.09810450988658,93.26634315555472,-7.202033987623935,93.62644525325265,1,1
81,4.0,166.1,44.05326833033395,-78.68140702099214,57.0,-13.7,-69.9,23.1,6996.3,6996.0,114.5,0.0,1.0,1.0,0.0,1.0,1.0,0.0,0.0,0.0,100.0,1.0,1.186,26.0,0.0,-0.057,48.272,66.0,0.0,26.0,26.0,26.0,26.0,1.54,0.14,0.11,379.7,-1.56,-2.65,-2.03,0.39,-678.42,539.33,5.8,0.0,0.0,0.0,0.0,0.1,-7.49,-7.49,-1.05,1.06,-1.6,-1.8,31.8,1.0,-0.36,-24.12,100.0,0.0,0.0,91.89,0.0,0.0,0.0,0.0,0.0,0.0,0.0,4901.0,0.0,30.0,4.0,114.5,0.0,0.0,0.0,0.0,0.0,0.0,0.0,0.0,4.014,4.014,48.272,17.725,0.0,110.0,435.8,8750.0,0.0,0.0,110.0,110.0,433.0,0.0,0.0,0.0,1.0,333.3,70.2,70.2,67.2,67.2,34.0,-2.9,-24.55,28.5,104.6,4.0,-236.615,-134.9,100.0,14.4,28.6,23.8,44.6,0.0,1.0,73.8,0.0,0.0,0.0,0.0,1505.0,7332.0,3015.0,6053.0,321.6,305.0,347.9,339.8,25.43,22.7,26.51,24.77,325.0,325.0,355.0,355.0,99.99,99.98,99.98,100.0,8.84,8.41,2.79,2.9,-0.4,-0.8,3.9,1.6,85.0,67.9,85.4,74.5,88.8,71.9,87.5,77.1,85.3,68.8,85.7,74.8,82.5,67.1,84.6,73.7,-8.06,7.53,0.1,0.03,0.0,95.09,96.97,91.89,91.89,174.7,27.6,1.5502580430367068,65.53851139276492,100.82847907016928,-25.207119241195386,64.8183075956861,1,1
82,4.05,167.7,44.05326005657517,-78.68139398082886,-41.4,-66.2,-46.0,-58.9,6997.9,6998.0,114.8,0.0,1.0,1.0,0.0,1.0,1.0,0.0,0.0,0.0,100.0,1.0,1.186,26.0,0.0,-0.066,48.272,66.0,0.0,26.0,26.0,26.0,26.0,1.35,0.29,-0.13,384.3,-2.14,-3.92,-2.44,-0.62,-676.97,538.41,5.8,0.0,0.0,0.0,0.0,0.1,-7.49,-7.49,-1.01,1.35,-1.71,-2.61,31.88,1.0,-0.28,-23.43,100.0,0.0,0.0,92.28,0.0,0.0,0.0,0.0,0.0,0.0,0.0,4922.0,0.0,30.0,4.0,114.8,1.0,0.0,0.0,0.0,0.0,0.0,0.0,0.0,4.068,4.068,48.272,17.725,1.0,110.0,435.8,8750.0,0.0,0.0,110.0,110.0,433.0,0.0,0.0,0.0,1.0,166.7,77.9,77.9,75.4,75.4,34.0,-2.9,-9.7,26.2,115.8,4.0,-236.665,-141.1,100.0,12.3,25.3,21.5,41.7,0.0,1.0,75.8,0.0,0.0,0.0,0.0,1480.0,3450.0,3042.0,6634.0,321.2,315.2,347.9,338.0,25.43,22.7,26.51,24.77,325.0,325.0,355.0,355.0,99.99,99.98,99.98,100.0,9.27,8.68,2.77,2.88,-0.5,-0.6,4.2,2.0,85.0,67.9,85.4,74.5,88.7,72.1,87.5,77.2,85.3,68.9,85.7,74.8,82.5,67.3,84.6,73.7,-8.47,7.88,0.09,0.05,0.0,95.2,97.12,92.28,92.28,174.7,27.6,1.386903024728117,61.57739258576704,99.74817391512333,-93.62644496874069,-54.015257183273775,1,1
83,4.1,169.3,44.05325295193448,-78.68138210978366,47.8,-104.7,46.5,80.5,6999.5,6999.0,115.1,0.0,1.0,1.0,0.0,1.0,1.0,0.0,0.0,0.0,100.0,1.0,1.186,26.0,0.0,-0.066,48.272,66.0,0.0,26.0,26.0,26.0,26.0,1.35,0.18,0.02,383.6,-2.01,-2.25,-1.68,-1.2,-675.65,537.62,5.7,0.0,0.0,0.0,0.0,0.1,-7.49,-7.49,-1.1,-2.54,-1.46,10.37,31.97,0.89,-0.34,-21.26,100.0,0.0,0.0,92.52,0.0,0.0,0.0,0.0,0.0,0.0,0.0,4935.0,0.0,30.0,4.0,115.1,0.0,0.0,0.0,0.0,0.0,0.0,1.0,0.0,4.116,4.116,48.272,17.725,0.0,110.0,435.8,8750.0,0.0,0.0,110.0,110.0,433.0,0.0,0.0,0.0,1.0,166.7,76.7,76.7,80.9,80.9,34.0,-5.8,-13.36,11.8,105.1,4.0,-236.715,-146.4,100.0,14.7,20.0,23.8,45.7,0.0,1.0,85.5,0.0,0.0,0.0,0.0,2508.0,4640.0,1421.0,5781.0,318.3,313.0,351.0,339.9,25.43,22.7,26.5,24.77,325.0,325.0,355.0,355.0,99.99,99.98,99.98,100.0,9.35,8.88,2.34,2.43,-0.6,-0.6,3.7,1.7,84.9,67.9,85.4,74.6,88.8,72.2,87.5,77.2,85.3,69.0,85.7,74.9,82.5,67.4,84.5,73.8,-8.78,8.2,0.09,0.03,0.0,95.44,97.17,92.51,92.51,174.7,27.6,1.3620939761998803,56.17586689589085,95.4269533518419,-57.61627417708567,0.0,1,1
84,4.15,170.9,44.05324602715812,-78.68137014880631,23.5,142.5,-140.2,-60.8,7001.1,7001.0,115.3,0.0,1.0,1.0,0.0,1.0,1.0,0.0,0.0,0.0,100.0,1.0,1.186,26.0,0.0,-0.078,48.272,66.0,0.0,26.0,26.0,26.0,26.0,1.27,0.15,-0.02,384.2,-2.65,-3.39,-2.97,-0.38,-674.32,536.85,5.7,0.0,0.0,0.0,0.0,0.1,-7.49,-7.49,-1.17,1.33,-1.07,5.2,32.03,0.88,-0.38,-27.89,100.0,0.0,0.0,94.11,0.0,0.0,0.0,0.0,0.0,0.0,0.0,5020.0,0.0,30.0,4.0,115.3,1.0,0.0,0.0,0.0,0.0,0.0,1.0,0.0,4.164,4.164,48.272,17.725,1.0,110.0,435.8,8750.0,0.0,0.0,110.0,110.0,433.0,0.0,0.0,0.0,1.0,333.3,71.1,71.1,82.2,82.2,34.0,-4.1,-18.59,6.1,74.3,4.0,-236.765,-150.6,100.0,15.9,27.1,16.8,42.6,0.0,1.0,95.7,0.0,0.0,0.0,0.0,1996.0,5866.0,1303.0,5072.0,320.0,308.9,351.8,342.5,25.43,22.71,26.5,24.77,325.0,325.0,355.0,355.0,99.99,99.98,99.98,100.0,9.36,8.8,2.56,2.62,-0.5,-0.8,5.5,2.8,84.9,67.9,85.4,74.6,88.8,72.5,87.4,77.2,85.4,69.2,85.7,74.9,82.5,67.6,84.5,73.8,-9.06,8.41,0.1,0.04,0.0,95.48,97.71,94.1,94.1,174.7,27.6,1.2789839717525782,55.815765168058476,99.74817391512333,-25.20711981021904,57.61627417708581,1,1
85,4.2,172.5,44.053239012449595,-78.68135719857517,1.9,-4.5,29.1,-4.7,7002.7,7003.0,115.8,0.0,1.0,1.0,0.0,1.0,1.0,0.0,0.0,0.0,100.0,1.0,1.186,26.0,0.0,-0.087,48.272,66.0,0.0,26.0,26.0,26.0,26.0,1.46,0.35,0.07,382.2,-2.57,-2.57,-3.41,-0.48,-672.88,536.07,5.7,0.0,0.0,0.0,0.0,0.1,-7.49,-7.49,-1.06,3.06,-0.7,8.38,32.14,0.99,-0.33,-30.3,100.0,0.0,0.0,93.47,0.0,0.0,0.0,0.0,0.0,0.0,0.0,4986.0,0.0,30.0,4.0,115.8,0.0,0.0,0.0,0.0,0.0,0.0,1.0,0.0,4.214,4.214,48.272,17.725,0.0,110.0,435.8,8750.0,0.0,0.0,110.0,110.0,433.0,0.0,0.0,0.0,1.0,166.7,73.5,73.5,77.6,77.6,34.0,-1.3,-17.27,14.1,148.6,4.0,-236.815,-154.8,100.0,16.0,26.9,18.2,42.4,0.0,1.0,98.4,0.0,0.0,0.0,0.0,787.0,5603.0,2062.0,8024.0,323.0,310.0,349.4,334.1,25.43,22.71,26.5,24.77,325.0,325.0,355.0,355.0,99.99,99.99,99.98,100.0,9.7,9.07,2.88,2.95,-0.5,-0.7,4.8,2.0,84.9,67.9,85.4,74.6,88.8,72.7,87.4,77.3,85.4,69.4,85.6,75.0,82.6,67.8,84.5,73.9,-9.34,8.64,0.1,0.03,0.0,95.63,98.22,93.47,93.47,174.7,27.6,1.502997005985042,53.655154914868945,101.18858076955048,-39.61118806997867,28.808136519519394,1,1
86,4.25,174.2,44.05323262726619,-78.68134487786918,-104.6,66.8,30.6,96.0,7004.3,7004.0,116.1,0.0,1.0,1.0,0.0,1.0,1.0,0.0,0.0,0.0,100.0,1.0,1.186,26.0,0.0,-0.099,48.272,66.0,0.0,26.0,26.0,26.0,26.0,1.4,0.26,0.03,382.1,-2.51,-2.21,-2.7,-0.22,-671.51,535.36,5.7,0.0,0.0,0.0,0.0,0.1,-7.49,-7.49,-0.97,1.87,-0.59,-4.84,32.24,1.08,-0.33,-28.28,100.0,0.0,0.0,94.16,0.0,0.0,0.0,0.0,0.0,0.0,0.0,5023.0,0.0,30.0,4.0,116.1,1.0,0.0,0.0,0.0,0.0,0.0,1.0,0.0,4.263,4.263,48.272,17.725,1.0,110.0,435.8,8750.0,0.0,0.0,110.0,110.0,433.0,0.0,0.0,0.0,1.0,333.3,74.9,74.9,68.4,68.4,34.0,0.0,-20.77,14.6,114.0,4.0,-236.865,-160.5,100.0,10.7,30.3,19.8,47.2,0.0,1.0,100.0,0.0,0.0,0.0,0.0,0.0,6414.0,2282.0,6922.0,325.0,307.0,349.5,337.1,25.43,22.71,26.5,24.77,325.0,325.0,355.0,355.0,99.99,99.99,99.98,100.0,0.0,9.72,3.07,3.13,0.0,-0.8,5.1,2.3,84.9,67.9,85.4,74.6,88.8,72.9,87.4,77.4,85.3,69.7,85.6,75.0,82.5,68.0,84.5,73.9,-9.71,8.92,0.1,0.03,0.0,95.67,98.15,94.16,94.16,174.7,27.6,1.424254190796011,51.85464636106061,102.62898756707527,-7.202034272135762,93.62644468422872,1,1
87,4.3,175.8,44.05322606221847,-78.68133156790941,-39.1,-156.3,117.1,-85.3,7005.9,7006.0,116.6,0.0,1.0,1.0,0.0,1.0,1.0,0.0,0.0,0.0,100.0,1.0,1.186,26.0,0.0,-0.105,48.272,66.0,0.0,26.0,26.0,26.0,26.0,1.17,0.38,-0.24,385.9,-2.12,-2.28,-2.41,-0.91,-670.03,534.63,5.7,0.0,0.0,0.0,0.0,0.1,-7.49,-7.49,-0.97,-1.5,-0.9,-6.04,32.38,1.16,-0.27,-21.89,100.0,0.0,0.0,94.31,0.0,0.0,0.0,0.0,0.0,0.0,0.0,5030.0,0.0,30.0,4.0,116.6,0.0,0.0,0.0,0.0,0.0,0.0,1.0,0.0,4.314,4.314,48.272,17.725,0.0,110.0,435.8,8750.0,0.0,0.0,110.0,110.0,433.0,0.0,0.0,0.0,1.0,333.3,83.6,83.6,69.6,69.6,34.0,0.0,-9.25,20.5,102.9,4.0,-236.915,-168.5,100.0,8.8,22.4,25.6,42.9,0.0,1.0,100.0,0.0,0.0,0.0,0.0,0.0,3358.0,2706.0,6622.0,325.0,315.4,348.2,338.2,25.43,22.71,26.5,24.77,325.0,325.0,355.0,355.0,99.99,99.99,99.98,100.0,0.0,10.57,3.02,3.11,0.0,-0.6,4.8,2.6,84.9,67.9,85.4,74.6,88.7,73.1,87.4,77.4,85.3,69.8,85.6,75.1,82.4,68.2,84.5,74.0,-10.21,9.38,0.1,0.05,0.0,95.69,97.89,94.31,94.31,174.7,27.6,1.2533554962579452,52.93495148765537,110.55122523797336,-39.61118806997881,28.808137088542622,1,1
88,4.35,177.4,44.053219407238586,-78.68131726869588,38.1,-64.8,-43.8,10.1,7007.5,7008.0,117.1,0.0,1.0,1.0,0.0,1.0,1.0,0.0,0.0,0.0,100.0,1.0,1.186,26.0,0.0,-0.117,48.272,66.0,0.0,26.0,26.0,26.0,26.0,1.24,0.26,-0.12,386.4,-2.02,-2.38,-2.14,-0.92,-668.44,533.89,5.7,0.0,0.0,0.0,0.0,0.11,-7.49,-7.49,-1.21,-4.92,-1.15,-3.31,32.51,1.07,-0.34,-18.91,100.0,0.0,0.0,94.52,0.0,0.0,0.0,0.0,0.0,0.0,0.0,5042.0,0.0,30.0,4.0,117.1,1.0,0.0,0.0,0.0,0.0,0.0,1.0,0.0,4.368,4.368,48.272,17.725,1.0,110.0,435.8,8750.0,0.0,0.0,110.0,110.0,433.0,0.0,0.0,0.0,1.0,166.7,80.7,80.7,76.7,76.7,34.0,-4.3,-11.79,22.5,65.1,4.0,-236.965,-176.6,100.0,10.7,19.2,23.4,43.4,0.0,1.0,92.6,0.0,0.0,0.0,0.0,2095.0,4243.0,2743.0,4425.0,320.0,314.0,348.4,343.4,25.43,22.71,26.5,24.77,325.0,325.0,355.0,355.0,99.99,99.99,99.98,100.0,11.82,11.11,2.66,2.76,-0.9,-0.8,4.4,2.6,84.9,67.9,85.4,74.6,88.7,73.3,87.4,77.5,85.3,70.0,85.6,75.1,82.4,68.4,84.4,74.0,-10.72,9.86,0.09,0.04,0.0,96.03,97.76,94.52,94.52,174.7,27.6,1.2726350615946427,47.89352755406273,105.50980127592953,-86.42441041209317,-72.0203421523334,1,1
89,4.4,179.0,44.05321410124111,-78.68130521778636,115.7,102.9,-63.5,-156.3,7009.1,7009.0,117.3,0.0,1.0,1.0,0.0,1.0,1.0,0.0,0.0,0.0,100.0,1.0,1.186,26.0,0.0,-0.123,48.272,66.0,0.0,26.0,26.0,26.0,26.0,1.45,0.05,-0.12,384.7,-1.74,-1.52,-1.83,-0.86,-667.1,533.3,5.7,0.0,0.0,0.0,0.0,0.11,-7.49,-7.49,-1.36,-0.34,-0.95,7.79,32.56,1.02,-0.39,-24.67,100.0,0.0,0.0,95.09,0.0,0.0,0.0,0.0,0.0,0.0,0.0,5072.0,0.0,30.0,4.0,117.3,0.0,0.0,0.0,0.0,0.0,0.0,1.0,0.0,4.413,4.413,48.272,17.725,0.0,110.0,435.8,8750.0,0.0,0.0,110.0,110.0,433.0,0.0,0.0,0.0,1.0,166.7,70.1,70.1,78.2,78.2,34.0,-3.7,-25.67,6.4,65.0,4.0,-237.01,-179.2,100.0,16.5,24.3,20.3,35.6,0.0,1.0,70.7,0.0,0.0,0.0,0.0,1756.0,7844.0,1066.0,4431.0,320.1,304.0,352.1,343.7,25.42,22.71,26.5,24.77,325.0,325.0,355.0,355.0,99.99,99.99,99.98,100.0,11.62,10.88,2.64,2.71,-0.7,-1.1,4.8,2.6,84.9,67.9,85.4,74.6,88.7,73.5,87.4,77.5,85.3,70.2,85.6,75.1,82.5,68.6,84.4,74.1,-10.91,9.99,0.11,0.06,0.0,96.31,98.32,95.09,95.09,174.7,27.6,1.4558159224297555,44.29251044644605,103.34919102274002,-18.00508553808335,86.42441069660521,1,1
90,4.45,180.7,44.05320834558283,-78.68129145816579,1.0,152.1,-58.5,76.7,7010.8,7011.0,117.4,0.0,1.0,1.0,0.0,1.0,1.0,0.0,0.0,0.0,100.0,1.0,1.186,26.0,0.0,-0.135,48.272,66.0,0.0,26.0,26.0,26.0,26.0,1.51,0.17,0.03,381.5,-1.49,-2.08,-2.97,-0.46,-665.57,532.66,5.7,0.0,0.0,0.0,0.0,0.11,-7.49,-7.49,-1.2,4.54,-0.65,3.83,32.59,1.06,-0.35,-28.9,100.0,0.0,0.0,93.96,0.0,0.0,0.0,0.0,0.0,0.0,0.0,5012.0,0.0,30.0,4.0,117.4,1.0,0.0,0.0,0.0,0.0,0.0,1.0,0.0,4.464,4.464,48.272,17.725,1.0,110.0,435.8,8750.0,0.0,0.0,110.0,110.0,433.0,0.0,0.0,0.0,1.0,333.3,70.0,70.0,72.8,72.8,34.0,-0.6,-20.15,26.5,131.5,4.0,-237.065,-179.5,100.0,16.5,31.9,17.3,39.5,0.0,1.0,51.2,0.0,0.0,0.0,0.0,379.0,6410.0,2897.0,7103.0,323.6,307.8,348.0,336.6,25.42,22.71,26.5,24.77,325.0,325.0,355.0,355.0,99.99,99.99,99.98,100.0,11.56,10.68,2.94,3.06,-0.5,-0.8,3.8,1.2,84.9,68.0,85.4,74.6,88.8,73.9,87.3,77.5,85.3,70.5,85.6,75.2,82.5,68.8,84.4,74.1,-10.95,9.99,0.1,0.06,0.0,96.41,98.94,93.96,93.96,174.7,27.6,1.5198355174162763,46.093019000254394,114.15224234559005,-21.606102816407144,90.02542769041682,1,1
