,Time,Distance,GPS Latitude,GPS Longitude,Damper Velocity (Calc) FL,Damper Velocity (Calc) FR,Damper Velocity (Calc) RL,Damper Velocity (Calc) RR,Corr Dist,Corr Dist (Unstretched),Corr Speed,ABS Active,ABS Enabled,AID Allow Tire Blankets,AID Auto Blip,AID Auto Clutch,AID Auto Shift,AID Fuel Rate,AID Ideal Line,AID Mech Damage,AID Stability,AID Tire Wear Rate,Air Density,Air Temp,Ballast,Best Lap Delta,Best Lap Time,Brake Bias,Brake Pos,Brake Temp FL,Brake Temp FR,Brake Temp RL,Brake Temp RR,CG Accel Lateral,CG Accel Longitudinal,CG Accel Vertical,CG Height,Camber FL,Camber FR,Camber RL,Camber RR,Car Coord X,Car Coord Y,Car Coord Z,Car Damage Front,Car Damage Left,Car Damage Rear,Car Damage Right,Car Pos Norm,Caster FL,Caster FR,Chassis Pitch Angle,Chassis Pitch Rate,Chassis Roll Angle,Chassis Roll Rate,Chassis Velocity X,Chassis Velocity Y,Chassis Velocity Z,Chassis Yaw Rate,Clutch Pos,DRS Active,DRS Available,Drive Train Speed,ERS Heat Charging,ERS Is Charging,ERS Max Energy,ERS Power Level,ERS Recovery Level,Engine Brake Setting,Engine Limiter,Engine RPM,Flags,Fuel Level,Gear,Ground Speed,HR Sample Clock,In Pit,KERS Charge,KERS Deployed Energy,KERS Input,KERS Max Energy,LR Sample Clock,Lap Invalidated,Lap Time,Lap Time2,Last Lap Time,Last Sector Time,MR Sample Clock,Max Fuel,Max Power,Max RPM,Max Sus Travel FL,Max Sus Travel FR,Max Sus Travel RL,Max Sus Travel RR,Max Torque,Max Turbo Boost,Num Tires Off Track,Penalties Enabled,Position,Raw Data Sample Rate,Ride Height FL,Ride Height FR,Ride Height RL,Ride Height RR,Road Temp,Self Align Torque FL,Self Align Torque FR,Self Align Torque RL,Self Align Torque RR,Session Lap Count,Session Time Left,Steering Angle,Surface Grip,Suspension Travel FL,Suspension Travel FR,Suspension Travel RL,Suspension Travel RR,TC Active,TC Enabled,Throttle Pos,Tire Dirt Level FL,Tire Dirt Level FR,Tire Dirt Level RL,Tire Dirt Level RR,Tire Load FL,Tire Load FR,Tire Load RL,Tire Load RR,Tire Loaded Radius FL,Tire Loaded Radius FR,Tire Loaded Radius RL,Tire Loaded Radius RR,Tire Pressure FL,Tire Pressure FR,Tire Pressure RL,Tire Pressure RR,Tire Radius FL,Tire Radius FR,Tire Radius RL,Tire Radius RR,Tire Rubber Grip FL,Tire Rubber Grip FR,Tire Rubber Grip RL,Tire Rubber Grip RR,Tire Slip Angle FL,Tire Slip Angle FR,Tire Slip Angle RL,Tire Slip Angle RR,Tire Slip Ratio FL,Tire Slip Ratio FR,Tire Slip Ratio RL,Tire Slip Ratio RR,Tire Temp Core FL,Tire Temp Core FR,Tire Temp Core RL,Tire Temp Core RR,Tire Temp Inner FL,Tire Temp Inner FR,Tire Temp Inner RL,Tire Temp Inner RR,Tire Temp Middle FL,Tire Temp Middle FR,Tire Temp Middle RL,Tire Temp Middle RR,Tire Temp Outer FL,Tire Temp Outer FR,Tire Temp Outer RL,Tire Temp Outer RR,Toe In FL,Toe In FR,Toe In RL,Toe In RR,Turbo Boost,Wheel Angular Speed FL,Wheel Angular Speed FR,Wheel Angular Speed RL,Wheel Angular Speed RR,Wind Direction,Wind Speed,CG Distance,Lateral Velocity,Longitudinal Velocity,Lateral Acceleration,Longitudinal Acceleration,level,curve_number
46,2.25,105.5,44.05371430391832,-78.68169039723017,18.4,-133.7,-105.1,-84.8,1676.7,1677.0,168.2,0.0,1.0,1.0,0.0,1.0,1.0,0.0,0.0,0.0,100.0,1.0,1.186,26.0,0.0,2.076,74.678,66.0,100.0,26.0,26.0,26.0,26.0,0.58,-1.67,-0.09,380.9,-2.79,-2.87,-1.96,-1.26,-709.93,588.92,5.9,0.0,0.0,0.0,0.0,0.06,-7.49,-7.49,-0.93,-6.44,-0.14,-3.18,46.64,0.96,-1.05,-9.28,100.0,0.0,0.0,124.66,0.0,0.0,0.0,0.0,0.0,0.0,0.0,6650.0,0.0,30.0,4.0,168.2,1.0,0.0,0.0,0.0,0.0,0.0,0.0,0.0,2.28,2.28,74.679,19.926,1.0,110.0,435.8,8750.0,0.0,0.0,110.0,110.0,433.0,0.0,0.0,0.0,1.0,333.3,59.1,59.1,83.8,83.8,34.0,4.87,-7.62,3.1,26.4,1.0,-79.54,-21.0,100.0,26.3,30.9,24.2,37.0,0.0,1.0,0.0,0.0,0.0,0.0,0.0,4714.0,6713.0,964.0,2729.0,312.9,306.9,352.0,347.7,24.59,23.01,25.33,24.54,325.0,325.0,355.0,355.0,99.68,99.59,99.67,99.63,2.06,2.17,1.39,1.53,-8.2,-11.8,-5.3,-3.7,79.7,69.8,78.0,73.1,82.0,68.4,80.8,74.3,79.3,66.4,79.3,72.6,77.3,65.3,78.6,71.7,-1.19,1.2,0.1,0.06,0.0,129.85,126.25,123.01,126.32,356.7,7.7,1.7701412373028318,163.48617675407993,49.333934408489874,-18.005085822595106,21.606102531895175,0,0
47,2.3,107.8,44.0536929000641,-78.68168383218244,204.3,101.7,-174.3,-313.3,1679.0,1679.0,164.7,0.0,1.0,1.0,0.0,1.0,1.0,0.0,0.0,0.0,100.0,1.0,1.186,26.0,0.0,2.109,74.678,66.0,100.0,26.0,26.0,26.0,26.0,0.66,-1.75,0.18,383.2,-3.5,-3.34,-1.52,-0.99,-709.2,586.54,5.9,0.0,0.0,0.0,0.0,0.06,-7.49,-7.49,-0.89,7.06,-0.12,8.15,45.66,1.16,-1.05,-15.38,100.0,0.0,0.0,117.72,0.0,0.0,0.0,0.0,0.0,0.0,0.0,6279.0,0.0,30.0,4.0,164.7,0.0,0.0,0.0,0.0,0.0,0.0,0.0,0.0,2.334,2.334,74.679,19.926,0.0,110.0,435.8,8750.0,0.0,0.0,110.0,110.0,433.0,0.0,0.0,0.0,1.0,166.7,52.6,52.6,92.8,92.8,34.0,16.1,-6.51,-0.0,6.4,1.0,-79.59,-20.1,100.0,36.5,36.0,15.5,21.4,0.0,1.0,0.0,0.0,0.0,0.0,0.0,4077.0,5851.0,1596.0,2941.0,313.6,308.6,350.7,347.1,24.59,23.01,25.32,24.54,325.0,325.0,355.0,355.0,99.68,99.6,99.67,99.63,2.04,2.13,1.68,1.92,-6.1,-10.4,-9.4,-7.4,79.7,69.8,78.0,73.1,82.1,68.7,80.8,74.3,79.4,66.7,79.3,72.6,77.5,65.5,78.6,71.7,-1.14,1.18,0.11,0.09,0.0,129.56,125.86,115.6,119.84,356.7,7.7,1.8789624796679683,160.60536304522563,49.694036107871064,-154.84373585512685,-21.606103100918972,0,0
48,2.35,110.0,44.0536741941747,-78.681677986592,-305.8,-103.0,200.1,245.5,1681.2,1681.0,161.7,1.0,1.0,1.0,0.0,1.0,1.0,0.0,0.0,0.0,100.0,1.0,1.186,26.0,0.0,2.178,74.678,66.0,100.0,26.0,26.0,26.0,26.0,0.81,-1.57,0.11,382.4,-3.18,-1.84,-2.89,-2.08,-708.55,584.46,5.9,0.0,0.0,0.0,0.0,0.07,-7.49,-7.49,-0.66,1.04,0.34,9.25,44.84,1.33,-0.84,-12.62,100.0,0.0,0.0,120.32,0.0,0.0,0.0,0.0,0.0,0.0,0.0,6418.0,0.0,30.0,4.0,161.7,1.0,0.0,0.0,0.0,0.0,0.0,0.0,0.0,2.381,2.381,74.679,19.926,1.0,110.0,435.8,8750.0,0.0,0.0,110.0,110.0,433.0,0.0,0.0,0.0,1.0,333.3,65.5,65.5,72.1,72.1,34.0,-1.0,23.58,14.0,40.8,1.0,-79.64,-16.4,100.0,21.2,30.8,25.5,33.6,0.0,1.0,0.0,0.0,0.0,0.0,0.0,2282.0,6852.0,2647.0,3962.0,319.2,306.3,348.0,344.8,24.59,23.01,25.32,24.54,325.0,325.0,355.0,355.0,99.68,99.6,99.67,99.63,2.21,2.28,1.87,2.08,-14.7,-7.0,-5.0,-4.2,79.7,69.8,78.0,73.1,82.2,68.9,80.8,74.4,79.5,66.8,79.3,72.6,77.5,65.6,78.6,71.7,-0.99,0.99,0.08,0.05,0.0,119.12,128.25,119.34,121.29,356.7,7.7,1.7700564962734948,148.00180316856725,47.17332409839798,-111.631530222312,-7.2020345566474475,0,0
49,2.4,112.2,44.0536559379461,-78.68167205106941,-156.9,52.1,-131.1,-61.4,1683.5,1683.0,159.4,1.0,1.0,1.0,0.0,1.0,1.0,0.0,0.0,0.0,100.0,1.0,1.186,26.0,0.0,2.214,74.678,66.0,100.0,26.0,26.0,26.0,26.0,0.78,-1.5,-0.19,385.7,-3.28,-0.97,-2.47,-0.5,-707.89,582.43,5.9,0.0,0.0,0.0,0.0,0.07,-7.49,-7.49,-0.66,-0.72,0.31,-10.71,44.2,1.32,-0.74,-6.25,100.0,0.0,0.0,114.94,0.0,0.0,0.0,0.0,0.0,0.0,0.0,6131.0,0.0,30.0,4.0,159.4,0.0,0.0,0.0,0.0,0.0,0.0,0.0,0.0,2.43,2.43,74.679,19.926,0.0,110.0,435.8,8750.0,0.0,0.0,110.0,110.0,433.0,0.0,0.0,0.0,1.0,166.7,67.7,67.7,72.9,72.9,34.0,-0.54,19.6,-0.8,69.3,1.0,-79.69,-10.9,100.0,13.4,33.4,18.9,30.6,0.0,1.0,0.0,0.0,0.0,0.0,0.0,1335.0,8131.0,1814.0,5028.0,321.7,303.2,350.8,342.0,24.59,23.01,25.32,24.54,325.0,325.0,355.0,355.0,99.68,99.6,99.67,99.63,2.25,2.34,1.89,2.11,-13.8,-7.6,-11.9,-3.1,79.7,69.8,78.0,73.1,82.2,69.1,80.8,74.4,79.5,67.0,79.3,72.7,77.5,65.8,78.6,71.8,-0.69,0.68,0.11,0.06,0.0,118.18,125.92,108.99,120.89,356.7,7.7,1.7013230145977571,149.44221002299443,48.97383265220632,28.808136804030653,32.40915465137853,0,0
50,2.45,114.4,44.05363687232805,-78.68166575581817,185.1,-36.8,-5.8,-14.3,1685.6,1686.0,156.5,0.0,1.0,1.0,0.0,1.0,1.0,0.0,0.0,0.0,100.0,1.0,1.186,26.0,0.0,2.247,74.678,66.0,100.0,26.0,26.0,26.0,26.0,0.57,-1.77,-0.07,383.9,-2.5,-2.28,-1.72,-0.6,-707.19,580.31,5.9,0.0,0.0,0.0,0.0,0.07,-7.49,-7.49,-0.75,-2.32,-0.62,-19.08,43.39,1.13,-0.75,-4.96,100.0,0.0,0.0,112.32,0.0,0.0,0.0,0.0,0.0,0.0,0.0,5991.0,0.0,30.0,4.0,156.5,1.0,0.0,0.0,0.0,0.0,0.0,0.0,0.0,2.481,2.481,74.679,19.926,1.0,110.0,435.8,8750.0,0.0,0.0,110.0,110.0,433.0,0.0,0.0,0.0,1.0,166.7,60.1,60.1,85.9,85.9,34.0,24.29,-3.0,-1.4,12.3,1.0,-79.74,-5.0,100.0,22.6,31.6,18.7,29.9,0.0,1.0,0.0,0.0,0.0,0.0,0.0,6335.0,5154.0,2904.0,1845.0,308.9,310.6,348.0,349.9,24.59,23.01,25.32,24.54,325.0,325.0,355.0,355.0,99.68,99.6,99.67,99.63,1.73,1.89,1.71,1.89,-6.4,-9.8,-10.8,-4.8,79.7,69.8,78.0,73.1,82.3,69.2,80.9,74.4,79.5,67.2,79.3,72.7,77.6,66.0,78.6,71.8,-0.32,0.34,0.1,0.07,0.0,124.63,119.36,109.16,115.49,356.7,7.7,1.86083314673831,150.88261684897032,50.41423956353583,-61.21729117089785,5.690237259159403e-07,0,0
51,2.5,116.5,44.05361825637081,-78.68165946056692,229.9,28.7,58.1,-69.7,1687.8,1688.0,152.9,0.0,1.0,1.0,0.0,1.0,1.0,0.0,0.0,0.0,100.0,1.0,1.186,26.0,0.0,2.283,74.678,66.0,100.0,26.0,26.0,26.0,26.0,0.68,-1.84,0.18,379.5,-3.15,-2.75,-1.61,-0.48,-706.49,578.24,5.9,0.0,0.0,0.0,0.0,0.07,-7.49,-7.49,-0.83,0.63,-0.96,2.79,42.39,1.04,-0.88,-8.56,100.0,0.0,0.0,112.27,0.0,0.0,0.0,0.0,0.0,0.0,0.0,5989.0,0.0,30.0,4.0,152.9,0.0,0.0,0.0,0.0,0.0,0.0,0.0,0.0,2.531,2.531,74.679,19.926,0.0,110.0,435.8,8750.0,0.0,0.0,110.0,110.0,433.0,0.0,0.0,0.0,1.0,333.3,50.7,50.7,86.3,86.3,34.0,30.32,38.29,11.8,8.2,1.0,-79.79,-2.4,100.0,34.1,33.0,21.6,26.4,0.0,1.0,0.0,0.0,0.0,0.0,0.0,6282.0,7052.0,2542.0,2454.0,308.6,305.3,348.5,349.6,24.59,23.01,25.32,24.54,325.0,325.0,355.0,355.0,99.68,99.6,99.67,99.63,1.23,1.33,1.55,1.73,-4.6,-6.2,-5.3,-6.4,79.7,69.8,78.0,73.1,82.4,69.4,80.9,74.5,79.6,67.3,79.3,72.7,77.7,66.1,78.7,71.8,-0.14,0.16,0.1,0.08,0.0,123.31,122.68,112.48,112.07,356.7,7.7,1.9698730923589978,143.32048090590465,48.97383270910869,-68.41932487400896,-5.690236548616667e-07,0,0
52,2.55,118.6,44.05360107932814,-78.68165352504433,-160.2,23.4,63.3,38.7,1689.8,1690.0,149.7,0.0,1.0,1.0,0.0,1.0,1.0,0.0,0.0,0.0,100.0,1.0,1.186,26.0,0.0,2.358,74.678,66.0,100.0,26.0,26.0,26.0,26.0,0.66,-1.65,-0.08,381.2,-2.91,-1.65,-1.81,-0.62,-705.83,576.33,6.0,0.0,0.0,0.0,0.0,0.07,-7.49,-7.49,-0.81,-0.63,-0.51,9.7,41.52,1.0,-0.9,-5.9,100.0,0.0,0.0,112.17,0.0,0.0,0.0,0.0,0.0,0.0,0.0,5983.0,0.0,30.0,4.0,149.7,1.0,0.0,0.0,0.0,0.0,0.0,0.0,0.0,2.58,2.58,74.679,19.926,1.0,110.0,435.8,8750.0,0.0,0.0,110.0,110.0,433.0,0.0,0.0,0.0,1.0,166.7,60.8,60.8,74.3,74.3,34.0,-0.56,33.39,11.4,61.9,1.0,-79.84,-1.7,100.0,26.1,34.2,24.7,28.3,0.0,1.0,0.0,0.0,0.0,0.0,0.0,2114.0,7139.0,2499.0,4833.0,319.3,305.9,348.7,342.6,24.59,23.01,25.32,24.54,325.0,325.0,355.0,355.0,99.68,99.6,99.67,99.63,1.18,1.26,1.39,1.62,-11.8,-6.3,-4.9,-3.0,79.7,69.8,78.0,73.1,82.5,69.5,80.9,74.5,79.7,67.4,79.3,72.7,77.7,66.2,78.6,71.8,-0.09,0.12,0.09,0.08,0.0,114.25,119.96,110.8,113.53,356.7,7.7,1.7789041570584965,144.04068436156942,50.414239506633464,14.404068828783352,28.80813651951918,0,0
53,2.6,120.6,44.05358228350657,-78.68164687006444,-54.6,-4.9,-171.0,46.8,1691.9,1692.0,146.7,1.0,1.0,1.0,0.0,1.0,1.0,0.0,0.0,0.0,100.0,1.0,1.186,26.0,0.0,2.394,74.678,66.0,100.0,26.0,26.0,26.0,26.0,0.58,-1.53,-0.01,384.3,-3.43,-1.67,-1.53,-1.18,-705.09,574.24,6.0,0.0,0.0,0.0,0.0,0.07,-7.49,-7.49,-0.9,-0.41,-0.41,-4.72,40.68,0.81,-0.94,-2.64,100.0,0.0,0.0,105.21,0.0,0.0,0.0,0.0,0.0,0.0,0.0,5612.0,0.0,30.0,4.0,146.7,0.0,0.0,0.0,0.0,0.0,0.0,1.0,0.0,2.634,2.634,74.679,19.926,0.0,110.0,435.8,8750.0,0.0,0.0,110.0,110.0,433.0,0.0,0.0,0.0,1.0,166.7,58.2,58.2,88.6,88.6,34.0,-1.15,52.07,-0.1,28.7,1.0,-79.89,-2.8,100.0,23.4,33.9,16.2,30.6,0.0,1.0,0.0,0.0,0.0,0.0,0.0,4782.0,7574.0,333.0,2570.0,313.1,304.7,353.8,347.7,24.59,23.01,25.32,24.54,325.0,325.0,355.0,355.0,99.68,99.6,99.67,99.63,1.15,1.33,1.19,1.37,-13.3,-5.4,-12.2,-2.8,79.7,69.8,78.0,73.1,82.5,69.6,80.8,74.5,79.8,67.6,79.3,72.7,77.8,66.3,78.6,71.8,-0.14,0.17,0.11,0.07,0.0,107.4,118.44,99.39,111.03,356.7,7.7,1.636276260293475,144.76088778878298,51.85464636106061,-144.0406845891792,-28.808137088542907,0,0
54,2.65,122.6,44.05356492659958,-78.6816405748132,-41.4,-65.7,28.0,-153.3,1693.9,1694.0,143.9,0.0,1.0,1.0,0.0,1.0,1.0,0.0,0.0,0.0,100.0,1.0,1.186,26.0,0.0,2.433,74.678,66.0,100.0,26.0,26.0,26.0,26.0,0.35,-1.58,-0.27,389.1,-2.42,-2.72,-1.37,-1.29,-704.39,572.31,6.0,0.0,0.0,0.0,0.0,0.07,-7.49,-7.49,-0.77,2.38,-0.88,-11.55,39.92,0.69,-0.73,-2.69,100.0,0.0,0.0,103.9,0.0,0.0,0.0,0.0,0.0,0.0,0.0,5542.0,0.0,30.0,4.0,143.9,1.0,0.0,0.0,0.0,0.0,0.0,1.0,0.0,2.684,2.684,74.679,19.926,1.0,110.0,435.8,8750.0,0.0,0.0,110.0,110.0,433.0,0.0,0.0,0.0,1.0,166.7,68.1,68.1,84.6,84.6,34.0,-0.44,-1.83,4.3,2.5,1.0,-79.94,-5.0,100.0,21.3,30.7,17.6,23.0,0.0,1.0,0.0,0.0,0.0,0.0,0.0,2713.0,3713.0,2445.0,2827.0,317.4,314.4,348.1,348.0,24.59,23.01,25.32,24.54,325.0,325.0,355.0,355.0,99.68,99.6,99.67,99.63,1.25,1.27,1.02,1.31,-10.1,-10.3,-6.8,-8.3,79.7,69.8,78.0,73.1,82.6,69.8,80.8,74.5,79.8,67.7,79.3,72.7,77.8,66.4,78.6,71.8,-0.25,0.26,0.11,0.09,0.0,108.12,108.53,104.37,103.44,356.7,7.7,1.6406705946045357,129.6366159026515,47.533425797779174,-176.44983867153385,-46.81322262662633,0,0
55,2.7,124.6,44.05354990792876,-78.68163499901925,-75.6,-201.3,174.2,23.0,1695.8,1696.0,141.6,1.0,1.0,1.0,0.0,1.0,1.0,0.0,0.0,0.0,100.0,1.0,1.186,26.0,0.0,2.472,74.678,66.0,100.0,26.0,26.0,26.0,26.0,0.27,-1.05,-0.39,392.3,-2.73,-2.58,-1.89,-2.02,-703.77,570.64,6.0,0.0,0.0,0.0,0.0,0.07,-7.49,-7.49,-0.84,-5.38,-1.18,-2.73,39.28,0.6,-0.66,-1.34,100.0,0.0,0.0,104.89,0.0,0.0,0.0,0.0,0.0,0.0,0.0,5595.0,0.0,30.0,4.0,141.6,0.0,0.0,0.0,0.0,0.0,0.0,1.0,0.0,2.73,2.73,74.679,19.926,0.0,110.0,435.8,8750.0,0.0,0.0,110.0,110.0,433.0,0.0,0.0,0.0,1.0,333.3,78.3,78.3,82.2,82.2,34.0,-0.47,-1.47,6.7,8.9,1.0,-79.99,-9.0,100.0,17.6,20.6,26.3,24.1,0.0,1.0,0.0,0.0,0.0,0.0,0.0,2117.0,2575.0,2125.0,1704.0,320.0,318.0,349.5,350.3,24.59,23.01,25.32,24.54,325.0,325.0,355.0,355.0,99.68,99.6,99.67,99.63,1.33,1.36,0.86,1.05,-15.7,-12.6,-4.1,-5.0,79.7,69.8,78.0,73.1,82.7,69.8,80.8,74.5,79.9,67.7,79.3,72.7,77.9,66.5,78.6,71.8,-0.49,0.49,0.1,0.09,0.0,103.56,107.58,105.24,104.54,356.7,7.7,1.1521718621802912,127.1159039216296,47.17332409839798,28.808137088542765,18.005086107107005,0,0
56,2.75,126.5,44.05353318054689,-78.68162879370017,58.8,-27.9,-120.1,-82.0,1697.8,1698.0,139.1,0.0,1.0,1.0,0.0,1.0,1.0,0.0,0.0,0.0,100.0,1.0,1.186,26.0,0.0,-15.171,74.678,66.0,100.0,26.0,26.0,26.0,26.0,0.34,-1.54,-0.22,391.2,-2.36,-3.0,-1.93,-0.71,-703.08,568.78,6.0,0.0,0.0,0.0,0.0,0.08,-7.49,-7.49,-1.22,-7.56,-1.17,5.68,38.59,0.5,-0.73,-3.61,100.0,0.0,0.0,100.62,0.0,0.0,0.0,0.0,0.0,0.0,0.0,5367.0,0.0,30.0,4.0,139.1,1.0,0.0,0.0,0.0,0.0,0.0,1.0,0.0,2.781,2.781,74.679,19.926,1.0,110.0,435.8,8750.0,0.0,0.0,110.0,110.0,433.0,0.0,0.0,0.0,1.0,333.3,69.9,69.9,93.5,93.5,34.0,2.83,-3.11,1.5,1.6,1.0,-80.04,-17.3,100.0,20.5,19.2,20.3,20.0,0.0,1.0,0.0,0.0,0.0,0.0,0.0,5015.0,4688.0,1099.0,1904.0,311.9,312.4,351.6,350.2,24.59,23.01,25.32,24.54,325.0,325.0,355.0,355.0,99.68,99.6,99.67,99.63,1.4,1.53,0.72,0.91,-8.7,-10.3,-5.5,-8.0,79.7,69.8,78.0,73.1,82.7,69.9,80.8,74.5,79.9,67.8,79.3,72.7,77.9,66.6,78.6,71.8,-0.93,0.92,0.09,0.1,0.0,107.33,105.07,101.37,99.88,356.7,7.7,1.5923567439490436,132.51742961150578,49.333934408489874,25.207120094731152,21.606103100918972,0,0
57,2.8,128.4,44.05351681289366,-78.68162267831325,85.3,202.4,-210.5,-53.8,1699.7,1700.0,136.4,0.0,1.0,1.0,0.0,1.0,1.0,0.0,0.0,0.0,100.0,1.0,1.186,26.0,0.0,-16.128,74.678,66.0,100.0,26.0,26.0,26.0,26.0,0.43,-1.6,-0.13,389.2,-3.5,-1.96,-0.86,-0.31,-702.4,566.96,6.0,0.0,0.0,0.0,0.0,0.08,-7.49,-7.49,-1.4,-0.43,-0.8,4.82,37.82,0.47,-0.75,-6.22,100.0,0.0,0.0,95.28,0.0,0.0,0.0,0.0,0.0,0.0,0.0,5082.0,0.0,30.0,4.0,136.4,0.0,0.0,0.0,0.0,0.0,0.0,1.0,0.0,2.831,2.831,74.679,19.926,0.0,110.0,435.8,8750.0,0.0,0.0,110.0,110.0,433.0,0.0,0.0,0.0,1.0,333.3,61.4,61.4,96.2,96.2,34.0,-1.36,4.87,-0.1,-0.5,1.0,-80.09,-29.2,100.0,24.8,29.3,9.8,17.3,0.0,1.0,0.0,0.0,0.0,0.0,0.0,3835.0,6947.0,755.0,3727.0,315.6,306.3,353.1,345.9,24.59,23.01,25.32,24.54,325.0,325.0,355.0,355.0,99.68,99.6,99.67,99.63,1.91,2.03,0.74,1.02,-10.2,-8.6,-10.8,-9.9,79.7,69.8,78.0,73.1,82.8,70.1,80.8,74.5,80.0,67.9,79.2,72.7,78.0,66.7,78.6,71.8,-1.58,1.56,0.12,0.09,0.0,102.62,106.4,93.53,97.03,356.7,7.7,1.6618664206247145,129.6366159311027,49.333934408489874,-97.22746196255216,-14.404068544271453,0,0
58,2.85,130.3,44.053500804969076,-78.68161647299416,128.4,147.7,120.5,135.7,1701.5,1702.0,132.8,0.0,1.0,1.0,0.0,1.0,1.0,0.0,0.0,0.0,100.0,1.0,1.186,26.0,0.0,-16.524,74.678,66.0,100.0,26.0,26.0,26.0,26.0,0.84,-2.0,0.42,379.3,-3.67,-1.65,-1.1,-0.64,-701.71,565.18,6.0,0.0,0.0,0.0,0.0,0.08,-7.49,-7.49,-1.34,3.38,-0.59,6.77,36.82,0.41,-0.81,-12.43,100.0,0.0,0.0,98.27,0.0,0.0,0.0,0.0,0.0,0.0,0.0,5242.0,0.0,30.0,4.0,132.8,1.0,0.0,0.0,0.0,0.0,0.0,1.0,0.0,2.883,2.883,74.679,19.926,1.0,110.0,435.8,8750.0,0.0,0.0,110.0,110.0,433.0,0.0,0.0,0.0,1.0,166.7,50.8,50.8,86.1,86.1,34.0,9.07,50.13,2.6,37.1,1.0,-80.14,-39.5,100.0,31.2,36.7,15.8,24.1,0.0,1.0,0.0,0.0,0.0,0.0,0.0,5193.0,8245.0,1979.0,4397.0,311.4,302.6,349.3,343.7,24.59,23.01,25.32,24.54,325.0,325.0,355.0,355.0,99.68,99.6,99.67,99.63,2.28,2.38,0.87,1.15,-7.7,-6.1,-7.0,-3.9,79.7,69.8,78.0,73.1,82.9,70.2,80.8,74.5,80.1,68.1,79.2,72.8,78.1,66.8,78.5,71.9,-2.2,2.2,0.11,0.07,0.0,103.31,106.83,95.76,100.78,356.7,7.7,2.2095248357961492,122.79468341525056,47.89352755406273,-104.42949623468863,-18.00508553808328,0,0
59,2.9,132.1,44.0534861460269,-78.68161071733589,-165.3,-60.5,-18.1,111.4,1703.3,1703.0,130.2,1.0,1.0,1.0,0.0,1.0,1.0,0.0,0.0,0.0,100.0,1.0,1.186,26.0,0.0,-16.896,74.678,66.0,100.0,26.0,26.0,26.0,26.0,0.68,-1.73,-0.1,382.4,-3.03,-1.92,-0.89,0.66,-701.07,563.55,6.0,0.0,0.0,0.0,0.0,0.08,-7.49,-7.49,-1.15,2.78,-0.57,-6.01,36.1,0.47,-0.69,-12.24,100.0,0.0,0.0,96.86,0.0,0.0,0.0,0.0,0.0,0.0,0.0,5166.0,0.0,30.0,4.0,130.2,0.0,0.0,0.0,0.0,0.0,0.0,1.0,0.0,2.931,2.931,74.679,19.926,0.0,110.0,435.8,8750.0,0.0,0.0,110.0,110.0,433.0,0.0,0.0,0.0,1.0,333.3,63.3,63.3,82.0,82.0,34.0,3.67,-7.75,4.3,72.1,1.0,-80.19,-48.1,100.0,22.9,33.7,14.9,29.7,0.0,1.0,0.0,0.0,0.0,0.0,0.0,3073.0,5750.0,3349.0,6277.0,317.4,309.6,346.5,339.3,24.59,23.01,25.32,24.54,325.0,325.0,355.0,355.0,99.68,99.6,99.67,99.63,3.03,3.03,1.1,1.36,-7.6,-11.8,-7.7,-2.8,79.7,69.8,78.0,73.1,83.0,70.4,80.8,74.5,80.2,68.2,79.2,72.8,78.2,67.0,78.5,71.9,-2.75,2.69,0.11,0.07,0.0,99.75,97.35,93.85,99.87,356.7,7.7,1.861531627450901,119.19366630763385,47.533425854681546,-64.81830816470989,0.0,0,0
60,2.95,133.9,44.05347103742392,-78.68160460194896,24.5,-43.5,127.1,36.2,1705.1,1705.0,127.3,1.0,1.0,1.0,0.0,1.0,1.0,0.0,0.0,0.0,100.0,1.0,1.186,26.0,0.0,-17.256,74.678,66.0,100.0,26.0,26.0,26.0,26.0,0.89,-1.46,-0.03,382.3,-4.03,-2.86,-2.27,-1.14,-700.39,561.87,6.0,0.0,0.0,0.0,0.0,0.08,-7.49,-7.49,-1.17,-0.41,-0.78,-2.45,35.3,0.5,-0.74,-14.59,100.0,0.0,0.0,94.26,0.0,0.0,0.0,0.0,0.0,0.0,0.0,5028.0,0.0,30.0,4.0,127.3,1.0,0.0,0.0,0.0,0.0,0.0,1.0,0.0,2.981,2.981,74.679,19.926,1.0,110.0,435.8,8750.0,0.0,0.0,110.0,110.0,433.0,0.0,0.0,0.0,1.0,333.3,60.6,60.6,83.7,83.7,34.0,-4.53,4.09,3.2,29.0,1.0,-80.24,-61.1,100.0,24.1,31.5,21.2,31.5,0.0,1.0,0.0,0.0,0.0,0.0,0.0,5334.0,5927.0,1672.0,2715.0,312.4,308.3,350.7,347.5,24.59,23.01,25.32,24.54,325.0,325.0,355.0,355.0,99.68,99.6,99.67,99.63,3.54,3.66,1.3,1.44,-14.0,-6.9,-6.5,-3.1,79.7,69.8,78.0,73.1,83.1,70.6,80.7,74.5,80.3,68.4,79.2,72.8,78.3,67.1,78.5,71.9,-3.45,3.36,0.11,0.07,0.0,91.86,99.58,92.3,96.22,356.7,7.7,1.7101461925812074,116.31285259877957,47.89352755406273,-54.01525689876195,7.202033987623722,0,0
61,3.0,135.6,44.05345709793903,-78.68159875635853,-12.3,-52.3,-115.2,-105.0,1706.8,1707.0,124.9,1.0,1.0,1.0,0.0,1.0,1.0,0.0,0.0,0.0,100.0,1.0,1.186,26.0,0.0,-17.571,74.678,66.0,100.0,26.0,26.0,26.0,26.0,0.9,-1.45,-0.09,386.1,-2.36,-1.87,-1.05,-0.13,-699.74,560.32,6.0,0.0,0.0,0.0,0.0,0.08,-7.49,-7.49,-1.12,1.34,-0.7,2.26,34.65,0.66,-0.63,-17.61,100.0,0.0,0.0,90.64,0.0,0.0,0.0,0.0,0.0,0.0,0.0,4835.0,0.0,30.0,4.0,124.9,0.0,0.0,0.0,0.0,0.0,0.0,1.0,0.0,3.03,3.03,74.679,19.926,0.0,110.0,435.8,8750.0,0.0,0.0,110.0,110.0,433.0,0.0,0.0,0.0,1.0,166.7,63.9,63.9,87.0,87.0,34.0,-3.44,-14.11,-0.2,31.2,1.0,-80.29,-75.0,100.0,23.5,28.9,15.5,26.3,0.0,1.0,0.0,0.0,0.0,0.0,0.0,2895.0,6549.0,1805.0,3769.0,317.0,307.5,350.5,345.5,24.59,23.01,25.32,24.54,325.0,325.0,355.0,355.0,99.68,99.6,99.67,99.63,4.58,4.52,1.63,1.82,-13.0,-9.3,-9.6,-4.6,79.7,69.8,78.0,73.1,83.2,70.7,80.7,74.5,80.4,68.5,79.2,72.8,78.3,67.3,78.5,71.9,-4.28,4.13,0.11,0.08,0.0,89.41,95.89,87.23,94.06,356.7,7.7,1.7089763017666455,113.79214061775765,48.25362925344392,-21.606102531895175,21.606102531895388,0,0
62,3.05,137.3,44.053442618861176,-78.68159255103944,-34.7,47.5,108.7,45.6,1708.5,1709.0,122.2,1.0,1.0,1.0,0.0,1.0,1.0,0.0,0.0,0.0,100.0,1.0,1.186,26.0,0.0,-17.781,74.678,66.0,100.0,26.0,26.0,26.0,26.0,0.97,-1.37,0.09,383.7,-2.06,-1.36,-2.15,-0.71,-699.05,558.71,6.0,0.0,0.0,0.0,0.0,0.08,-7.49,-7.49,-1.16,-1.43,-0.61,3.06,33.9,0.75,-0.66,-19.49,100.0,0.0,0.0,89.74,0.0,0.0,0.0,0.0,0.0,0.0,0.0,4787.0,0.0,30.0,4.0,122.2,1.0,0.0,0.0,0.0,0.0,0.0,1.0,0.0,3.081,3.081,74.679,19.926,1.0,110.0,435.8,8750.0,0.0,0.0,110.0,110.0,433.0,0.0,0.0,0.0,1.0,333.3,61.9,61.9,79.3,79.3,34.0,-3.7,-18.84,3.6,23.2,1.0,-80.34,-89.6,100.0,21.8,31.3,20.9,28.5,0.0,1.0,0.0,0.0,0.0,0.0,0.0,3136.0,7869.0,1291.0,3039.0,316.5,304.3,351.3,347.0,24.59,23.01,25.32,24.54,325.0,325.0,355.0,355.0,99.68,99.6,99.67,99.63,5.61,5.46,1.88,2.05,-16.4,-9.4,-6.4,-4.8,79.7,69.8,78.0,73.1,83.3,70.9,80.7,74.5,80.4,68.7,79.2,72.8,78.4,67.5,78.5,71.9,-5.17,4.96,0.1,0.08,0.0,88.44,93.64,87.86,91.62,356.7,7.7,1.681041343929411,114.15224234559005,50.05413780725227,-28.80813651951911,25.207119525707355,0,0
63,3.1,139.0,44.053428589444124,-78.6815862557882,40.6,46.6,-113.1,-8.5,1710.2,1710.0,119.7,1.0,1.0,1.0,0.0,1.0,1.0,0.0,0.0,0.0,100.0,1.0,1.186,26.0,0.0,-17.967,74.678,66.0,100.0,26.0,26.0,26.0,26.0,1.02,-1.29,0.02,384.2,-2.7,-3.37,-1.83,-0.65,-698.35,557.15,6.0,0.0,0.0,0.0,0.0,0.08,-7.49,-7.49,-1.16,1.35,-0.62,-0.53,33.21,0.88,-0.65,-21.77,100.0,0.0,0.0,85.39,0.0,0.0,0.0,0.0,0.0,0.0,0.0,4555.0,0.0,30.0,4.0,119.7,0.0,0.0,0.0,0.0,0.0,0.0,0.0,0.0,3.131,3.131,74.679,19.926,0.0,110.0,435.8,8750.0,0.0,0.0,110.0,110.0,433.0,0.0,0.0,0.0,1.0,333.3,60.2,60.2,87.4,87.4,34.0,-5.78,-16.0,-0.4,47.0,1.0,-80.39,-105.3,100.0,23.8,33.6,15.3,28.1,0.0,1.0,0.0,0.0,0.0,0.0,0.0,3915.0,6351.0,847.0,4157.0,315.2,307.1,352.6,344.4,24.59,23.01,25.32,24.54,325.0,325.0,355.0,355.0,99.68,99.61,99.67,99.63,6.62,6.42,2.3,2.45,-14.0,-9.9,-13.2,-3.7,79.7,69.8,78.0,73.1,83.4,71.2,80.7,74.6,80.5,69.0,79.2,72.8,78.5,67.7,78.5,71.9,-6.1,5.8,0.12,0.08,0.0,89.11,90.44,79.57,91.2,356.7,7.7,1.6446580191638627,110.91132696580574,50.774341206014654,-90.02542769041696,-3.6010169938120384,0,0
64,3.15,140.6,44.05341491975571,-78.6815798706048,-30.1,-86.6,-42.6,144.7,1711.8,1712.0,117.5,1.0,1.0,1.0,0.0,1.0,1.0,0.0,0.0,0.0,100.0,1.0,1.186,26.0,0.0,-18.135,74.678,66.0,100.0,26.0,26.0,26.0,26.0,0.89,-0.98,-0.02,386.1,-1.91,-2.13,-2.4,-0.23,-697.64,555.63,6.0,0.0,0.0,0.0,0.0,0.08,-7.49,-7.49,-1.13,-0.32,-0.48,1.13,32.58,1.0,-0.62,-21.48,100.0,0.0,0.0,84.16,0.0,0.0,0.0,0.0,0.0,0.0,0.0,4489.0,0.0,30.0,4.0,117.5,1.0,0.0,0.0,0.0,0.0,0.0,0.0,0.0,3.183,3.183,74.679,19.926,1.0,110.0,435.8,8750.0,0.0,0.0,110.0,110.0,433.0,0.0,0.0,0.0,1.0,166.7,66.3,66.3,89.3,89.3,34.0,-1.9,-14.28,-0.3,50.0,1.0,-80.44,-121.9,100.0,22.3,29.3,13.1,35.3,0.0,1.0,0.0,0.0,0.0,0.0,0.0,1474.0,6693.0,666.0,4025.0,321.0,307.4,353.5,344.4,24.59,23.01,25.32,24.54,325.0,325.0,355.0,355.0,99.68,99.61,99.67,99.63,7.96,7.6,2.52,2.67,-15.5,-14.7,-13.0,-3.2,79.7,69.8,78.0,73.1,83.5,71.4,80.7,74.6,80.6,69.2,79.2,72.8,78.6,67.9,78.5,72.0,-7.14,6.72,0.11,0.06,0.0,84.14,88.92,79.77,88.54,356.7,7.7,1.323971298782568,105.14969957654836,49.694036107871064,-86.42441069660492,-3.6010164247882415,0,0
65,3.2,142.2,44.05340232925323,-78.68157384515004,-70.4,48.1,77.8,-96.7,1713.4,1713.0,115.3,1.0,1.0,1.0,0.0,1.0,1.0,0.0,0.0,0.0,100.0,1.0,1.186,26.0,0.0,-18.324,74.678,66.0,100.0,26.0,26.0,26.0,26.0,0.96,-1.28,-0.12,385.7,-1.72,-2.66,-2.13,-1.22,-696.97,554.23,6.0,0.0,0.0,0.0,0.0,0.09,-7.49,-7.49,-1.18,-0.89,-0.59,-2.75,31.96,1.1,-0.62,-22.93,100.0,0.0,0.0,82.95,0.0,0.0,0.0,0.0,0.0,0.0,0.0,4425.0,0.0,30.0,4.0,115.3,0.0,0.0,0.0,0.0,0.0,0.0,0.0,0.0,3.231,3.231,74.679,19.926,0.0,110.0,435.8,8750.0,0.0,0.0,110.0,110.0,433.0,0.0,0.0,0.0,1.0,333.3,65.8,65.8,77.9,77.9,34.0,-2.85,-16.91,-1.0,10.3,1.0,-80.49,-140.2,100.0,18.8,31.7,17.0,30.5,0.0,1.0,0.0,0.0,0.0,0.0,0.0,2245.0,6907.0,2406.0,2716.0,319.2,306.4,348.6,348.0,24.59,23.01,25.32,24.54,325.0,325.0,355.0,355.0,99.68,99.61,99.67,99.63,9.23,8.78,2.85,2.96,-20.9,-13.4,-9.3,-5.9,79.7,69.8,78.0,73.1,83.6,71.7,80.7,74.6,80.7,69.4,79.2,72.9,78.6,68.1,78.5,72.0,-8.26,7.7,0.11,0.07,0.0,77.72,83.25,80.81,85.1,356.7,7.7,1.6044936896105264,102.26888589614525,50.41423956353583,-28.80813680403108,28.808136519519252,0,0
66,3.25,143.8,44.0533893790221,-78.68156728010231,42.3,2.1,-73.8,-46.1,1715.0,1715.0,113.1,1.0,1.0,1.0,0.0,1.0,1.0,0.0,0.0,0.0,100.0,1.0,1.186,26.0,0.0,-18.48,74.678,66.0,100.0,26.0,26.0,26.0,26.0,1.23,-1.2,-0.03,384.9,-2.35,-2.7,-2.99,0.21,-696.24,552.79,6.0,0.0,0.0,0.0,0.0,0.09,-7.49,-7.49,-1.18,1.68,-0.56,0.64,31.34,1.27,-0.59,-26.85,100.0,0.0,0.0,82.45,0.0,0.0,0.0,0.0,0.0,0.0,0.0,5472.0,0.0,30.0,0.0,113.1,1.0,0.0,0.0,0.0,0.0,0.0,0.0,0.0,3.281,3.281,74.679,19.926,1.0,110.0,435.8,8750.0,0.0,0.0,110.0,110.0,433.0,0.0,0.0,0.0,1.0,333.3,63.4,63.4,86.2,86.2,34.0,-6.34,-17.22,-1.0,51.0,1.0,-80.54,-163.3,100.0,20.9,31.8,13.3,28.2,0.0,1.0,50.0,0.0,0.0,0.0,0.0,3135.0,6787.0,1273.0,5478.0,316.9,306.3,351.7,341.1,24.59,23.01,25.32,24.54,325.0,325.0,355.0,355.0,99.68,99.61,99.67,99.63,10.71,10.08,3.42,3.52,-9.8,-13.9,-11.5,-3.8,79.7,69.8,78.0,73.1,83.7,72.0,80.7,74.7,80.8,69.7,79.2,72.9,78.8,68.4,78.5,72.0,-9.65,8.92,0.12,0.07,0.0,85.85,80.8,78.7,86.2,356.7,7.7,1.7186622704883003,102.26888589614525,52.57484975982299,-28.808137088542907,28.80813651951911,0,0
67,3.3,145.3,44.05337678851962,-78.6815607150546,27.1,-4.5,-28.8,96.9,1716.5,1717.0,110.9,1.0,1.0,1.0,0.0,1.0,1.0,0.0,0.0,0.0,100.0,1.0,1.186,26.0,0.0,-18.618,74.678,66.0,100.0,26.0,26.0,26.0,26.0,1.32,-1.26,0.14,383.3,-2.27,-3.78,-2.01,-0.79,-695.51,551.39,6.0,0.0,0.0,0.0,0.0,0.09,-7.49,-7.49,-1.09,2.7,-0.56,-0.45,30.74,1.41,-0.55,-28.07,100.0,0.0,0.0,80.79,0.0,0.0,0.0,0.0,0.0,0.0,0.0,6211.0,0.0,30.0,0.0,110.9,0.0,0.0,0.0,0.0,0.0,0.0,0.0,0.0,3.333,3.333,74.679,19.926,0.0,110.0,435.8,8750.0,0.0,0.0,110.0,110.0,433.0,0.0,0.0,0.0,1.0,166.7,61.5,61.5,88.0,88.0,34.0,-9.06,-16.54,-1.2,32.6,1.0,-80.59,-188.2,100.0,22.3,31.5,11.9,33.0,0.0,1.0,5.5,0.0,0.0,0.0,0.0,4075.0,6729.0,1720.0,5136.0,314.6,306.0,350.8,341.6,24.59,23.02,25.32,24.54,325.0,325.0,355.0,355.0,99.68,99.61,99.67,99.63,12.51,11.65,3.78,3.9,-9.5,-17.3,-8.7,-4.2,79.7,69.8,78.0,73.1,83.8,72.3,80.7,74.7,81.0,70.0,79.1,73.0,78.9,68.7,78.4,72.1,-11.22,10.26,0.11,0.07,0.0,79.36,80.44,77.5,84.08,356.7,7.7,1.8301912468373354,99.38807218729096,53.29505321548774,-82.8233934182812,3.6010175628356222,0,0
68,3.35,146.8,44.05336455774578,-78.68155397014255,-51.0,-23.0,68.0,22.7,1718.0,1718.0,108.8,1.0,1.0,1.0,0.0,1.0,1.0,0.0,0.0,0.0,100.0,1.0,1.186,26.0,0.0,-18.618,74.678,66.0,100.0,26.0,26.0,26.0,26.0,1.16,-0.98,-0.07,385.0,-1.93,-2.85,-2.8,-0.35,-694.76,550.03,6.0,0.0,0.0,0.0,0.0,0.09,-7.49,-7.49,-0.98,0.86,-0.4,2.04,30.15,1.57,-0.52,-27.71,100.0,0.0,0.0,77.38,0.0,0.0,0.0,0.0,0.0,0.0,0.0,5970.0,0.0,30.0,0.0,108.8,1.0,0.0,0.0,0.0,0.0,0.0,0.0,0.0,3.384,3.384,74.679,19.926,1.0,110.0,435.8,8750.0,0.0,0.0,110.0,110.0,433.0,0.0,0.0,0.0,1.0,166.7,67.3,67.3,81.0,81.0,34.0,-2.36,-20.18,-1.6,24.7,1.0,-80.64,-212.7,100.0,19.7,30.4,15.3,34.2,0.0,1.0,0.0,0.0,0.0,0.0,0.0,1559.0,6813.0,1811.0,4982.0,321.1,306.7,350.8,342.0,24.59,23.02,25.32,24.54,325.0,325.0,355.0,355.0,99.69,99.61,99.67,99.63,14.55,13.39,4.07,4.19,-17.5,-8.5,-12.5,-4.3,79.7,69.8,78.0,73.1,84.0,72.7,80.7,74.8,81.1,70.4,79.2,73.0,79.0,69.0,78.5,72.1,-12.89,11.64,0.11,0.07,0.0,74.11,85.17,72.66,82.1,356.7,7.7,1.520164464786623,93.98654655431713,52.93495151610655,-108.03051322850038,-10.803051550459486,0,0
69,3.4,148.3,44.0533533162257,-78.68154749502699,-77.3,86.9,56.7,16.6,1719.5,1720.0,107.1,1.0,1.0,1.0,0.0,1.0,1.0,0.0,0.0,0.0,100.0,1.0,1.186,26.0,0.0,-18.738,74.678,66.0,70.3,26.0,26.0,26.0,26.0,1.42,-1.05,0.22,382.2,-1.29,-1.72,-2.51,-0.02,-694.04,548.78,6.0,0.0,0.0,0.0,0.0,0.09,-7.49,-7.49,-0.97,-0.41,-0.51,-6.47,29.66,1.57,-0.53,-23.53,100.0,0.0,0.0,79.69,0.0,0.0,0.0,0.0,0.0,0.0,0.0,5342.0,0.0,30.0,3.0,107.1,0.0,0.0,0.0,0.0,0.0,0.0,0.0,0.0,3.431,3.431,74.679,19.926,0.0,110.0,435.8,8750.0,0.0,0.0,110.0,110.0,433.0,0.0,0.0,0.0,1.0,333.3,66.5,66.5,70.4,70.4,34.0,-3.33,-22.01,8.0,39.9,1.0,-80.69,-236.8,100.0,15.8,34.7,18.1,35.0,0.0,1.0,0.0,0.0,0.0,0.0,0.0,1890.0,7317.0,2887.0,5975.0,320.5,305.3,347.7,339.5,24.58,23.02,25.32,24.54,325.0,325.0,355.0,355.0,99.69,99.61,99.67,99.63,16.45,15.01,4.1,4.27,-13.7,-8.2,-5.7,-3.6,79.7,69.9,78.0,73.1,84.0,73.1,80.7,74.8,81.1,70.8,79.2,73.1,79.1,69.4,78.4,72.2,-14.48,12.85,0.1,0.07,0.0,75.6,83.33,77.89,81.49,356.7,7.7,1.7796909844127435,88.58502086444092,52.21474806044179,-28.808137088542765,36.01017107616684,0,0
70,3.45,149.8,44.05334243443428,-78.68154092997926,129.5,0.2,-25.8,-86.7,1721.0,1721.0,105.3,1.0,1.0,1.0,0.0,1.0,1.0,0.0,0.0,0.0,100.0,1.0,1.186,26.0,0.0,-18.843,74.678,66.0,36.4,26.0,26.0,26.0,26.0,1.43,-1.0,0.09,382.5,-1.62,-2.91,-1.92,0.87,-693.31,547.57,6.0,0.0,0.0,0.0,0.0,0.09,-7.49,-7.49,-0.95,3.2,-0.76,-2.2,29.18,1.54,-0.55,-27.11,100.0,0.0,0.0,78.55,0.0,0.0,0.0,0.0,0.0,0.0,0.0,5265.0,0.0,30.0,3.0,105.3,1.0,0.0,0.0,0.0,0.0,0.0,0.0,0.0,3.48,3.48,74.679,19.926,1.0,110.0,435.8,8750.0,0.0,0.0,110.0,110.0,433.0,0.0,0.0,0.0,1.0,333.3,61.0,61.0,81.6,81.6,34.0,-8.76,-19.19,0.5,41.1,1.0,-80.74,-255.9,100.0,22.3,34.7,16.8,30.7,0.0,1.0,0.0,0.0,0.0,0.0,0.0,3914.0,6612.0,1400.0,5085.0,314.9,306.8,351.4,341.9,24.58,23.02,25.31,24.54,325.0,325.0,355.0,355.0,99.69,99.61,99.67,99.63,17.48,15.86,4.28,4.34,-12.3,-10.9,-6.8,-2.6,79.7,69.9,78.0,73.1,84.2,73.6,80.7,74.9,81.3,71.2,79.1,73.1,79.2,69.8,78.4,72.2,-15.76,13.93,0.11,0.06,0.0,75.66,77.79,75.75,81.34,356.7,7.7,1.7472836060582724,91.10573284546285,56.535968623723235,2.8451182743083336e-07,54.01525661425026,0,0
71,3.5,151.2,44.053330563389075,-78.68153337567777,-28.9,-48.8,-81.1,117.9,1722.4,1722.0,103.7,0.0,1.0,1.0,0.0,1.0,1.0,0.0,0.0,0.0,100.0,1.0,1.186,26.0,0.0,-18.942,74.678,66.0,11.1,26.0,26.0,26.0,26.0,1.43,-0.62,-0.0,384.2,-1.75,-3.51,-1.31,0.37,-692.47,546.25,6.0,0.0,0.0,0.0,0.0,0.09,-7.49,-7.49,-0.72,4.68,-0.74,-1.55,28.74,1.54,-0.45,-26.35,100.0,0.0,0.0,78.99,0.0,0.0,0.0,0.0,0.0,0.0,0.0,5295.0,0.0,30.0,3.0,103.7,0.0,0.0,0.0,0.0,0.0,0.0,0.0,0.0,3.534,3.534,74.679,19.926,0.0,110.0,435.8,8750.0,0.0,0.0,110.0,110.0,433.0,0.0,0.0,0.0,1.0,166.7,68.5,68.5,84.5,84.5,34.0,-2.75,-13.88,5.3,81.2,1.0,-80.79,-270.0,100.0,20.9,32.3,12.8,36.6,0.0,1.0,0.0,0.0,0.0,0.0,0.0,1610.0,4890.0,1460.0,7518.0,321.2,311.3,351.2,335.7,24.58,23.02,25.31,24.54,325.0,325.0,355.0,355.0,99.69,99.62,99.67,99.64,18.64,16.68,4.3,4.41,-11.0,-6.7,-4.2,-1.3,79.7,69.9,78.0,73.1,84.4,74.0,80.7,75.0,81.5,71.5,79.1,73.2,79.4,70.1,78.4,72.3,-16.84,14.77,0.1,0.07,0.0,73.56,80.38,76.93,81.04,356.7,7.7,1.5586211855354717,88.5850208928921,57.61627372186682,-75.62135914614558,10.803050981435831,0,0
72,3.55,152.6,44.05332031112277,-78.68152654083357,-82.9,-185.0,138.7,70.0,1723.8,1724.0,102.7,0.0,1.0,1.0,0.0,1.0,1.0,0.0,0.0,0.0,100.0,1.0,1.186,26.0,0.0,-19.035,74.678,66.0,2.0,26.0,26.0,26.0,26.0,1.48,-0.42,0.03,384.9,-2.02,-2.31,-2.41,0.15,-691.71,545.11,6.0,0.0,0.0,0.0,0.0,0.09,-7.49,-7.49,-0.66,-0.9,-0.65,7.5,28.48,1.43,-0.4,-21.19,100.0,0.0,0.0,79.65,0.0,0.0,0.0,0.0,0.0,0.0,0.0,5339.0,0.0,30.0,3.0,102.7,1.0,0.0,0.0,0.0,0.0,0.0,0.0,0.0,3.581,3.581,74.679,19.926,1.0,110.0,435.8,8750.0,0.0,0.0,110.0,110.0,433.0,0.0,0.0,0.0,1.0,333.3,74.6,74.6,78.0,78.0,34.0,-3.53,-16.39,30.3,75.0,1.0,-80.84,-279.7,100.0,16.7,23.1,19.7,40.1,0.0,1.0,0.0,0.0,0.0,0.0,0.0,1861.0,5639.0,2594.0,5688.0,320.3,310.1,348.4,340.2,24.58,23.02,25.31,24.54,325.0,325.0,355.0,355.0,99.69,99.62,99.67,99.64,19.32,17.33,3.73,3.91,-7.2,-2.9,-0.4,-0.8,79.6,69.9,78.0,73.1,84.5,74.3,80.6,75.0,81.5,71.8,79.1,73.3,79.5,70.4,78.4,72.4,-17.56,15.38,0.11,0.05,0.0,76.27,82.27,78.87,80.43,356.7,7.7,1.5387332452377833,83.5435969308483,57.61627372186682,-68.41932515852136,14.404068544271524,0,0
73,3.6,154.0,44.053309699127816,-78.68151898653208,-73.9,72.3,-103.2,17.4,1725.3,1725.0,101.9,0.0,1.0,1.0,0.0,1.0,1.0,0.0,0.0,0.0,100.0,1.0,1.186,26.0,0.0,-19.035,74.678,66.0,0.3,26.0,26.0,26.0,26.0,1.31,-0.39,-0.11,387.6,-0.85,-2.79,-2.87,-0.51,-690.87,543.93,6.0,0.0,0.0,0.0,0.0,0.09,-7.49,-7.49,-0.76,-1.88,-0.36,-1.34,28.27,1.22,-0.45,-19.25,100.0,0.0,0.0,79.05,0.0,0.0,0.0,0.0,0.0,0.0,0.0,5299.0,0.0,30.0,3.0,101.9,0.0,0.0,0.0,0.0,0.0,0.0,1.0,0.0,3.633,3.633,74.679,19.926,0.0,110.0,435.8,8750.0,0.0,0.0,110.0,110.0,433.0,0.0,0.0,0.0,1.0,166.7,74.1,74.1,82.5,82.5,34.0,-2.61,-18.74,7.1,73.1,1.0,-80.89,-287.8,100.0,13.0,26.7,14.5,40.9,0.0,1.0,0.0,0.0,0.0,0.0,0.0,1378.0,6146.0,814.0,4883.0,321.4,308.1,353.1,341.9,24.58,23.02,25.31,24.54,325.0,325.0,355.0,355.0,99.69,99.62,99.67,99.64,19.72,17.56,3.08,3.46,-4.0,-1.3,-0.5,-0.7,79.6,69.9,78.0,73.1,84.5,74.7,80.6,75.1,81.6,72.2,79.1,73.3,79.5,70.7,78.3,72.4,-18.2,15.8,0.12,0.05,0.0,78.01,82.5,78.38,79.72,356.7,7.7,1.371240314459869,81.74308837703997,59.05668057629397,-36.01017136067853,28.80813708854305,0,0
74,3.65,155.4,44.05329989652231,-78.68151179195924,6.3,-6.7,-11.5,-147.8,1726.7,1727.0,101.3,0.0,1.0,1.0,0.0,1.0,1.0,0.0,0.0,0.0,100.0,1.0,1.186,26.0,0.0,-19.131,74.678,66.0,0.0,26.0,26.0,26.0,26.0,1.38,-0.35,-0.1,388.9,-0.49,-3.06,-2.19,0.22,-690.07,542.84,6.0,0.0,0.0,0.0,0.0,0.09,-7.49,-7.49,-0.79,0.12,-0.44,-1.41,28.09,1.09,-0.39,-19.98,100.0,0.0,0.0,78.71,0.0,0.0,0.0,0.0,0.0,0.0,0.0,5276.0,0.0,30.0,3.0,101.3,1.0,0.0,0.0,0.0,0.0,0.0,1.0,0.0,3.681,3.681,74.679,19.926,1.0,110.0,435.8,8750.0,0.0,0.0,110.0,110.0,433.0,0.0,0.0,0.0,1.0,333.3,75.3,75.3,80.6,80.6,34.0,-1.81,-16.9,19.9,98.6,1.0,-80.94,-291.4,100.0,13.4,26.3,14.0,33.6,0.0,1.0,0.0,0.0,0.0,0.0,0.0,1073.0,5625.0,1712.0,5946.0,322.5,309.4,350.7,339.8,24.58,23.02,25.31,24.54,325.0,325.0,355.0,355.0,99.69,99.62,99.67,99.64,19.73,17.5,3.16,3.32,-1.9,-1.2,-0.3,-0.5,79.6,69.9,78.0,73.1,84.6,75.0,80.6,75.1,81.6,72.5,79.0,73.3,79.6,71.0,78.3,72.5,-18.52,16.03,0.12,0.06,0.0,78.98,82.19,77.99,79.43,356.7,7.7,1.4272000560538103,79.94257979478044,60.49708743072112,-39.61118835449071,28.808137088542622,0,0
64,3.15,105.0,44.05372833333537,-78.68171090176278,-80.5,-197.9,81.4,57.9,3457.8,3458.0,122.2,0.0,1.0,1.0,0.0,1.0,1.0,0.0,0.0,0.0,100.0,1.0,1.186,26.0,0.0,2.964,74.678,66.0,0.0,26.0,26.0,26.0,26.0,1.44,0.35,-0.1,385.9,-2.37,-1.57,-3.65,-0.7,-712.21,590.48,5.9,0.0,0.0,0.0,0.0,0.06,-7.49,-7.49,-0.16,-3.76,0.54,-1.5,33.73,3.8,-0.41,-53.6,100.0,0.0,0.0,101.64,0.0,0.0,0.0,0.0,0.0,0.0,0.0,6813.0,0.0,30.0,3.0,122.2,1.0,0.0,0.0,0.0,0.0,0.0,1.0,0.0,3.159,3.159,84.921,21.577,1.0,110.0,435.8,8750.0,0.0,0.0,110.0,110.0,433.0,0.0,0.0,0.0,1.0,333.3,84.5,84.5,69.3,69.3,34.0,0.0,5.65,-9.0,-23.9,2.0,-165.34,-26.0,100.0,8.4,21.9,22.3,49.4,0.0,1.0,100.0,0.0,0.0,0.0,0.0,0.0,4052.0,4486.0,7122.0,325.0,313.6,344.9,337.3,24.86,22.58,27.22,26.15,325.0,325.0,355.0,355.0,100.0,99.84,100.0,100.0,0.0,5.72,8.56,8.39,0.0,-0.2,9.8,4.6,81.4,67.1,89.9,83.2,104.6,78.7,109.0,96.9,100.2,75.6,107.3,94.3,97.8,74.3,106.2,92.6,-1.71,1.66,0.11,0.02,0.0,100.32,105.28,101.64,101.64,356.7,7.7,1.4852945835759315,122.79468338679936,21.606102645700055,-7.202034556647732,46.81322262662633,0,0
65,3.2,106.7,44.053713044868076,-78.68170802393365,-34.4,-35.0,-15.5,-206.4,3459.5,3460.0,122.3,0.0,1.0,1.0,0.0,1.0,1.0,0.0,0.0,0.0,100.0,1.0,1.186,26.0,0.0,3.012,74.678,66.0,0.0,26.0,26.0,26.0,26.0,1.08,0.19,-0.24,392.2,-3.23,-1.37,-2.2,-1.43,-711.89,588.78,5.9,0.0,0.0,0.0,0.0,0.06,-7.49,-7.49,-0.49,-7.11,0.44,-2.88,33.65,4.65,-0.48,-44.55,100.0,0.0,0.0,102.6,0.0,0.0,0.0,0.0,0.0,0.0,0.0,6878.0,0.0,30.0,3.0,122.3,0.0,0.0,0.0,0.0,0.0,0.0,0.0,0.0,3.21,3.21,84.921,21.577,0.0,110.0,435.8,8750.0,0.0,0.0,110.0,110.0,433.0,0.0,0.0,0.0,1.0,333.3,83.8,83.8,78.3,78.3,34.0,0.0,-2.28,-1.0,-12.0,2.0,-165.39,-1.5,100.0,6.7,20.1,21.5,39.1,0.0,1.0,87.9,0.0,0.0,0.0,0.0,0.0,4736.0,692.0,4158.0,325.0,311.9,352.7,344.5,24.87,22.58,27.23,26.16,325.0,325.0,355.0,355.0,100.0,99.84,100.0,100.0,0.0,6.21,9.74,9.45,0.0,-0.4,11.0,5.4,81.4,67.2,89.9,83.2,104.5,78.8,109.0,97.1,100.1,75.7,107.4,94.5,97.7,74.4,106.2,92.8,-0.28,0.28,0.1,0.04,0.0,100.32,104.61,102.27,102.92,356.7,7.7,1.1225417586887358,118.83356457980148,23.0465095001272,-10.803050981435831,46.813222626626256,0,0
66,3.25,108.4,44.05369865572238,-78.6817051461045,174.7,114.3,-231.0,-186.5,3461.2,3461.0,122.1,0.0,1.0,1.0,0.0,1.0,1.0,0.0,0.0,0.0,100.0,1.0,1.186,26.0,0.0,3.057,74.678,66.0,0.0,26.0,26.0,26.0,26.0,1.49,-0.02,-0.14,389.6,-3.99,-2.42,-1.89,-0.87,-711.57,587.18,5.9,0.0,0.0,0.0,0.0,0.06,-7.49,-7.49,-0.65,0.5,0.3,-1.63,33.47,5.36,-0.46,-50.42,100.0,0.0,0.0,100.41,0.0,0.0,0.0,0.0,0.0,0.0,0.0,6731.0,0.0,30.0,3.0,122.1,1.0,0.0,0.0,0.0,0.0,0.0,0.0,0.0,3.259,3.259,84.921,21.577,1.0,110.0,435.8,8750.0,0.0,0.0,110.0,110.0,433.0,0.0,0.0,0.0,1.0,166.7,67.8,67.8,90.7,90.7,34.0,8.21,9.31,-1.8,-11.1,2.0,-165.44,24.2,100.0,15.4,25.9,10.0,29.7,0.0,1.0,47.2,0.0,0.0,0.0,0.0,3043.0,7496.0,1227.0,3965.0,317.1,304.6,352.6,345.5,24.87,22.59,27.23,26.16,325.0,325.0,355.0,355.0,100.0,99.84,100.0,100.0,5.83,5.76,11.05,10.89,-0.2,-0.6,9.4,3.1,81.5,67.2,90.0,83.3,104.5,79.0,108.9,97.2,100.1,75.8,107.3,94.6,97.7,74.5,106.1,92.9,1.21,-1.19,0.12,0.06,0.0,100.62,104.91,100.38,100.44,356.7,7.7,1.4966963619919706,121.71437828865578,26.28742490836268,18.005085538083705,61.217290601873984,0,0
67,3.3,110.1,44.05368264779779,-78.68170145888593,-2.1,186.2,205.7,151.6,3462.9,3463.0,121.8,0.0,1.0,1.0,0.0,1.0,1.0,0.0,0.0,0.0,100.0,1.0,1.186,26.0,0.0,3.105,74.678,66.0,0.0,26.0,26.0,26.0,26.0,1.72,0.1,0.19,381.4,-3.61,-1.68,-2.27,-1.06,-711.16,585.4,5.9,0.0,0.0,0.0,0.0,0.07,-7.49,-7.49,-0.39,5.76,0.36,2.88,33.27,6.04,-0.39,-48.14,100.0,0.0,0.0,96.53,0.0,0.0,0.0,0.0,0.0,0.0,0.0,6471.0,0.0,30.0,3.0,121.8,0.0,0.0,0.0,0.0,0.0,0.0,0.0,0.0,3.311,3.311,84.921,21.577,0.0,110.0,435.8,8750.0,0.0,0.0,110.0,110.0,433.0,0.0,0.0,0.0,1.0,166.7,66.2,66.2,66.5,66.5,34.0,1.7,39.07,-7.4,-18.5,2.0,-165.49,52.2,100.0,15.3,35.2,20.2,37.3,0.0,1.0,0.0,0.0,0.0,0.0,0.0,666.0,8080.0,3226.0,5691.0,323.3,303.3,347.4,340.4,24.88,22.59,27.24,26.17,325.0,325.0,355.0,355.0,100.0,99.84,100.0,100.0,5.48,5.25,12.22,11.96,-0.2,-0.3,5.6,1.3,81.5,67.2,90.0,83.3,104.4,79.1,109.0,97.5,100.1,75.9,107.3,94.8,97.6,74.6,106.2,93.1,2.83,-2.84,0.1,0.04,0.0,100.58,104.82,96.35,96.72,356.7,7.7,1.7333493589002764,120.63407313360985,29.1682385603146,-93.62644496874083,39.61118806997867,0,0
68,3.35,111.8,44.05366852844858,-78.6816978615995,-39.0,51.0,120.6,283.2,3464.6,3465.0,121.2,0.0,1.0,1.0,0.0,1.0,1.0,0.0,0.0,0.0,100.0,1.0,1.186,26.0,0.0,3.153,74.678,66.0,0.0,26.0,26.0,26.0,26.0,1.88,-0.05,0.21,374.6,-5.63,-1.52,-3.09,0.39,-710.76,583.83,5.9,0.0,0.0,0.0,0.0,0.07,-7.49,-7.49,-0.13,4.04,0.58,1.37,33.04,6.37,-0.43,-40.69,100.0,0.0,0.0,92.84,0.0,0.0,0.0,0.0,0.0,0.0,0.0,6224.0,0.0,30.0,3.0,121.2,1.0,0.0,0.0,0.0,0.0,0.0,0.0,0.0,3.36,3.36,84.921,21.577,1.0,110.0,435.8,8750.0,0.0,0.0,110.0,110.0,433.0,0.0,0.0,0.0,1.0,333.3,64.9,64.9,59.0,59.0,34.0,4.36,50.74,-6.4,-28.4,2.0,-165.54,69.3,100.0,13.4,37.7,26.3,51.5,0.0,1.0,0.0,0.0,0.0,0.0,0.0,1207.0,8628.0,2970.0,8277.0,322.5,301.6,348.4,334.5,24.88,22.6,27.24,26.17,325.0,325.0,355.0,355.0,100.0,99.84,100.0,100.0,5.3,5.13,12.64,12.38,-0.1,-0.3,1.4,-1.6,81.5,67.2,90.0,83.3,104.4,79.3,109.1,97.8,100.0,76.1,107.4,95.1,97.6,74.8,106.2,93.4,3.86,-3.88,0.09,0.02,0.0,100.53,104.01,92.65,93.04,356.7,7.7,1.892353032602532,112.3517337917817,30.248543715360547,-64.81830788019792,46.813222626626185,0,0
69,3.4,113.4,44.05365458896369,-78.68169390458444,-22.9,57.3,59.8,54.2,3466.3,3466.0,120.4,0.0,1.0,1.0,0.0,1.0,1.0,0.0,0.0,0.0,100.0,1.0,1.186,26.0,0.0,3.201,74.678,66.0,0.0,26.0,26.0,26.0,26.0,1.79,-0.09,0.4,375.7,-4.96,-0.5,-1.87,-1.38,-710.32,582.28,5.9,0.0,0.0,0.0,0.0,0.07,-7.49,-7.49,0.05,2.17,0.5,-5.69,32.8,6.45,-0.53,-31.92,100.0,0.0,0.0,91.18,0.0,0.0,0.0,0.0,0.0,0.0,0.0,6112.0,0.0,30.0,3.0,120.4,0.0,0.0,0.0,0.0,0.0,0.0,0.0,0.0,3.409,3.409,84.921,21.577,0.0,110.0,435.8,8750.0,0.0,0.0,110.0,110.0,433.0,0.0,0.0,0.0,1.0,166.7,66.6,66.6,55.7,55.7,34.0,0.0,61.54,-1.7,-28.0,2.0,-165.59,82.6,100.0,12.2,40.6,29.3,54.2,0.0,1.0,0.0,0.0,0.0,0.0,0.0,0.0,8322.0,863.0,7883.0,325.0,301.4,352.1,335.3,24.89,22.6,27.25,26.17,325.0,325.0,355.0,355.0,100.0,99.84,100.0,100.0,0.0,5.0,12.61,12.32,0.0,-0.2,-0.4,-1.9,81.6,67.3,90.1,83.3,104.3,79.4,109.2,98.1,100.0,76.2,107.5,95.5,97.5,74.9,106.3,93.7,4.64,-4.67,0.08,0.02,0.0,100.4,103.08,90.56,91.8,356.7,7.7,1.8363550854886428,114.15224234559005,33.84956082297722,72.02034215233354,79.22237670898106,0,0
70,3.45,115.1,44.053640019953676,-78.6816894079764,-52.1,-264.9,3.3,-184.2,3467.9,3468.0,119.7,0.0,1.0,1.0,0.0,1.0,1.0,0.0,0.0,0.0,100.0,1.0,1.186,26.0,0.0,3.249,74.678,66.0,0.0,26.0,26.0,26.0,26.0,1.53,-0.13,-0.14,384.4,-4.25,-1.07,-2.58,0.77,-709.82,580.66,6.0,0.0,0.0,0.0,0.0,0.07,-7.49,-7.49,0.07,-2.25,-0.04,-7.44,32.61,6.43,-0.44,-18.02,100.0,0.0,0.0,90.1,0.0,0.0,0.0,0.0,0.0,0.0,0.0,6040.0,0.0,30.0,3.0,119.7,1.0,0.0,0.0,0.0,0.0,0.0,0.0,0.0,3.459,3.459,84.921,21.577,1.0,110.0,435.8,8750.0,0.0,0.0,110.0,110.0,433.0,0.0,0.0,0.0,1.0,333.3,81.6,81.6,58.0,58.0,34.0,0.0,36.1,-12.2,-19.6,2.0,-165.64,99.1,100.0,9.6,27.3,29.4,45.0,0.0,1.0,0.0,0.0,0.0,0.0,0.0,0.0,4705.0,4640.0,6380.0,325.0,311.9,344.0,339.8,24.9,22.61,27.25,26.18,325.0,325.0,355.0,355.0,100.0,99.84,100.0,100.0,0.0,4.65,12.03,11.97,0.0,-0.2,-1.0,-2.3,81.6,67.3,90.1,83.4,104.2,79.5,109.3,98.4,99.9,76.3,107.6,95.7,97.4,75.0,106.4,94.0,5.55,-5.73,0.09,0.04,0.0,100.4,101.97,89.88,90.32,356.7,7.7,1.5418819669481838,119.55376800701505,38.17078138625865,7.202034272135904,54.01525661425019,0,0
71,3.5,116.7,44.05362473148637,-78.6816843717754,-52.0,-141.1,-128.7,-211.6,3469.6,3470.0,119.1,0.0,1.0,1.0,0.0,1.0,1.0,0.0,0.0,0.0,100.0,1.0,1.186,26.0,0.0,3.297,74.678,66.0,0.0,26.0,26.0,26.0,26.0,1.04,-0.07,-0.38,394.3,-3.84,-0.92,-2.03,-1.27,-709.26,578.96,6.0,0.0,0.0,0.0,0.0,0.07,-7.49,-7.49,-0.25,-6.91,-0.3,-4.25,32.5,6.16,-0.43,-5.53,100.0,0.0,0.0,89.16,0.0,0.0,0.0,0.0,0.0,0.0,0.0,5977.0,0.0,30.0,3.0,119.1,0.0,0.0,0.0,0.0,0.0,0.0,0.0,0.0,3.513,3.513,84.921,21.577,0.0,110.0,435.8,8750.0,0.0,0.0,110.0,110.0,433.0,0.0,0.0,0.0,1.0,166.7,85.6,85.6,74.9,74.9,34.0,0.0,60.44,-2.3,-10.7,2.0,-165.69,115.1,100.0,7.0,20.3,23.0,34.4,0.0,1.0,0.0,0.0,0.0,0.0,0.0,0.0,4787.0,1322.0,3770.0,325.0,311.5,352.1,345.7,24.9,22.61,27.26,26.18,325.0,325.0,355.0,355.0,100.0,99.84,100.0,100.0,0.0,3.83,11.04,11.1,0.0,-0.2,-1.9,-2.5,81.6,67.3,90.1,83.4,104.1,79.6,109.3,98.5,99.8,76.4,107.6,95.9,97.3,75.1,106.4,94.1,6.49,-6.76,0.11,0.07,0.0,100.4,101.19,89.16,89.16,356.7,7.7,1.109459327780879,114.87244577280364,39.25108648440224,-126.03559876658366,3.6010164247883125,0,0
72,3.55,118.4,44.053611331594446,-78.6816796053709,69.0,97.7,-70.2,-105.2,3471.2,3471.0,118.6,0.0,1.0,1.0,0.0,1.0,1.0,0.0,0.0,0.0,100.0,1.0,1.186,26.0,0.0,3.348,74.678,66.0,0.0,26.0,26.0,26.0,26.0,1.18,-0.06,-0.13,391.6,-3.59,-1.52,-1.65,-1.17,-708.73,577.47,6.0,0.0,0.0,0.0,0.0,0.07,-7.49,-7.49,-0.53,-3.84,-0.44,-0.39,32.44,5.66,-0.46,-1.3,100.0,0.0,0.0,88.71,0.0,0.0,0.0,0.0,0.0,0.0,0.0,5947.0,0.0,30.0,3.0,118.6,1.0,0.0,0.0,0.0,0.0,0.0,0.0,0.0,3.561,3.561,84.921,21.577,1.0,110.0,435.8,8750.0,0.0,0.0,110.0,110.0,433.0,0.0,0.0,0.0,1.0,166.7,74.6,74.6,80.9,80.9,34.0,16.21,115.83,-0.9,-9.0,2.0,-165.74,121.9,100.0,10.5,25.2,19.5,29.1,0.0,1.0,0.0,0.0,0.0,0.0,0.0,1455.0,6354.0,535.0,3375.0,321.0,307.6,353.4,347.2,24.91,22.62,27.26,26.19,325.0,325.0,355.0,355.0,100.0,99.84,100.0,100.0,2.85,2.74,9.93,10.07,-0.1,-0.1,-2.6,-2.6,81.7,67.4,90.2,83.4,104.0,79.6,109.3,98.6,99.7,76.4,107.6,96.0,97.2,75.1,106.4,94.2,6.92,-7.24,0.1,0.07,0.0,100.75,100.87,88.71,88.71,356.7,7.7,1.1886547017532045,106.95020813035669,38.530883028737485,-54.015256614250404,21.606102531895388,0,0
73,3.6,120.0,44.05359802163468,-78.68167474903423,53.4,57.2,-47.1,5.2,3472.9,3473.0,118.1,0.0,1.0,1.0,0.0,1.0,1.0,0.0,0.0,0.0,100.0,1.0,1.186,26.0,0.0,3.348,74.678,66.0,0.0,26.0,26.0,26.0,26.0,1.35,-0.14,-0.08,389.0,-3.68,-2.07,-2.53,-1.49,-708.19,575.99,6.0,0.0,0.0,0.0,0.0,0.07,-7.49,-7.49,-0.57,0.13,-0.52,0.28,32.39,5.05,-0.41,4.19,100.0,0.0,0.0,88.89,0.0,0.0,0.0,0.0,0.0,0.0,0.0,5958.0,0.0,30.0,3.0,118.1,0.0,0.0,0.0,0.0,0.0,0.0,0.0,0.0,3.609,3.609,84.921,21.577,0.0,110.0,435.8,8750.0,0.0,0.0,110.0,110.0,433.0,0.0,0.0,0.0,1.0,166.7,74.1,74.1,78.6,78.6,34.0,12.78,88.29,-7.2,-16.0,2.0,-165.79,114.6,100.0,13.1,28.0,17.1,29.4,0.0,1.0,0.0,0.0,0.0,0.0,0.0,1324.0,4848.0,3073.0,5109.0,321.9,311.2,347.7,342.5,24.91,22.62,27.27,26.19,325.0,325.0,355.0,355.0,100.0,99.84,100.0,100.0,2.27,2.12,8.63,8.93,-0.0,0.0,-2.6,-2.3,81.7,67.4,90.2,83.4,104.0,79.6,109.3,98.7,99.6,76.4,107.6,96.1,97.2,75.1,106.4,94.3,6.63,-6.93,0.1,0.07,0.0,100.77,100.42,88.88,88.88,356.7,7.7,1.3595955280891447,109.4709201113786,41.411696737591775,10.803051265947659,50.41424018946181,0,0
74,3.65,121.7,44.053583992217625,-78.68166926317244,-23.4,-59.6,78.8,163.7,3474.5,3474.0,117.5,0.0,1.0,1.0,0.0,1.0,1.0,0.0,0.0,0.0,100.0,1.0,1.186,26.0,0.0,3.396,74.678,66.0,0.0,26.0,26.0,26.0,26.0,1.35,-0.14,0.02,386.9,-4.56,-0.76,-2.94,-1.81,-707.58,574.43,6.0,0.0,0.0,0.0,0.0,0.07,-7.49,-7.49,-0.65,-3.62,-0.22,8.43,32.37,4.09,-0.45,15.85,100.0,0.0,0.0,89.24,0.0,0.0,0.0,0.0,0.0,0.0,0.0,5983.0,0.0,30.0,3.0,117.5,1.0,0.0,0.0,0.0,0.0,0.0,0.0,0.0,3.66,3.66,84.921,21.577,1.0,110.0,435.8,8750.0,0.0,0.0,110.0,110.0,433.0,0.0,0.0,0.0,1.0,333.3,77.1,77.1,77.7,77.7,34.0,6.32,83.97,-1.5,-18.6,2.0,-165.84,91.8,100.0,12.0,25.0,21.1,37.6,0.0,1.0,0.0,0.0,0.0,0.0,0.0,710.0,4816.0,2348.0,6326.0,322.7,311.8,349.4,339.3,24.92,22.62,27.27,26.2,325.0,325.0,355.0,355.0,100.0,99.84,100.0,100.0,2.23,2.17,6.44,6.74,-0.0,-0.0,-2.5,-1.1,81.7,67.4,90.2,83.5,103.9,79.6,109.3,98.9,99.6,76.4,107.6,96.2,97.1,75.1,106.4,94.5,5.46,-5.66,0.09,0.05,0.0,100.83,99.32,89.24,89.24,356.7,7.7,1.357387196049823,108.03051325695145,43.572307047683665,-28.80813680403122,39.61118863900225,0,0
75,3.7,123.3,44.0535710419865,-78.68166386724279,97.1,35.0,-137.0,53.2,3476.1,3476.0,117.0,0.0,1.0,1.0,0.0,1.0,1.0,0.0,0.0,0.0,100.0,1.0,1.186,26.0,0.0,3.447,74.678,66.0,0.0,26.0,26.0,26.0,26.0,1.45,-0.17,0.08,384.9,-3.79,-1.71,-2.35,-0.39,-706.98,572.99,6.0,0.0,0.0,0.0,0.0,0.07,-7.49,-7.49,-0.83,-2.04,-0.01,3.96,32.36,2.95,-0.54,20.26,100.0,0.0,0.0,89.28,0.0,0.0,0.0,0.0,0.0,0.0,0.0,5985.0,0.0,30.0,3.0,117.0,0.0,0.0,0.0,0.0,0.0,0.0,1.0,0.0,3.709,3.709,84.921,21.577,0.0,110.0,435.8,8750.0,0.0,0.0,110.0,110.0,433.0,0.0,0.0,0.0,1.0,166.7,68.4,68.4,87.4,87.4,34.0,30.83,125.67,7.6,41.9,2.0,-165.89,60.7,100.0,16.8,26.8,14.2,40.2,0.0,1.0,0.0,0.0,0.0,0.0,0.0,2537.0,6549.0,1379.0,5216.0,317.9,306.9,351.4,342.0,24.93,22.63,27.28,26.2,325.0,325.0,355.0,355.0,100.0,99.84,100.0,100.0,2.16,2.37,4.34,4.62,-0.1,-0.1,-2.8,-1.0,81.8,67.4,90.2,83.5,103.8,79.7,109.2,98.9,99.5,76.5,107.5,96.3,97.1,75.2,106.3,94.5,3.74,-3.83,0.12,0.04,0.0,100.92,98.72,89.28,89.28,356.7,7.7,1.4621217459568818,106.59010643097548,45.372815601492,7.202034272135762,46.81322205760253,0,0
76,3.75,124.9,44.05355737229809,-78.6816579317202,28.0,159.8,0.2,-86.6,3477.7,3478.0,116.6,0.0,1.0,1.0,0.0,1.0,1.0,0.0,0.0,0.0,100.0,1.0,1.186,26.0,0.0,3.495,74.678,66.0,0.0,26.0,26.0,26.0,26.0,1.25,-0.16,0.04,384.2,-2.89,-1.86,-2.18,-0.47,-706.32,571.47,6.0,0.0,0.0,0.0,0.0,0.07,-7.49,-7.49,-0.75,5.1,0.09,-0.34,32.32,1.72,-0.52,18.29,100.0,0.0,0.0,89.95,0.0,0.0,0.0,0.0,0.0,0.0,0.0,6030.0,0.0,30.0,3.0,116.6,1.0,0.0,0.0,0.0,0.0,0.0,1.0,0.0,3.759,3.759,84.921,21.577,1.0,110.0,435.8,8750.0,0.0,0.0,110.0,110.0,433.0,0.0,0.0,0.0,1.0,333.3,63.7,63.7,81.7,81.7,34.0,16.62,151.78,5.4,91.7,2.0,-165.94,26.9,100.0,18.2,34.8,14.2,35.9,0.0,1.0,0.0,0.0,0.0,0.0,0.0,1521.0,7481.0,668.0,5079.0,320.8,303.7,353.2,342.7,24.93,22.63,27.28,26.21,325.0,325.0,355.0,355.0,100.0,99.84,100.0,100.0,2.0,2.17,2.29,2.57,0.1,-0.1,-2.0,-0.5,81.8,67.5,90.3,83.5,103.8,79.7,109.2,98.9,99.5,76.5,107.5,96.3,97.0,75.2,106.2,94.5,1.82,-1.81,0.12,0.05,0.0,100.49,98.61,89.95,89.95,356.7,7.7,1.260833057942248,108.75071668416503,48.25362925344392,-21.606102816407002,28.80813651951918,0,0
77,3.8,126.5,44.053543882474,-78.68165181633327,-150.3,-165.7,183.7,19.6,3479.4,3479.0,116.2,0.0,1.0,1.0,0.0,1.0,1.0,0.0,0.0,0.0,100.0,1.0,1.186,26.0,0.0,3.546,74.678,66.0,0.0,26.0,26.0,26.0,26.0,0.78,-0.11,-0.11,386.6,-2.51,-1.83,-1.2,-0.75,-705.64,569.97,6.0,0.0,0.0,0.0,0.0,0.07,-7.49,-7.49,-0.49,2.59,-0.2,-9.43,32.26,0.72,-0.31,18.48,100.0,0.0,0.0,90.38,0.0,0.0,0.0,0.0,0.0,0.0,0.0,6059.0,0.0,30.0,3.0,116.2,0.0,0.0,0.0,0.0,0.0,0.0,1.0,0.0,3.81,3.81,84.921,21.577,0.0,110.0,435.8,8750.0,0.0,0.0,110.0,110.0,433.0,0.0,0.0,0.0,1.0,333.3,78.9,78.9,71.2,71.2,34.0,0.0,75.96,14.8,102.9,2.0,-165.99,0.8,100.0,10.7,26.5,23.4,36.9,0.0,1.0,0.0,0.0,0.0,0.0,0.0,0.0,4364.0,2654.0,6868.0,325.0,312.9,348.8,338.1,24.94,22.64,27.29,26.21,325.0,325.0,355.0,355.0,100.0,99.84,100.0,100.0,0.0,2.0,0.7,1.0,0.0,-0.0,-0.7,-0.1,81.9,67.5,90.3,83.6,103.7,79.7,109.1,98.9,99.4,76.5,107.4,96.2,96.9,75.2,106.1,94.5,0.25,-0.25,0.09,0.06,0.0,100.25,98.06,91.03,89.74,356.7,7.7,0.795361553005927,104.42949614933478,48.25362925344392,-50.414239335926254,10.803050981435902,0,0
78,3.85,128.1,44.05353129197152,-78.68164588081068,12.1,-122.9,181.0,60.9,3481.0,3481.0,116.0,0.0,1.0,1.0,0.0,1.0,1.0,0.0,0.0,0.0,100.0,1.0,1.186,26.0,0.0,-14.088,74.678,66.0,0.0,26.0,26.0,26.0,26.0,0.35,-0.14,-0.05,385.6,-2.16,-2.12,-1.73,-1.25,-704.98,568.57,6.0,0.0,0.0,0.0,0.0,0.08,-7.49,-7.49,-0.6,-6.08,-0.91,-15.74,32.2,0.04,-0.34,12.73,100.0,0.0,0.0,90.08,0.0,0.0,0.0,0.0,0.0,0.0,0.0,6038.0,0.0,30.0,3.0,116.0,1.0,0.0,0.0,0.0,0.0,0.0,1.0,0.0,3.859,3.859,84.921,21.577,1.0,110.0,435.8,8750.0,0.0,0.0,110.0,110.0,433.0,0.0,0.0,0.0,1.0,166.7,81.1,81.1,66.4,66.4,34.0,17.94,48.1,-31.7,4.0,2.0,-166.04,-20.1,100.0,11.3,20.4,32.5,39.9,0.0,1.0,0.0,0.0,0.0,0.0,0.0,1602.0,2974.0,4341.0,3524.0,320.6,316.3,344.6,345.9,24.94,22.64,27.29,26.21,325.0,325.0,355.0,355.0,100.0,99.84,100.0,100.0,1.86,1.91,-0.26,-0.11,0.1,-0.1,-0.4,-0.2,81.9,67.5,90.3,83.6,103.6,79.7,109.0,98.8,99.3,76.5,107.3,96.2,96.9,75.2,106.1,94.4,-1.01,1.0,0.08,0.06,0.0,99.32,97.89,90.5,89.66,356.7,7.7,0.38026306683663086,103.7092927505724,49.33393435158751,18.00508553808342,28.808137088542978,0,0
79,3.9,129.7,44.05351798201175,-78.68163949562728,173.1,-79.6,-85.0,-297.6,3482.6,3483.0,115.7,0.0,1.0,1.0,0.0,1.0,1.0,0.0,0.0,0.0,100.0,1.0,1.186,26.0,0.0,-14.586,74.678,66.0,0.0,26.0,26.0,26.0,26.0,0.38,-0.15,-0.27,389.3,-2.22,-1.28,-1.01,-1.79,-704.27,567.09,6.0,0.0,0.0,0.0,0.0,0.08,-7.49,-7.49,-0.93,-5.32,-1.41,-0.49,32.13,-0.3,-0.41,0.27,100.0,0.0,0.0,89.81,0.0,0.0,0.0,0.0,0.0,0.0,0.0,6021.0,0.0,30.0,3.0,115.7,0.0,0.0,0.0,0.0,0.0,0.0,1.0,0.0,3.909,3.909,84.921,21.577,0.0,110.0,435.8,8750.0,0.0,0.0,110.0,110.0,433.0,0.0,0.0,0.0,1.0,166.7,75.1,75.1,85.1,85.1,34.0,59.72,44.6,-21.4,-4.5,2.0,-166.09,-42.7,100.0,20.0,16.4,28.2,25.1,0.0,1.0,0.0,0.0,0.0,0.0,0.0,4492.0,2988.0,2555.0,2173.0,313.7,317.0,349.0,349.7,24.95,22.64,27.3,26.22,325.0,325.0,355.0,355.0,100.0,99.84,100.0,100.0,1.71,1.78,-0.61,-0.46,0.0,-0.1,-0.5,-0.4,81.9,67.5,90.4,83.6,103.6,79.7,108.9,98.8,99.3,76.5,107.2,96.1,96.8,75.2,106.0,94.4,-2.28,2.24,0.09,0.08,0.0,98.57,98.22,89.81,89.81,356.7,7.7,0.48969378186781176,106.23000470314312,51.134442962298216,-14.404068828783494,10.803052119483212,0,0
80,3.95,131.3,44.053504761984144,-78.68163311044387,76.0,151.1,-113.8,23.9,3484.2,3484.0,115.4,0.0,1.0,1.0,0.0,1.0,1.0,0.0,0.0,0.0,100.0,1.0,1.186,26.0,0.0,-15.024,74.678,66.0,0.0,26.0,26.0,26.0,26.0,0.78,-0.22,0.04,385.0,-2.2,-4.17,-0.71,-0.69,-703.56,565.62,6.0,0.0,0.0,0.0,0.0,0.08,-7.49,-7.49,-1.07,0.41,-1.07,9.98,32.04,-0.35,-0.47,-15.53,100.0,0.0,0.0,89.8,0.0,0.0,0.0,0.0,0.0,0.0,0.0,6020.0,0.0,30.0,3.0,115.4,1.0,0.0,0.0,0.0,0.0,0.0,1.0,0.0,3.96,3.96,84.921,21.577,1.0,110.0,435.8,8750.0,0.0,0.0,110.0,110.0,433.0,0.0,0.0,0.0,1.0,166.7,65.6,65.6,84.1,84.1,34.0,61.42,103.0,-9.7,-0.1,2.0,-166.14,-67.2,100.0,23.8,23.9,22.5,26.3,0.0,1.0,0.0,0.0,0.0,0.0,0.0,4082.0,5556.0,2359.0,3440.0,314.3,309.1,349.6,346.4,24.95,22.65,27.3,26.22,325.0,325.0,355.0,355.0,100.0,99.85,100.0,100.0,2.26,2.3,-0.25,-0.11,-0.0,-0.2,-0.2,-0.6,82.0,67.5,90.4,83.6,103.5,79.7,108.8,98.7,99.2,76.5,107.1,96.0,96.8,75.2,105.9,94.3,-3.76,3.64,0.1,0.06,0.0,97.78,98.9,89.4,90.2,356.7,7.7,0.8114185110040318,102.26888586769405,50.41423956353583,-46.81322234211436,7.202033987623935,0,0
81,4.0,132.9,44.053492441278145,-78.68162690512479,-30.7,188.3,-18.5,116.2,3485.8,3486.0,115.0,0.0,1.0,1.0,0.0,1.0,1.0,0.0,0.0,0.0,100.0,1.0,1.186,26.0,0.0,-15.411,74.678,66.0,0.0,26.0,26.0,26.0,26.0,1.06,-0.22,0.22,381.3,-2.95,-3.11,-2.04,-0.04,-702.87,564.25,6.0,0.0,0.0,0.0,0.0,0.08,-7.49,-7.49,-0.92,5.38,-0.58,7.58,31.94,-0.16,-0.43,-29.88,100.0,0.0,0.0,89.76,0.0,0.0,0.0,0.0,0.0,0.0,0.0,6017.0,0.0,30.0,3.0,115.0,0.0,0.0,0.0,0.0,0.0,0.0,1.0,0.0,4.009,4.009,84.921,21.577,0.0,110.0,435.8,8750.0,0.0,0.0,110.0,110.0,433.0,0.0,0.0,0.0,1.0,333.3,63.4,63.4,73.9,73.9,34.0,22.45,107.61,8.3,56.3,2.0,-166.19,-89.7,100.0,22.2,33.3,21.6,32.1,0.0,1.0,0.0,0.0,0.0,0.0,0.0,1980.0,6537.0,2321.0,5378.0,319.8,306.2,349.2,341.9,24.96,22.65,27.31,26.23,325.0,325.0,355.0,355.0,100.0,99.85,100.0,100.0,3.34,3.2,0.63,0.78,0.1,-0.2,-0.1,-0.4,82.0,67.6,90.4,83.7,103.5,79.8,108.8,98.6,99.2,76.5,107.1,96.0,96.7,75.2,105.8,94.2,-5.15,4.92,0.1,0.06,0.0,96.96,99.34,88.62,90.9,356.7,7.7,1.1047171583713182,101.54868246893169,51.85464636106061,10.803051550459628,46.81322205760246,0,0
82,4.05,134.5,44.053479401114856,-78.68162016021274,-193.7,-88.3,30.6,200.1,3487.4,3487.0,114.7,0.0,1.0,1.0,0.0,1.0,1.0,0.0,0.0,0.0,100.0,1.0,1.186,26.0,0.0,-15.774,74.678,66.0,0.0,26.0,26.0,26.0,26.0,1.3,-0.24,0.02,382.4,-1.73,-2.27,-2.3,-0.35,-702.12,562.8,6.0,0.0,0.0,0.0,0.0,0.08,-7.49,-7.49,-0.74,0.81,-0.39,0.14,31.84,0.17,-0.34,-32.61,100.0,0.0,0.0,89.31,0.0,0.0,0.0,0.0,0.0,0.0,0.0,5987.0,0.0,30.0,3.0,114.7,1.0,0.0,0.0,0.0,0.0,0.0,1.0,0.0,4.059,4.059,84.921,21.577,1.0,110.0,435.8,8750.0,0.0,0.0,110.0,110.0,433.0,0.0,0.0,0.0,1.0,333.3,74.0,74.0,68.2,68.2,34.0,2.52,39.91,33.1,128.2,2.0,-166.24,-107.0,100.0,12.6,28.9,23.1,42.1,0.0,1.0,0.0,0.0,0.0,0.0,0.0,705.0,5656.0,3018.0,6850.0,323.4,309.0,347.8,338.2,24.97,22.66,27.31,26.23,325.0,325.0,355.0,355.0,100.0,99.85,100.0,100.0,4.99,4.72,1.53,1.64,0.2,-0.3,-0.1,-0.4,82.0,67.6,90.5,83.7,103.4,79.8,108.7,98.6,99.1,76.6,107.0,96.0,96.7,75.3,105.8,94.2,-6.25,5.9,0.1,0.05,0.0,96.28,98.65,88.07,90.55,356.7,7.7,1.322119510483073,103.34919102274002,55.095561769296076,-28.80813680403108,32.40915408235466,0,0
83,4.1,136.1,44.053466630748055,-78.68161314550422,38.1,-28.8,-8.0,81.0,3489.0,3489.0,114.3,0.0,1.0,1.0,0.0,1.0,1.0,0.0,0.0,0.0,100.0,1.0,1.186,26.0,0.0,-16.131,74.678,66.0,0.0,26.0,26.0,26.0,26.0,1.25,-0.22,-0.01,383.7,-2.09,-3.56,-2.59,-0.59,-701.34,561.38,6.0,0.0,0.0,0.0,0.0,0.08,-7.49,-7.49,-0.85,-2.64,-0.34,0.11,31.72,0.41,-0.44,-35.24,100.0,0.0,0.0,88.78,0.0,0.0,0.0,0.0,0.0,0.0,0.0,5951.0,0.0,30.0,3.0,114.3,0.0,0.0,0.0,0.0,0.0,0.0,1.0,0.0,4.11,4.11,84.921,21.577,0.0,110.0,435.8,8750.0,0.0,0.0,110.0,110.0,433.0,0.0,0.0,0.0,1.0,333.3,72.7,72.7,76.8,76.8,34.0,-0.26,-3.77,8.8,85.8,2.0,-166.29,-123.9,100.0,14.5,27.5,22.7,46.1,0.0,1.0,0.0,0.0,0.0,0.0,0.0,1515.0,5338.0,893.0,4826.0,321.1,309.7,352.5,343.5,24.97,22.66,27.32,26.24,325.0,325.0,355.0,355.0,100.0,99.85,100.0,100.0,6.41,6.03,2.15,2.13,-0.0,-0.3,-0.3,-0.7,82.1,67.6,90.5,83.7,103.4,79.9,108.6,98.6,99.1,76.7,106.9,96.0,96.6,75.4,105.7,94.2,-7.3,6.85,0.09,0.03,0.0,95.28,97.89,87.42,90.13,356.7,7.7,1.2692517480783707,98.66786878852858,55.095561769296076,-32.40915379784283,36.01017107616677,0,0
84,4.15,137.7,44.05345475970285,-78.68160640059217,-10.0,-109.5,-136.1,-125.3,3490.5,3491.0,113.9,0.0,1.0,1.0,0.0,1.0,1.0,0.0,0.0,0.0,100.0,1.0,1.186,26.0,0.0,-16.437,74.678,66.0,0.0,26.0,26.0,26.0,26.0,1.41,-0.17,-0.05,387.7,-1.73,-1.8,-1.49,0.23,-700.59,560.06,6.0,0.0,0.0,0.0,0.0,0.08,-7.49,-7.49,-0.99,-3.08,-0.38,0.58,31.62,0.78,-0.39,-35.86,100.0,0.0,0.0,88.72,0.0,0.0,0.0,0.0,0.0,0.0,0.0,5947.0,0.0,30.0,3.0,113.9,1.0,0.0,0.0,0.0,0.0,0.0,1.0,0.0,4.159,4.159,84.921,21.577,1.0,110.0,435.8,8750.0,0.0,0.0,110.0,110.0,433.0,0.0,0.0,0.0,1.0,166.7,76.2,76.2,84.2,84.2,34.0,-3.19,-15.19,27.5,83.4,2.0,-166.34,-143.1,100.0,14.0,22.0,15.9,39.8,0.0,1.0,3.2,0.0,0.0,0.0,0.0,1519.0,4940.0,2139.0,4851.0,320.8,311.1,350.0,343.1,24.98,22.66,27.32,26.24,325.0,325.0,355.0,355.0,100.0,99.85,100.0,100.0,8.23,7.75,2.82,2.9,0.0,-0.4,-0.0,-0.2,82.1,67.6,90.5,83.7,103.4,80.0,108.5,98.6,99.0,76.8,106.9,96.0,96.6,75.5,105.6,94.2,-8.46,7.91,0.12,0.05,0.0,94.51,97.18,87.31,90.12,356.7,7.7,1.4210911300827966,100.10827564295573,58.69657887691275,-3.601017278323866,57.61627360806209,0,0
85,4.2,139.3,44.053441629607406,-78.68159848656204,13.3,179.0,21.2,-30.4,3492.1,3492.0,113.4,0.0,1.0,1.0,0.0,1.0,1.0,0.0,0.0,0.0,100.0,1.0,1.186,26.0,0.0,-16.641,74.678,66.0,0.0,26.0,26.0,26.0,26.0,1.55,-0.25,0.08,384.0,-2.61,-2.31,-2.07,-0.12,-699.71,558.6,6.0,0.0,0.0,0.0,0.0,0.08,-7.49,-7.49,-1.16,-1.36,-0.14,3.14,31.47,1.04,-0.5,-38.33,100.0,0.0,0.0,88.39,0.0,0.0,0.0,0.0,0.0,0.0,0.0,5925.0,0.0,30.0,3.0,113.4,0.0,0.0,0.0,0.0,0.0,0.0,0.0,0.0,4.211,4.211,84.921,21.577,0.0,110.0,435.8,8750.0,0.0,0.0,110.0,110.0,433.0,0.0,0.0,0.0,1.0,166.7,66.8,66.8,78.9,78.9,34.0,-5.25,-26.4,5.0,72.6,2.0,-166.39,-163.2,100.0,14.6,31.0,17.0,38.3,0.0,1.0,3.2,0.0,0.0,0.0,0.0,2444.0,7783.0,603.0,4743.0,318.9,303.7,353.4,343.0,24.98,22.67,27.33,26.24,325.0,325.0,355.0,355.0,100.0,99.85,100.0,100.0,9.87,9.23,3.4,3.43,-0.1,-0.7,0.0,-0.2,82.1,67.7,90.6,83.8,103.4,80.3,108.5,98.6,99.0,77.0,106.8,96.0,96.6,75.7,105.5,94.2,-9.76,8.99,0.11,0.04,0.0,93.59,96.37,86.98,89.8,356.7,7.7,1.5720687007888683,98.3077670606962,60.857189130102284,-64.81830816470975,25.207119525707355,0,0
86,4.25,140.8,44.05343020822301,-78.68159120205704,3.4,47.7,-52.6,-60.6,3493.7,3494.0,112.9,0.0,1.0,1.0,0.0,1.0,1.0,0.0,0.0,0.0,100.0,1.0,1.186,26.0,0.0,-16.824,74.678,66.0,0.0,26.0,26.0,26.0,26.0,1.58,-0.21,-0.03,384.7,-2.56,-3.37,-2.43,-0.27,-698.9,557.33,6.0,0.0,0.0,0.0,0.0,0.08,-7.49,-7.49,-1.07,3.44,-0.08,-1.88,31.32,1.4,-0.43,-41.19,100.0,0.0,0.0,88.19,0.0,0.0,0.0,0.0,0.0,0.0,0.0,5912.0,0.0,30.0,3.0,112.9,1.0,0.0,0.0,0.0,0.0,0.0,0.0,0.0,4.26,4.26,84.921,21.577,1.0,110.0,435.8,8750.0,0.0,0.0,110.0,110.0,433.0,0.0,0.0,0.0,1.0,166.7,68.4,68.4,77.6,77.6,34.0,-2.11,-22.16,11.5,72.4,2.0,-166.44,-177.6,100.0,14.8,33.3,14.4,35.3,0.0,1.0,3.6,0.0,0.0,0.0,0.0,1198.0,6701.0,1554.0,6431.0,322.0,306.0,351.7,339.5,24.99,22.67,27.33,26.25,325.0,325.0,355.0,355.0,100.0,99.85,100.0,100.0,11.4,10.52,4.28,4.3,0.2,-0.7,0.2,-0.2,82.2,67.7,90.6,83.8,103.3,80.5,108.4,98.6,99.0,77.2,106.7,96.0,96.6,75.9,105.5,94.2,-10.73,9.78,0.1,0.07,0.0,92.9,95.81,86.67,89.72,356.7,7.7,1.5941769036088813,93.62644482648476,61.21729082948349,-39.61118806997874,39.61118806997874,0,0
87,4.3,142.4,44.05341824724565,-78.68158319809474,12.6,-130.7,84.6,209.7,3495.2,3495.0,112.4,0.0,1.0,1.0,0.0,1.0,1.0,0.0,0.0,0.0,100.0,1.0,1.186,26.0,0.0,-16.992,74.678,66.0,0.0,26.0,26.0,26.0,26.0,1.66,-0.21,0.23,382.6,-2.33,-3.28,-2.7,-0.54,-698.01,556.0,6.0,0.0,0.0,0.0,0.0,0.08,-7.49,-7.49,-0.96,0.17,-0.01,4.02,31.17,1.64,-0.41,-36.17,100.0,0.0,0.0,87.56,0.0,0.0,0.0,0.0,0.0,0.0,0.0,5869.0,0.0,30.0,3.0,112.4,0.0,0.0,0.0,0.0,0.0,0.0,0.0,0.0,4.311,4.311,84.921,21.577,0.0,110.0,435.8,8750.0,0.0,0.0,110.0,110.0,433.0,0.0,0.0,0.0,1.0,166.7,72.9,72.9,78.8,78.8,34.0,-2.65,-17.06,11.3,74.3,2.0,-166.49,-189.7,100.0,15.4,26.8,18.6,45.8,0.0,1.0,3.2,0.0,0.0,0.0,0.0,1419.0,5536.0,1498.0,7262.0,321.4,309.7,350.8,337.0,24.99,22.68,27.34,26.25,325.0,325.0,355.0,355.0,100.0,99.85,100.0,100.0,12.85,11.88,4.5,4.52,0.1,-0.6,0.1,-0.2,82.2,67.7,90.6,83.8,103.4,80.8,108.4,98.7,99.0,77.5,106.7,96.0,96.6,76.1,105.4,94.3,-11.52,10.5,0.1,0.04,0.0,91.9,94.71,86.2,88.92,356.7,7.7,1.6889641796083184,94.34664825369832,64.81830793710016,-14.404068544271524,54.01525661425012,0,0
