,Time,Distance,GPS Latitude,GPS Longitude,Damper Velocity (Calc) FL,Damper Velocity (Calc) FR,Damper Velocity (Calc) RL,Damper Velocity (Calc) RR,Corr Dist,Corr Dist (Unstretched),Corr Speed,ABS Active,ABS Enabled,AID Allow Tire Blankets,AID Auto Blip,AID Auto Clutch,AID Auto Shift,AID Fuel Rate,AID Ideal Line,AID Mech Damage,AID Stability,AID Tire Wear Rate,Air Density,Air Temp,Ballast,Best Lap Delta,Best Lap Time,Brake Bias,Brake Pos,Brake Temp FL,Brake Temp FR,Brake Temp RL,Brake Temp RR,CG Accel Lateral,CG Accel Longitudinal,CG Accel Vertical,CG Height,Camber FL,Camber FR,Camber RL,Camber RR,Car Coord X,Car Coord Y,Car Coord Z,Car Damage Front,Car Damage Left,Car Damage Rear,Car Damage Right,Car Pos Norm,Caster FL,Caster FR,Chassis Pitch Angle,Chassis Pitch Rate,Chassis Roll Angle,Chassis Roll Rate,Chassis Velocity X,Chassis Velocity Y,Chassis Velocity Z,Chassis Yaw Rate,Clutch Pos,DRS Active,DRS Available,Drive Train Speed,ERS Heat Charging,ERS Is Charging,ERS Max Energy,ERS Power Level,ERS Recovery Level,Engine Brake Setting,Engine Limiter,Engine RPM,Flags,Fuel Level,Gear,Ground Speed,HR Sample Clock,In Pit,KERS Charge,KERS Deployed Energy,KERS Input,KERS Max Energy,LR Sample Clock,Lap Invalidated,Lap Time,Lap Time2,Last Lap Time,Last Sector Time,MR Sample Clock,Max Fuel,Max Power,Max RPM,Max Sus Travel FL,Max Sus Travel FR,Max Sus Travel RL,Max Sus Travel RR,Max Torque,Max Turbo Boost,Num Tires Off Track,Penalties Enabled,Position,Raw Data Sample Rate,Ride Height FL,Ride Height FR,Ride Height RL,Ride Height RR,Road Temp,Self Align Torque FL,Self Align Torque FR,Self Align Torque RL,Self Align Torque RR,Session Lap Count,Session Time Left,Steering Angle,Surface Grip,Suspension Travel FL,Suspension Travel FR,Suspension Travel RL,Suspension Travel RR,TC Active,TC Enabled,Throttle Pos,Tire Dirt Level FL,Tire Dirt Level FR,Tire Dirt Level RL,Tire Dirt Level RR,Tire Load FL,Tire Load FR,Tire Load RL,Tire Load RR,Tire Loaded Radius FL,Tire Loaded Radius FR,Tire Loaded Radius RL,Tire Loaded Radius RR,Tire Pressure FL,Tire Pressure FR,Tire Pressure RL,Tire Pressure RR,Tire Radius FL,Tire Radius FR,Tire Radius RL,Tire Radius RR,Tire Rubber Grip FL,Tire Rubber Grip FR,Tire Rubber Grip RL,Tire Rubber Grip RR,Tire Slip Angle FL,Tire Slip Angle FR,Tire Slip Angle RL,Tire Slip Angle RR,Tire Slip Ratio FL,Tire Slip Ratio FR,Tire Slip Ratio RL,Tire Slip Ratio RR,Tire Temp Core FL,Tire Temp Core FR,Tire Temp Core RL,Tire Temp Core RR,Tire Temp Inner FL,Tire Temp Inner FR,Tire Temp Inner RL,Tire Temp Inner RR,Tire Temp Middle FL,Tire Temp Middle FR,Tire Temp Middle RL,Tire Temp Middle RR,Tire Temp Outer FL,Tire Temp Outer FR,Tire Temp Outer RL,Tire Temp Outer RR,Toe In FL,Toe In FR,Toe In RL,Toe In RR,Turbo Boost,Wheel Angular Speed FL,Wheel Angular Speed FR,Wheel Angular Speed RL,Wheel Angular Speed RR,Wind Direction,Wind Speed,CG Distance,Lateral Velocity,Longitudinal Velocity,Lateral Acceleration,Longitudinal Acceleration,level,curve_number
45,2.2,104.5,44.05371295493591,-78.68170712461205,-76.6,32.7,-25.2,16.2,5212.6,5213.0,145.0,0.0,1.0,1.0,0.0,1.0,1.0,0.0,0.0,0.0,100.0,1.0,1.186,26.0,0.0,-0.024,50.194,66.0,31.4,26.0,26.0,26.0,26.0,0.59,-0.66,-0.04,384.3,-3.09,-1.96,-1.85,-1.79,-711.79,588.77,5.9,0.0,0.0,0.0,0.0,0.06,-7.49,-7.49,-0.78,-6.13,0.06,0.72,40.25,0.37,-0.66,-8.08,100.0,0.0,0.0,111.72,0.0,0.0,0.0,0.0,0.0,0.0,0.0,5959.0,0.0,30.0,4.0,145.0,1.0,0.0,0.0,0.0,0.0,0.0,0.0,0.0,2.234,2.234,50.194,17.865,1.0,110.0,435.8,8750.0,0.0,0.0,110.0,110.0,433.0,0.0,0.0,0.0,1.0,333.3,68.7,68.7,77.9,77.9,34.0,16.9,78.62,5.1,42.0,3.0,-186.565,-11.5,100.0,17.4,26.3,26.2,35.6,0.0,1.0,0.0,0.0,0.0,0.0,0.0,3473.0,5823.0,1257.0,3461.0,316.0,309.0,351.1,345.9,25.28,22.87,26.19,24.75,325.0,325.0,355.0,355.0,100.0,99.86,100.0,100.0,0.85,0.97,0.71,0.84,-1.5,-1.3,-1.0,-1.1,84.0,68.9,83.4,74.4,87.4,69.3,86.0,75.6,83.8,66.3,84.2,73.2,81.1,64.8,83.3,72.0,-0.66,0.67,0.1,0.07,0.0,121.32,122.05,111.23,112.21,174.7,27.6,0.886171540955813,135.75834501974123,47.533425797779174,90.02542769041668,54.015257183273775,1,0
46,2.25,106.5,44.053695598028916,-78.68170100922512,211.4,198.7,-208.3,-129.6,5214.6,5215.0,143.8,0.0,1.0,1.0,0.0,1.0,1.0,0.0,0.0,0.0,100.0,1.0,1.186,26.0,0.0,-0.027,50.194,66.0,19.7,26.0,26.0,26.0,26.0,0.72,-0.68,0.09,380.3,-1.73,-1.76,-1.42,-0.89,-711.11,586.84,5.9,0.0,0.0,0.0,0.0,0.06,-7.49,-7.49,-0.82,5.36,-0.0,-3.55,39.92,0.41,-0.67,-11.79,100.0,0.0,0.0,111.02,0.0,0.0,0.0,0.0,0.0,0.0,0.0,5922.0,0.0,30.0,4.0,143.8,0.0,0.0,0.0,0.0,0.0,0.0,0.0,0.0,2.286,2.286,50.194,17.865,0.0,110.0,435.8,8750.0,0.0,0.0,110.0,110.0,433.0,0.0,0.0,0.0,1.0,333.3,53.7,53.7,85.0,85.0,34.0,29.4,111.93,10.6,56.9,3.0,-186.615,-10.4,100.0,27.9,36.2,15.8,29.2,0.0,1.0,0.0,0.0,0.0,0.0,0.0,4562.0,7769.0,1806.0,4300.0,313.1,303.6,350.4,344.1,25.28,22.87,26.19,24.75,325.0,325.0,355.0,355.0,100.0,99.86,100.0,100.0,0.74,0.92,0.9,1.09,-0.8,-0.7,-1.7,-1.2,84.0,68.9,83.4,74.4,87.4,69.3,85.9,75.5,83.8,66.3,84.2,73.2,81.1,64.8,83.2,72.0,-0.6,0.63,0.1,0.08,0.0,121.33,122.61,110.35,111.69,174.7,27.6,0.99443451267542,141.88007407992868,51.134442962298216,10.803050981436115,28.808137088542907,1,0
47,2.3,108.4,44.05367752166464,-78.68169435424524,-109.5,-9.6,297.0,136.9,5216.6,5217.0,143.0,0.0,1.0,1.0,0.0,1.0,1.0,0.0,0.0,0.0,100.0,1.0,1.186,26.0,0.0,-0.027,50.194,66.0,6.4,26.0,26.0,26.0,26.0,0.81,-0.27,0.18,375.9,-3.48,-1.71,-1.54,-1.95,-710.37,584.83,5.9,0.0,0.0,0.0,0.0,0.07,-7.49,-7.49,-0.4,7.78,-0.2,-4.07,39.7,0.44,-0.45,-10.26,100.0,0.0,0.0,111.42,0.0,0.0,0.0,0.0,0.0,0.0,0.0,5943.0,0.0,30.0,4.0,143.0,1.0,0.0,0.0,0.0,0.0,0.0,0.0,0.0,2.34,2.34,50.194,17.865,1.0,110.0,435.8,8750.0,0.0,0.0,110.0,110.0,433.0,0.0,0.0,0.0,1.0,166.7,62.8,62.8,62.6,62.6,34.0,13.3,68.44,40.2,108.9,3.0,-186.67,-8.4,100.0,22.5,35.8,30.6,36.0,0.0,1.0,0.0,0.0,0.0,0.0,0.0,3552.0,5504.0,4749.0,6213.0,316.2,310.5,343.2,338.8,25.28,22.87,26.19,24.75,325.0,325.0,355.0,355.0,100.0,99.86,100.0,100.0,0.75,0.83,0.9,1.15,-0.4,-0.2,-0.2,-0.4,84.0,69.0,83.4,74.4,87.3,69.3,85.9,75.5,83.8,66.3,84.1,73.2,81.0,64.8,83.2,72.0,-0.5,0.51,0.07,0.06,0.0,121.39,122.2,111.07,111.77,174.7,27.6,0.8725823743349392,136.83865011788484,50.414239506633464,-140.43966731085504,-25.20712009473094,1,0
48,2.35,110.4,44.053661423807895,-78.68168841872264,11.0,5.5,150.9,191.5,5218.6,5219.0,142.5,0.0,1.0,1.0,0.0,1.0,1.0,0.0,0.0,0.0,100.0,1.0,1.186,26.0,0.0,-0.03,50.194,66.0,4.6,26.0,26.0,26.0,26.0,0.72,-0.26,0.43,371.2,-4.28,-2.5,-2.1,-1.15,-709.71,583.04,5.9,0.0,0.0,0.0,0.0,0.07,-7.49,-7.49,-0.08,6.09,-0.36,-5.27,39.57,0.35,-0.41,-7.98,100.0,0.0,0.0,111.11,0.0,0.0,0.0,0.0,0.0,0.0,0.0,5927.0,0.0,30.0,4.0,142.5,0.0,0.0,0.0,0.0,0.0,0.0,1.0,0.0,2.388,2.388,50.194,17.865,0.0,110.0,435.8,8750.0,0.0,0.0,110.0,110.0,433.0,0.0,0.0,0.0,1.0,166.7,59.4,59.4,55.9,55.9,34.0,7.7,103.56,18.9,87.9,3.0,-186.715,-8.1,100.0,23.0,36.0,38.2,45.6,0.0,1.0,0.0,0.0,0.0,0.0,0.0,3511.0,7290.0,3244.0,6137.0,315.9,305.1,346.4,339.0,25.28,22.87,26.19,24.75,325.0,325.0,355.0,355.0,100.0,99.86,100.0,100.0,0.69,0.8,0.8,0.9,-0.3,-0.2,-0.2,-0.4,84.0,69.0,83.4,74.4,87.3,69.4,85.8,75.5,83.7,66.3,84.1,73.2,81.0,64.8,83.2,72.0,-0.46,0.5,0.06,0.03,0.0,121.12,121.82,110.91,111.32,174.7,27.6,0.8780091115700337,127.83610734884317,48.61373095282512,-57.61627360806159,7.202034556647519,1,0
49,2.4,112.4,44.05364559574763,-78.68168221340356,-83.8,-159.8,55.9,6.1,5220.5,5221.0,142.1,0.0,1.0,1.0,0.0,1.0,1.0,0.0,0.0,0.0,100.0,1.0,1.186,26.0,0.0,-0.033,50.194,66.0,2.3,26.0,26.0,26.0,26.0,0.64,-0.19,0.17,376.0,-3.05,-2.45,-1.57,-1.71,-709.02,581.28,5.9,0.0,0.0,0.0,0.0,0.07,-7.49,-7.49,0.13,1.38,-0.84,-9.23,39.47,0.28,-0.32,-5.74,100.0,0.0,0.0,110.7,0.0,0.0,0.0,0.0,0.0,0.0,0.0,5905.0,0.0,30.0,4.0,142.1,1.0,0.0,0.0,0.0,0.0,0.0,1.0,0.0,2.436,2.436,50.194,17.865,1.0,110.0,435.8,8750.0,0.0,0.0,110.0,110.0,433.0,0.0,0.0,0.0,1.0,166.7,72.3,72.3,55.5,55.5,34.0,10.5,39.81,28.9,88.0,3.0,-186.765,-9.0,100.0,18.8,28.0,41.0,45.9,0.0,1.0,0.0,0.0,0.0,0.0,0.0,2360.0,3370.0,5019.0,6242.0,318.8,315.5,342.3,338.9,25.28,22.87,26.19,24.75,325.0,325.0,355.0,355.0,100.0,99.86,100.0,100.0,0.79,0.79,0.66,0.77,-0.1,-0.1,-0.1,-0.3,84.0,69.0,83.4,74.4,87.2,69.4,85.8,75.5,83.7,66.3,84.1,73.2,80.9,64.8,83.1,72.0,-0.5,0.51,0.06,0.04,0.0,120.76,121.15,110.51,110.89,174.7,27.6,0.6889121859859935,131.07702275707868,51.134442962298216,68.41932515852164,46.813222626626185,1,0
50,2.45,114.4,44.05362868850144,-78.68167564835584,-45.2,-203.9,-59.0,-43.1,5222.5,5223.0,141.8,0.0,1.0,1.0,0.0,1.0,1.0,0.0,0.0,0.0,100.0,1.0,1.186,26.0,0.0,-0.039,50.194,66.0,4.6,26.0,26.0,26.0,26.0,0.57,-0.25,-0.15,381.6,-2.26,-4.05,-2.12,-1.6,-708.29,579.4,6.0,0.0,0.0,0.0,0.0,0.07,-7.49,-7.49,-0.09,-7.38,-1.13,-2.55,39.37,0.18,-0.41,-4.24,100.0,0.0,0.0,110.1,0.0,0.0,0.0,0.0,0.0,0.0,0.0,5873.0,0.0,30.0,4.0,141.8,0.0,0.0,0.0,0.0,0.0,0.0,1.0,0.0,2.487,2.487,50.194,17.865,0.0,110.0,435.8,8750.0,0.0,0.0,110.0,110.0,433.0,0.0,0.0,0.0,1.0,166.7,75.8,75.8,67.4,67.4,34.0,18.7,65.5,2.9,41.9,3.0,-186.815,-12.2,100.0,16.6,17.8,38.0,43.7,0.0,1.0,0.0,0.0,0.0,0.0,0.0,3239.0,4463.0,3521.0,4296.0,317.0,312.6,346.8,343.8,25.27,22.87,26.19,24.75,325.0,325.0,355.0,355.0,100.0,99.86,100.0,100.0,0.79,0.89,0.39,0.49,-0.2,-0.3,-0.2,-0.4,84.0,69.0,83.4,74.4,87.2,69.3,85.7,75.5,83.6,66.3,84.0,73.2,80.9,64.8,83.1,72.0,-0.68,0.68,0.06,0.03,0.0,120.08,120.49,110.01,110.19,174.7,27.6,0.6402343321003646,134.67803986469534,53.29505321548774,21.60610281640686,28.80813651951918,1,0
51,2.5,116.3,44.05361196111957,-78.68166890344379,100.3,120.3,-206.1,-307.5,5224.5,5224.0,141.2,0.0,1.0,1.0,0.0,1.0,1.0,0.0,0.0,0.0,100.0,1.0,1.186,26.0,0.0,-0.039,50.194,66.0,18.9,26.0,26.0,26.0,26.0,0.45,-0.42,-0.2,386.9,-1.98,-2.56,-1.87,-1.46,-707.54,577.54,6.0,0.0,0.0,0.0,0.0,0.07,-7.49,-7.49,-0.37,-2.14,-1.06,5.36,39.2,0.17,-0.53,-8.25,100.0,0.0,0.0,109.25,0.0,0.0,0.0,0.0,0.0,0.0,0.0,5828.0,0.0,30.0,4.0,141.2,1.0,0.0,0.0,0.0,0.0,0.0,1.0,0.0,2.538,2.538,50.194,17.865,1.0,110.0,435.8,8750.0,0.0,0.0,110.0,110.0,433.0,0.0,0.0,0.0,1.0,166.7,70.2,70.2,78.1,78.1,34.0,14.8,61.3,2.7,21.1,3.0,-186.865,-17.0,100.0,21.6,23.9,27.7,28.4,0.0,1.0,0.0,0.0,0.0,0.0,0.0,2356.0,4636.0,2315.0,2685.0,318.0,312.0,349.3,348.3,25.27,22.87,26.19,24.75,325.0,325.0,355.0,355.0,100.0,99.86,100.0,100.0,0.82,0.87,0.39,0.51,-0.8,-0.8,-0.7,-1.1,84.0,68.9,83.4,74.4,87.1,69.3,85.7,75.5,83.6,66.3,83.9,73.1,80.9,64.8,83.0,72.0,-0.95,0.94,0.08,0.07,0.0,118.52,119.46,109.1,109.4,174.7,27.6,0.6472248450113763,133.23763303871937,54.015256614250134,-28.80813680403122,10.803051550459557,1,0
52,2.55,118.3,44.05359541360202,-78.68166215853175,-92.9,-4.9,-57.7,88.6,5226.4,5226.0,140.1,0.0,1.0,1.0,0.0,1.0,1.0,0.0,0.0,0.0,100.0,1.0,1.186,26.0,0.0,-0.042,50.194,66.0,33.3,26.0,26.0,26.0,26.0,0.6,-0.74,-0.12,385.3,-3.54,-2.31,-1.33,-0.85,-706.79,575.7,6.0,0.0,0.0,0.0,0.0,0.07,-7.49,-7.49,-0.54,-4.89,-0.9,0.05,38.9,0.21,-0.52,-9.26,100.0,0.0,0.0,108.2,0.0,0.0,0.0,0.0,0.0,0.0,0.0,5771.0,0.0,30.0,4.0,140.1,0.0,0.0,0.0,0.0,0.0,0.0,1.0,0.0,2.589,2.589,50.194,17.865,0.0,110.0,435.8,8750.0,0.0,0.0,110.0,110.0,433.0,0.0,0.0,0.0,1.0,166.7,72.3,72.3,76.4,76.4,34.0,14.6,71.83,10.4,49.2,3.0,-186.92,-20.7,100.0,16.9,23.6,24.8,32.8,0.0,1.0,0.0,0.0,0.0,0.0,0.0,3168.0,5031.0,3138.0,4695.0,317.8,311.0,347.4,342.7,25.27,22.87,26.19,24.75,325.0,325.0,355.0,355.0,100.0,99.86,100.0,100.0,1.06,1.15,0.49,0.69,-2.7,-1.6,-0.9,-0.9,84.0,68.9,83.4,74.4,87.1,69.3,85.6,75.5,83.5,66.3,83.9,73.1,80.8,64.8,83.0,71.9,-1.16,1.16,0.09,0.07,0.0,116.09,117.72,107.86,108.53,174.7,27.6,0.9602083107326242,131.7972261842922,54.3753583705337,-104.42949623468806,-21.60610196287159,1,0
53,2.6,120.2,44.053579045948794,-78.68165532368754,153.1,39.6,-124.4,-34.7,5228.3,5228.0,138.7,0.0,1.0,1.0,0.0,1.0,1.0,0.0,0.0,0.0,100.0,1.0,1.186,26.0,0.0,-0.042,50.194,66.0,41.8,26.0,26.0,26.0,26.0,0.7,-0.93,-0.11,384.1,-2.97,-2.12,-2.3,-1.15,-706.03,573.88,6.0,0.0,0.0,0.0,0.0,0.07,-7.49,-7.49,-0.77,-1.74,-0.77,4.91,38.5,0.28,-0.64,-13.7,100.0,0.0,0.0,106.36,0.0,0.0,0.0,0.0,0.0,0.0,0.0,5673.0,0.0,30.0,4.0,138.7,1.0,0.0,0.0,0.0,0.0,0.0,1.0,0.0,2.64,2.64,50.194,17.865,1.0,110.0,435.8,8750.0,0.0,0.0,110.0,110.0,433.0,0.0,0.0,0.0,1.0,166.7,62.1,62.1,91.7,91.7,34.0,45.5,85.51,3.7,44.9,3.0,-186.97,-23.7,100.0,24.6,25.6,18.6,31.1,0.0,1.0,0.0,0.0,0.0,0.0,0.0,5682.0,5855.0,1399.0,3832.0,310.8,308.8,351.6,344.9,25.27,22.87,26.19,24.75,325.0,325.0,355.0,355.0,100.0,99.86,100.0,100.0,1.13,1.26,0.72,0.88,-1.6,-1.9,-2.2,-1.3,84.0,68.9,83.4,74.4,87.1,69.4,85.6,75.4,83.5,66.3,83.8,73.1,80.8,64.8,82.9,71.9,-1.35,1.34,0.1,0.06,0.0,115.77,116.48,105.29,107.43,174.7,27.6,1.1691877522451217,122.79468341525056,51.854646417962975,-111.63153022231171,-21.606103100919043,1,0
54,2.65,122.1,44.053564746735255,-78.68164920830061,-3.7,61.0,-12.7,11.2,5230.3,5230.0,137.2,0.0,1.0,1.0,0.0,1.0,1.0,0.0,0.0,0.0,100.0,1.0,1.186,26.0,0.0,-0.048,50.194,66.0,48.3,26.0,26.0,26.0,26.0,0.83,-0.97,-0.03,383.8,-3.36,-2.7,-2.05,-1.4,-705.35,572.29,6.0,0.0,0.0,0.0,0.0,0.07,-7.49,-7.49,-0.74,1.23,-0.46,6.96,38.09,0.41,-0.61,-16.67,100.0,0.0,0.0,105.57,0.0,0.0,0.0,0.0,0.0,0.0,0.0,5631.0,0.0,30.0,4.0,137.2,0.0,0.0,0.0,0.0,0.0,0.0,1.0,0.0,2.686,2.686,50.194,17.865,0.0,110.0,435.8,8750.0,0.0,0.0,110.0,110.0,433.0,0.0,0.0,0.0,1.0,333.3,63.6,63.6,84.3,84.3,34.0,22.8,94.37,16.2,53.7,3.0,-187.015,-26.7,100.0,24.4,28.6,18.0,31.6,0.0,1.0,0.0,0.0,0.0,0.0,0.0,3344.0,6070.0,2610.0,3829.0,316.4,308.4,348.5,344.9,25.27,22.87,26.19,24.75,325.0,325.0,355.0,355.0,100.0,99.86,100.0,100.0,1.42,1.48,0.95,1.18,-3.1,-2.2,-1.4,-1.4,84.0,68.9,83.4,74.4,87.0,69.4,85.5,75.4,83.5,66.4,83.8,73.1,80.8,64.9,82.9,71.9,-1.52,1.52,0.11,0.07,0.0,112.52,114.96,104.99,106.14,174.7,27.6,1.2769886452118515,120.63407316206104,52.21474806044179,32.40915379784269,39.61118750095501,1,0
55,2.7,124.0,44.05354891867499,-78.68164228352425,-167.6,16.5,128.0,53.0,5232.1,5232.0,135.6,0.0,1.0,1.0,0.0,1.0,1.0,0.0,0.0,0.0,100.0,1.0,1.186,26.0,0.0,-0.048,50.194,66.0,52.7,26.0,26.0,26.0,26.0,0.75,-0.76,-0.15,385.6,-2.8,-2.02,-3.42,-0.36,-704.58,570.53,6.0,0.0,0.0,0.0,0.0,0.07,-7.49,-7.49,-0.76,-2.91,-0.2,1.94,37.62,0.55,-0.6,-16.13,100.0,0.0,0.0,104.05,0.0,0.0,0.0,0.0,0.0,0.0,0.0,5550.0,0.0,30.0,4.0,135.6,1.0,0.0,0.0,0.0,0.0,0.0,1.0,0.0,2.736,2.736,50.194,17.865,1.0,110.0,435.8,8750.0,0.0,0.0,110.0,110.0,433.0,0.0,0.0,0.0,1.0,333.3,73.3,73.3,72.3,72.3,34.0,-0.3,60.77,18.9,64.9,3.0,-187.065,-31.1,100.0,16.0,29.5,24.4,34.3,0.0,1.0,0.0,0.0,0.0,0.0,0.0,734.0,4610.0,2829.0,4443.0,322.9,312.1,348.0,343.9,25.27,22.87,26.19,24.75,325.0,325.0,355.0,355.0,100.0,99.86,100.0,100.0,1.97,1.91,1.26,1.45,-11.2,-3.1,-1.4,-1.4,83.9,68.9,83.4,74.4,87.0,69.4,85.5,75.4,83.5,66.4,83.7,73.1,80.8,64.9,82.8,71.9,-1.78,1.75,0.09,0.06,0.0,100.23,112.03,103.43,104.67,174.7,27.6,1.0782393055347221,126.03559879503483,55.815765168058476,-2.845119695393805e-07,28.808137088542836,1,0
56,2.75,125.9,44.05353327047905,-78.68163526881573,-92.4,-119.9,-99.0,-8.4,5234.0,5234.0,134.1,0.0,1.0,1.0,0.0,1.0,1.0,0.0,0.0,0.0,100.0,1.0,1.186,26.0,0.0,-0.048,50.194,66.0,58.0,26.0,26.0,26.0,26.0,0.81,-1.07,-0.27,389.0,-2.9,-2.37,-2.27,-0.54,-703.8,568.79,6.0,0.0,0.0,0.0,0.0,0.08,-7.49,-7.49,-1.05,-7.91,-0.46,-9.69,37.19,0.64,-0.61,-12.55,100.0,0.0,0.0,101.76,0.0,0.0,0.0,0.0,0.0,0.0,0.0,5428.0,0.0,30.0,4.0,134.1,0.0,0.0,0.0,0.0,0.0,0.0,1.0,0.0,2.787,2.787,50.194,17.865,0.0,110.0,435.8,8750.0,0.0,0.0,110.0,110.0,433.0,0.0,0.0,0.0,1.0,333.3,75.3,75.3,83.9,83.9,34.0,-2.4,41.38,7.9,59.1,3.0,-187.115,-35.6,100.0,11.4,23.5,19.4,33.8,0.0,1.0,0.0,0.0,0.0,0.0,0.0,3316.0,4923.0,1380.0,3792.0,317.7,311.7,351.7,344.4,25.27,22.87,26.19,24.75,325.0,325.0,355.0,355.0,100.0,99.86,100.0,100.0,2.53,2.62,1.43,1.63,-11.1,-4.7,-3.2,-1.5,83.9,68.9,83.4,74.4,87.0,69.5,85.4,75.4,83.5,66.5,83.7,73.1,80.7,65.0,82.8,71.9,-2.04,1.98,0.1,0.06,0.0,103.67,108.97,100.47,103.04,174.7,27.6,1.3689046716261875,120.63407313360985,55.095561769296076,-79.22237613995748,0.0,1,0
57,2.8,127.7,44.053518791401196,-78.68162852390368,179.1,62.7,-130.6,-203.0,5235.8,5236.0,132.1,0.0,1.0,1.0,0.0,1.0,1.0,0.0,0.0,0.0,100.0,1.0,1.186,26.0,0.0,-0.048,50.194,66.0,67.3,26.0,26.0,26.0,26.0,0.87,-1.14,-0.31,389.7,-2.39,-2.83,-2.13,-0.69,-703.05,567.18,6.0,0.0,0.0,0.0,0.0,0.08,-7.49,-7.49,-1.35,-3.1,-0.72,-3.34,36.64,0.74,-0.68,-19.13,100.0,0.0,0.0,97.48,0.0,0.0,0.0,0.0,0.0,0.0,0.0,5200.0,0.0,30.0,4.0,132.1,1.0,0.0,0.0,0.0,0.0,0.0,1.0,0.0,2.834,2.834,50.194,17.865,1.0,110.0,435.8,8750.0,0.0,0.0,110.0,110.0,433.0,0.0,0.0,0.0,1.0,333.3,65.1,65.1,91.2,91.2,34.0,3.6,70.98,1.0,19.1,3.0,-187.165,-42.5,100.0,20.4,26.6,12.9,23.7,0.0,1.0,0.0,0.0,0.0,0.0,0.0,3203.0,7405.0,832.0,1776.0,316.9,305.1,353.1,350.1,25.27,22.87,26.18,24.75,325.0,325.0,355.0,355.0,100.0,99.86,100.0,100.0,2.84,2.91,1.78,1.92,-7.7,-4.4,-7.3,-2.9,83.9,68.9,83.4,74.4,87.0,69.6,85.4,75.4,83.5,66.6,83.6,73.0,80.8,65.0,82.7,71.9,-2.42,2.36,0.11,0.09,0.0,102.35,108.35,94.59,100.37,174.7,27.6,1.4671741546251418,118.11336118103908,55.815765168058476,14.40406854427124,43.212205063790705,1,0
58,2.85,129.5,44.05350377273037,-78.68162132933084,100.2,197.4,118.0,-11.9,5237.6,5238.0,129.4,0.0,1.0,1.0,0.0,1.0,1.0,0.0,0.0,0.0,100.0,1.0,1.186,26.0,0.0,-0.048,50.194,66.0,76.5,26.0,26.0,26.0,26.0,1.31,-1.59,0.34,380.3,-1.97,-1.31,-1.69,-1.35,-702.25,565.51,6.0,0.0,0.0,0.0,0.0,0.08,-7.49,-7.49,-1.35,1.95,-0.66,7.05,35.87,0.95,-0.68,-27.72,100.0,0.0,0.0,97.59,0.0,0.0,0.0,0.0,0.0,0.0,0.0,5205.0,0.0,30.0,4.0,129.4,0.0,0.0,0.0,0.0,0.0,0.0,0.0,0.0,2.886,2.886,50.194,17.865,0.0,110.0,435.8,8750.0,0.0,0.0,110.0,110.0,433.0,0.0,0.0,0.0,1.0,333.3,53.2,53.2,81.5,81.5,34.0,10.3,58.26,21.8,38.2,3.0,-187.215,-50.8,100.0,25.4,36.5,18.8,23.1,0.0,1.0,0.0,0.0,0.0,0.0,0.0,5663.0,7837.0,2043.0,3471.0,309.5,303.3,349.4,346.1,25.27,22.87,26.18,24.75,325.0,325.0,355.0,355.0,100.0,99.86,100.0,100.0,3.21,3.25,2.31,2.56,-7.3,-5.0,-2.8,-3.6,83.9,68.9,83.4,74.4,87.1,69.7,85.4,75.4,83.5,66.7,83.6,73.1,80.8,65.2,82.7,71.9,-2.89,2.83,0.1,0.09,0.0,101.3,105.7,96.64,98.54,174.7,27.6,2.088013409918624,122.07447998803697,59.416782275675146,-61.21729117089757,7.20203455664759,1,0
59,2.9,131.2,44.053488304398755,-78.68161368509719,-66.7,-19.5,-98.7,309.9,5239.4,5239.0,126.8,1.0,1.0,1.0,0.0,1.0,1.0,0.0,0.0,0.0,100.0,1.0,1.186,26.0,0.0,-0.048,50.194,66.0,87.4,26.0,26.0,26.0,26.0,1.04,-1.18,0.02,382.4,-2.98,-2.11,-2.2,-1.42,-701.4,563.79,6.0,0.0,0.0,0.0,0.0,0.08,-7.49,-7.49,-1.17,2.5,-0.18,2.28,35.16,1.26,-0.62,-26.51,100.0,0.0,0.0,92.44,0.0,0.0,0.0,0.0,0.0,0.0,0.0,4931.0,0.0,30.0,4.0,126.8,1.0,0.0,0.0,0.0,0.0,0.0,0.0,0.0,2.94,2.94,50.194,17.865,1.0,110.0,435.8,8750.0,0.0,0.0,110.0,110.0,433.0,0.0,0.0,0.0,1.0,166.7,64.0,64.0,85.4,85.4,34.0,-0.6,-12.15,-0.1,97.4,3.0,-187.27,-57.8,100.0,22.0,35.5,13.9,38.6,0.0,1.0,0.0,0.0,0.0,0.0,0.0,904.0,6352.0,100.0,6488.0,322.3,307.6,354.1,338.2,25.27,22.87,26.18,24.75,325.0,325.0,355.0,355.0,100.0,99.86,100.0,100.0,4.26,4.16,2.96,3.05,-17.8,-8.7,-10.1,-2.5,83.9,69.0,83.4,74.4,87.2,69.9,85.3,75.5,83.6,66.8,83.6,73.1,80.9,65.3,82.7,72.0,-3.33,3.24,0.11,0.03,0.0,88.69,98.84,86.83,98.04,174.7,27.6,1.5730225681788548,111.99163206394933,56.535968623723235,-165.64678712107437,-36.0101705071429,1,0
60,2.95,133.0,44.053475803828434,-78.68160720998162,-56.2,-34.1,172.8,59.0,5241.1,5241.0,124.5,0.0,1.0,1.0,0.0,1.0,1.0,0.0,0.0,0.0,100.0,1.0,1.186,26.0,0.0,-0.051,50.194,66.0,99.1,26.0,26.0,26.0,26.0,1.32,-1.26,0.26,379.6,-4.0,-2.51,-1.45,-0.91,-700.68,562.4,6.0,0.0,0.0,0.0,0.0,0.08,-7.49,-7.49,-1.2,-2.97,-0.33,-4.36,34.52,1.35,-0.68,-21.39,100.0,0.0,0.0,91.6,0.0,0.0,0.0,0.0,0.0,0.0,0.0,4886.0,0.0,30.0,4.0,124.5,0.0,0.0,0.0,0.0,0.0,0.0,0.0,0.0,2.984,2.984,50.194,17.865,0.0,110.0,435.8,8750.0,0.0,0.0,110.0,110.0,433.0,0.0,0.0,0.0,1.0,333.3,62.8,62.8,76.9,76.9,34.0,-4.1,-16.8,0.7,61.0,3.0,-187.315,-62.3,100.0,19.2,33.8,22.5,41.5,0.0,1.0,0.0,0.0,0.0,0.0,0.0,2969.0,7101.0,640.0,4770.0,317.1,305.5,352.7,342.0,25.27,22.87,26.18,24.75,325.0,325.0,355.0,355.0,100.0,99.86,100.0,100.0,5.02,4.95,3.06,3.17,-10.1,-9.2,-7.3,-2.8,83.9,69.0,83.4,74.4,87.2,70.1,85.3,75.5,83.6,67.0,83.6,73.2,80.9,65.5,82.7,72.0,-3.61,3.51,0.09,0.05,0.0,91.6,95.59,88.22,94.98,174.7,27.6,1.8432579851990334,105.50980127592953,55.815765224960856,-28.808136519519252,32.40915351333115,1,0
61,3.0,134.7,44.053461954275704,-78.68159974561229,56.0,-44.1,-168.1,-234.0,5242.8,5243.0,122.1,1.0,1.0,1.0,0.0,1.0,1.0,0.0,0.0,0.0,100.0,1.0,1.186,26.0,0.0,-0.048,50.194,66.0,100.0,26.0,26.0,26.0,26.0,0.98,-1.32,-0.21,385.2,-2.91,-2.88,-2.06,-1.03,-699.85,560.86,6.0,0.0,0.0,0.0,0.0,0.08,-7.49,-7.49,-1.3,0.1,-0.52,-3.12,33.84,1.55,-0.66,-22.65,100.0,0.0,0.0,84.57,0.0,0.0,0.0,0.0,0.0,0.0,0.0,4511.0,0.0,30.0,4.0,122.1,1.0,0.0,0.0,0.0,0.0,0.0,0.0,0.0,3.036,3.036,50.194,17.865,1.0,110.0,435.8,8750.0,0.0,0.0,110.0,110.0,433.0,0.0,0.0,0.0,1.0,333.3,62.6,62.6,87.2,87.2,34.0,-3.4,-14.85,-0.8,22.6,3.0,-187.365,-68.0,100.0,22.0,31.6,14.1,29.8,0.0,1.0,0.0,0.0,0.0,0.0,0.0,3237.0,6711.0,1522.0,3616.0,316.5,306.7,351.6,345.7,25.27,22.87,26.18,24.74,325.0,325.0,355.0,355.0,100.0,99.86,100.0,100.0,5.64,5.58,3.45,3.58,-17.8,-11.2,-18.7,-4.4,83.9,69.0,83.4,74.4,87.3,70.3,85.3,75.5,83.7,67.2,83.6,73.2,81.0,65.7,82.6,72.0,-3.95,3.83,0.12,0.07,0.0,87.01,91.67,78.0,91.13,174.7,27.6,1.6573774464496613,109.1108184119974,59.77688397505635,-25.207119525707213,21.606101962871378,1,0
62,3.05,136.3,44.05344855438377,-78.68159228124297,11.5,-8.6,48.3,6.3,5244.5,5244.0,119.5,1.0,1.0,1.0,0.0,1.0,1.0,0.0,0.0,0.0,100.0,1.0,1.186,26.0,0.0,-0.048,50.194,66.0,100.0,26.0,26.0,26.0,26.0,1.0,-1.51,0.1,383.6,-2.63,-2.16,-2.35,-1.09,-699.02,559.37,6.0,0.0,0.0,0.0,0.0,0.08,-7.49,-7.49,-1.32,-0.9,-0.58,1.6,33.09,1.7,-0.65,-22.77,100.0,0.0,0.0,86.06,0.0,0.0,0.0,0.0,0.0,0.0,0.0,4590.0,0.0,30.0,4.0,119.5,0.0,0.0,0.0,0.0,0.0,0.0,0.0,0.0,3.087,3.087,50.194,17.865,0.0,110.0,435.8,8750.0,0.0,0.0,110.0,110.0,433.0,0.0,0.0,0.0,1.0,333.3,62.1,62.1,82.7,82.7,34.0,-4.4,-17.6,-1.5,6.1,3.0,-187.42,-74.5,100.0,22.6,31.2,16.5,30.2,0.0,1.0,0.0,0.0,0.0,0.0,0.0,3051.0,7302.0,2203.0,3393.0,316.8,305.4,349.5,345.8,25.27,22.87,26.18,24.74,325.0,325.0,355.0,355.0,100.0,99.86,100.0,100.0,6.31,6.21,3.73,3.88,-13.6,-10.5,-8.8,-6.1,83.9,69.0,83.4,74.4,87.4,70.5,85.3,75.6,83.8,67.4,83.6,73.3,81.1,65.9,82.6,72.1,-4.33,4.17,0.1,0.07,0.0,88.84,94.91,83.91,88.21,174.7,27.6,1.8138632804045622,102.98908932335881,57.976375421247994,-90.02542797492865,-14.404067975248012,1,0
63,3.1,138.0,44.05343623367777,-78.68158526653444,-29.9,37.9,-33.9,-25.1,5246.1,5246.0,117.2,1.0,1.0,1.0,0.0,1.0,1.0,0.0,0.0,0.0,100.0,1.0,1.186,26.0,0.0,-0.048,50.194,66.0,99.1,26.0,26.0,26.0,26.0,1.0,-1.32,-0.1,384.6,-3.45,-2.96,-2.51,-1.13,-698.24,558.0,6.0,0.0,0.0,0.0,0.0,0.08,-7.49,-7.49,-1.36,0.04,-0.48,-0.95,32.45,1.83,-0.64,-22.59,100.0,0.0,0.0,83.4,0.0,0.0,0.0,0.0,0.0,0.0,0.0,4449.0,0.0,30.0,4.0,117.2,1.0,0.0,0.0,0.0,0.0,0.0,0.0,0.0,3.134,3.134,50.194,17.865,1.0,110.0,435.8,8750.0,0.0,0.0,110.0,110.0,433.0,0.0,0.0,0.0,1.0,333.3,63.0,63.0,85.9,85.9,34.0,-4.4,-14.28,-1.3,7.5,3.0,-187.465,-78.8,100.0,21.1,33.1,14.8,28.9,0.0,1.0,0.0,0.0,0.0,0.0,0.0,3495.0,6163.0,1543.0,4711.0,316.6,308.0,351.7,342.9,25.26,22.87,26.18,24.74,325.0,325.0,355.0,355.0,100.0,99.86,100.0,100.0,6.84,6.72,4.09,4.23,-16.2,-11.7,-12.6,-5.7,83.9,69.0,83.4,74.4,87.5,70.8,85.3,75.7,83.9,67.7,83.6,73.3,81.1,66.1,82.6,72.2,-4.63,4.43,0.11,0.07,0.0,80.12,91.51,80.27,86.53,174.7,27.6,1.6590358645912389,100.10827561450454,58.33647717753155,-32.4091540823548,25.207120094731295,1,0
64,3.15,139.5,44.05342355324313,-78.68157771223295,25.1,-6.8,-18.6,60.1,5247.7,5248.0,114.7,0.0,1.0,1.0,0.0,1.0,1.0,0.0,0.0,0.0,100.0,1.0,1.186,26.0,0.0,-0.051,50.194,66.0,77.3,26.0,26.0,26.0,26.0,1.29,-1.3,0.12,382.3,-3.67,-2.48,-2.23,-0.91,-697.4,556.59,6.0,0.0,0.0,0.0,0.0,0.08,-7.49,-7.49,-1.37,0.31,-0.4,2.39,31.76,1.88,-0.65,-22.91,100.0,0.0,0.0,82.42,0.0,0.0,0.0,0.0,0.0,0.0,0.0,4396.0,0.0,30.0,4.0,114.7,0.0,0.0,0.0,0.0,0.0,0.0,0.0,0.0,3.186,3.186,50.194,17.865,0.0,110.0,435.8,8750.0,0.0,0.0,110.0,110.0,433.0,0.0,0.0,0.0,1.0,333.3,59.3,59.3,89.1,89.1,34.0,-6.9,-18.83,-0.5,25.4,3.0,-187.515,-81.7,100.0,22.4,32.7,13.9,31.9,0.0,1.0,0.0,0.0,0.0,0.0,0.0,4623.0,7626.0,633.0,5405.0,313.6,304.6,353.5,340.9,25.26,22.87,26.18,24.74,325.0,325.0,355.0,355.0,100.0,99.86,100.0,100.0,7.1,7.05,4.26,4.41,-14.4,-11.4,-12.2,-3.9,83.9,69.0,83.4,74.4,87.6,71.0,85.3,75.7,84.0,67.9,83.6,73.4,81.2,66.3,82.6,72.2,-4.8,4.61,0.12,0.07,0.0,85.15,86.61,78.32,86.52,174.7,27.6,1.8353473785635244,99.74817391512333,60.49708743072112,-57.61627360806216,10.8030515504597,1,0
65,3.2,141.1,44.05341132246929,-78.68157015793146,-83.5,-39.7,-7.8,-13.6,5249.3,5249.0,112.7,0.0,1.0,1.0,0.0,1.0,1.0,0.0,0.0,0.0,100.0,1.0,1.186,26.0,0.0,-0.051,50.194,66.0,36.4,26.0,26.0,26.0,26.0,1.17,-0.92,-0.2,387.3,-1.93,-1.84,-2.85,-0.62,-696.56,555.23,6.0,0.0,0.0,0.0,0.0,0.08,-7.49,-7.49,-1.32,0.53,-0.3,1.92,31.22,1.94,-0.58,-22.7,100.0,0.0,0.0,82.82,0.0,0.0,0.0,0.0,0.0,0.0,0.0,4418.0,0.0,30.0,4.0,112.7,1.0,0.0,0.0,0.0,0.0,0.0,0.0,0.0,3.237,3.237,50.194,17.865,1.0,110.0,435.8,8750.0,0.0,0.0,110.0,110.0,433.0,0.0,0.0,0.0,1.0,333.3,68.7,68.7,85.5,85.5,34.0,-2.3,-16.06,-1.2,24.4,3.0,-187.57,-83.8,100.0,18.2,30.7,13.5,31.2,0.0,1.0,0.0,0.0,0.0,0.0,0.0,1524.0,5883.0,1124.0,4607.0,321.1,309.1,351.9,343.2,25.26,22.87,26.18,24.74,325.0,325.0,355.0,355.0,100.0,99.87,100.0,100.0,7.47,7.27,4.43,4.55,-10.1,-7.3,-8.9,-3.1,83.9,69.0,83.4,74.4,87.6,71.2,85.3,75.8,84.0,68.1,83.5,73.4,81.3,66.5,82.6,72.3,-4.93,4.73,0.12,0.08,0.0,83.97,89.6,79.25,86.39,174.7,27.6,1.5017656275198203,94.34664825369832,59.41678233257752,-75.62135943065726,7.2020339876236505,1,0
66,3.25,142.7,44.05339999101705,-78.68156287342644,-52.1,20.9,49.9,50.2,5250.8,5251.0,111.4,0.0,1.0,1.0,0.0,1.0,1.0,0.0,0.0,0.0,100.0,1.0,1.186,26.0,0.0,-0.051,50.194,66.0,13.4,26.0,26.0,26.0,26.0,1.64,-0.46,0.16,384.0,-3.69,-2.78,-1.86,-0.45,-695.75,553.97,5.9,0.0,0.0,0.0,0.0,0.09,-7.49,-7.49,-1.33,-0.23,-0.18,3.23,30.87,1.83,-0.56,-22.92,100.0,0.0,0.0,85.99,0.0,0.0,0.0,0.0,0.0,0.0,0.0,5145.0,0.0,30.0,0.0,111.4,0.0,0.0,0.0,0.0,0.0,0.0,0.0,0.0,3.284,3.284,50.194,17.865,0.0,110.0,435.8,8750.0,0.0,0.0,110.0,110.0,433.0,0.0,0.0,0.0,1.0,333.3,66.3,66.3,76.7,76.7,34.0,-2.5,-28.44,11.3,50.4,3.0,-187.615,-86.0,100.0,15.6,31.8,16.0,33.7,0.0,1.0,50.0,0.0,0.0,0.0,0.0,1620.0,8257.0,1494.0,5262.0,321.0,302.4,351.1,341.0,25.26,22.87,26.18,24.74,325.0,325.0,355.0,355.0,100.0,99.87,100.0,100.0,7.44,7.29,4.29,4.45,-7.6,-2.3,-1.1,-0.7,83.9,69.0,83.3,74.4,87.6,71.4,85.3,75.9,84.0,68.3,83.5,73.5,81.3,66.7,82.6,72.4,-5.09,4.86,0.12,0.06,0.0,86.34,93.16,84.93,87.05,174.7,27.6,1.7107892915259901,92.1860379720576,61.21729082948349,-18.00508553808342,54.015256045226394,1,0
67,3.3,144.2,44.05338829983618,-78.68155486946416,-62.5,38.2,-65.1,-13.6,5252.3,5252.0,110.6,0.0,1.0,1.0,0.0,1.0,1.0,0.0,0.0,0.0,100.0,1.0,1.186,26.0,0.0,-0.048,50.194,66.0,3.6,26.0,26.0,26.0,26.0,1.6,-0.37,-0.05,385.4,-4.0,-1.87,-2.59,-0.29,-694.86,552.67,5.9,0.0,0.0,0.0,0.0,0.09,-7.49,-7.49,-1.24,3.39,-0.37,-8.86,30.67,1.78,-0.45,-25.05,100.0,0.0,0.0,86.03,0.0,0.0,0.0,0.0,0.0,0.0,0.0,6141.0,0.0,30.0,0.0,110.6,1.0,0.0,0.0,0.0,0.0,0.0,0.0,0.0,3.336,3.336,50.194,17.865,1.0,110.0,435.8,8750.0,0.0,0.0,110.0,110.0,433.0,0.0,0.0,0.0,1.0,333.3,68.6,68.6,77.3,77.3,34.0,-2.7,-23.73,16.8,49.5,3.0,-187.665,-89.0,100.0,12.5,33.7,12.8,33.1,0.0,1.0,19.1,0.0,0.0,0.0,0.0,1711.0,7159.0,2148.0,5471.0,320.8,305.5,349.9,340.9,25.26,22.88,26.17,24.74,325.0,325.0,355.0,355.0,100.0,99.87,100.0,100.0,7.54,7.35,4.46,4.58,-6.6,-1.2,-0.8,-0.3,83.9,69.0,83.3,74.4,87.6,71.6,85.2,75.9,84.0,68.5,83.5,73.5,81.2,66.9,82.5,72.4,-5.26,5.01,0.12,0.07,0.0,87.11,93.7,84.96,87.09,174.7,27.6,1.642985088185526,92.54613969988998,64.81830793710016,-46.81322205760253,32.4091546513786,1,0
68,3.35,145.7,44.05337687845178,-78.68154668563754,128.2,4.0,165.2,111.7,5253.9,5254.0,110.0,0.0,1.0,1.0,0.0,1.0,1.0,0.0,0.0,0.0,100.0,1.0,1.186,26.0,0.0,-0.048,50.194,66.0,0.0,26.0,26.0,26.0,26.0,1.72,-0.16,0.04,380.4,-3.11,-2.02,-2.4,-0.76,-693.95,551.4,5.9,0.0,0.0,0.0,0.0,0.09,-7.49,-7.49,-1.01,5.72,-0.46,4.63,30.5,1.59,-0.4,-26.69,100.0,0.0,0.0,85.82,0.0,0.0,0.0,0.0,0.0,0.0,0.0,6073.0,0.0,30.0,0.0,110.0,0.0,0.0,0.0,0.0,0.0,0.0,1.0,0.0,3.387,3.387,50.194,17.865,0.0,110.0,435.8,8750.0,0.0,0.0,110.0,110.0,433.0,0.0,0.0,0.0,1.0,166.7,66.3,66.3,75.4,75.4,34.0,-2.5,-17.99,9.8,87.8,3.0,-187.715,-94.2,100.0,18.9,33.9,21.0,38.6,0.0,1.0,0.0,0.0,0.0,0.0,0.0,1533.0,6261.0,1195.0,7101.0,320.9,308.1,351.9,336.3,25.26,22.88,26.17,24.74,325.0,325.0,355.0,355.0,100.0,99.87,100.0,100.0,7.25,7.01,4.11,4.21,-0.3,-0.5,-0.1,-0.2,83.9,69.0,83.3,74.4,87.6,71.8,85.2,76.0,84.0,68.6,83.5,73.6,81.2,67.0,82.5,72.5,-5.52,5.27,0.1,0.04,0.0,91.8,93.91,84.89,86.76,174.7,27.6,1.7278888853164138,87.50471576629735,64.45820629462135,-72.02034243684523,18.00508553808342,1,0
69,3.4,147.3,44.05336644632115,-78.6815387716074,-165.6,-147.5,-11.1,123.6,5255.4,5255.0,109.7,0.0,1.0,1.0,0.0,1.0,1.0,0.0,0.0,0.0,100.0,1.0,1.186,26.0,0.0,-0.051,50.194,66.0,0.0,26.0,26.0,26.0,26.0,1.71,-0.14,0.02,382.1,-2.67,-1.93,-3.5,-0.39,-693.07,550.24,5.9,0.0,0.0,0.0,0.0,0.09,-7.49,-7.49,-0.81,1.62,-0.49,-1.56,30.43,1.49,-0.27,-20.11,100.0,0.0,0.0,85.27,0.0,0.0,0.0,0.0,0.0,0.0,0.0,5716.0,0.0,30.0,3.0,109.7,1.0,0.0,0.0,0.0,0.0,0.0,1.0,0.0,3.436,3.436,50.194,17.865,1.0,110.0,435.8,8750.0,0.0,0.0,110.0,110.0,433.0,0.0,0.0,0.0,1.0,333.3,76.7,76.7,71.3,71.3,34.0,-2.3,-15.02,45.4,119.6,3.0,-187.765,-104.7,100.0,10.6,26.5,20.5,44.8,0.0,1.0,0.0,0.0,0.0,0.0,0.0,1305.0,4977.0,3513.0,7912.0,321.9,311.6,346.1,334.6,25.26,22.88,26.17,24.74,325.0,325.0,355.0,355.0,100.0,99.87,100.0,100.0,8.04,7.74,3.73,3.88,-0.1,-0.4,0.1,-0.4,83.9,69.0,83.3,74.4,87.6,72.0,85.2,76.1,84.0,68.8,83.5,73.7,81.2,67.2,82.5,72.6,-6.16,5.84,0.1,0.03,0.0,91.69,93.14,84.57,85.97,174.7,27.6,1.7158379876899799,85.34410545620545,66.6188164909085,-14.404068828783352,61.217290032850116,1,0
70,3.45,148.8,44.053355564529724,-78.68153004818784,45.4,61.9,101.3,73.2,5256.9,5257.0,109.1,0.0,1.0,1.0,0.0,1.0,1.0,0.0,0.0,0.0,100.0,1.0,1.186,26.0,0.0,-0.048,50.194,66.0,0.0,26.0,26.0,26.0,26.0,1.56,-0.25,0.11,379.9,-2.0,-1.84,-2.67,-0.81,-692.1,549.03,5.9,0.0,0.0,0.0,0.0,0.09,-7.49,-7.49,-0.9,-2.72,-0.27,4.25,30.28,1.13,-0.4,-17.65,100.0,0.0,0.0,84.7,0.0,0.0,0.0,0.0,0.0,0.0,0.0,5678.0,0.0,30.0,3.0,109.1,0.0,0.0,0.0,0.0,0.0,0.0,1.0,0.0,3.486,3.486,50.194,17.865,0.0,110.0,435.8,8750.0,0.0,0.0,110.0,110.0,433.0,0.0,0.0,0.0,1.0,333.3,70.3,70.3,68.7,68.7,34.0,-1.6,-26.57,5.5,114.2,3.0,-187.815,-115.8,100.0,12.9,29.6,25.5,48.5,0.0,1.0,0.0,0.0,0.0,0.0,0.0,906.0,7839.0,524.0,6186.0,322.6,303.9,352.9,338.9,25.26,22.88,26.17,24.74,325.0,325.0,355.0,355.0,100.0,99.87,100.0,100.0,8.15,7.83,2.89,2.94,-0.0,-0.6,-0.2,-0.6,83.9,69.0,83.3,74.4,87.6,72.1,85.2,76.1,84.0,68.9,83.4,73.8,81.2,67.3,82.5,72.6,-6.86,6.44,0.1,0.03,0.0,91.24,92.36,84.08,85.31,174.7,27.6,1.5837297749300543,86.06430888341902,70.57993529790636,-14.404067975247727,57.61627417708567,1,0
71,3.5,150.3,44.05334495253477,-78.68152114490394,-4.3,96.3,-157.0,-163.7,5258.4,5258.0,108.6,0.0,1.0,1.0,0.0,1.0,1.0,0.0,0.0,0.0,100.0,1.0,1.186,26.0,0.0,-0.048,50.194,66.0,0.0,26.0,26.0,26.0,26.0,1.42,-0.26,-0.13,382.7,-1.91,-1.69,-3.27,-0.21,-691.11,547.85,5.9,0.0,0.0,0.0,0.0,0.09,-7.49,-7.49,-0.91,1.34,-0.48,-9.43,30.13,0.94,-0.38,-21.2,100.0,0.0,0.0,84.47,0.0,0.0,0.0,0.0,0.0,0.0,0.0,5662.0,0.0,30.0,3.0,108.6,1.0,0.0,0.0,0.0,0.0,0.0,1.0,0.0,3.537,3.537,50.194,17.865,1.0,110.0,435.8,8750.0,0.0,0.0,110.0,110.0,433.0,0.0,0.0,0.0,1.0,333.3,70.4,70.4,67.0,67.0,34.0,-0.1,-22.86,53.6,89.1,3.0,-187.865,-124.0,100.0,12.6,34.4,17.7,40.3,0.0,1.0,0.0,0.0,0.0,0.0,0.0,81.0,6966.0,3770.0,5114.0,324.7,306.2,346.2,341.7,25.26,22.88,26.17,24.74,325.0,325.0,355.0,355.0,100.0,99.87,100.0,100.0,8.36,7.93,2.76,2.93,0.2,-0.6,-0.3,-0.6,83.8,69.0,83.3,74.4,87.5,72.4,85.1,76.1,83.9,69.1,83.4,73.8,81.2,67.5,82.4,72.6,-7.4,6.92,0.1,0.06,0.0,90.86,92.12,83.75,85.18,174.7,27.6,1.4494481708567575,83.90369865868068,72.38044390861707,-68.41932487400953,10.803051550459628,1,0
72,3.55,151.8,44.0533346103363,-78.68151197182355,54.7,-62.9,91.2,8.2,5259.9,5260.0,108.0,0.0,1.0,1.0,0.0,1.0,1.0,0.0,0.0,0.0,100.0,1.0,1.186,26.0,0.0,-0.051,50.194,66.0,0.0,26.0,26.0,26.0,26.0,1.65,-0.29,0.15,380.3,-1.24,-2.47,-2.9,-0.32,-690.09,546.7,5.9,0.0,0.0,0.0,0.0,0.09,-7.49,-7.49,-0.86,0.49,-0.71,-1.74,29.99,0.75,-0.38,-22.17,100.0,0.0,0.0,84.09,0.0,0.0,0.0,0.0,0.0,0.0,0.0,5637.0,0.0,30.0,3.0,108.0,0.0,0.0,0.0,0.0,0.0,0.0,1.0,0.0,3.588,3.588,50.194,17.865,0.0,110.0,435.8,8750.0,0.0,0.0,110.0,110.0,433.0,0.0,0.0,0.0,1.0,166.7,70.3,70.3,67.4,67.4,34.0,-1.5,-19.92,54.3,142.5,3.0,-187.915,-130.2,100.0,15.4,31.3,22.2,40.7,0.0,1.0,0.0,0.0,0.0,0.0,0.0,753.0,6159.0,3749.0,7086.0,322.3,308.1,346.0,336.8,25.25,22.88,26.17,24.74,325.0,325.0,355.0,355.0,100.0,99.87,100.0,100.0,8.25,7.79,2.42,2.6,-0.1,-0.5,-0.2,-0.5,83.8,69.0,83.3,74.4,87.6,72.5,85.1,76.2,83.9,69.3,83.4,73.8,81.2,67.7,82.4,72.7,-7.78,7.27,0.09,0.04,0.0,90.13,91.74,83.29,84.89,174.7,27.6,1.6819928656210168,79.22237639601806,71.66024045295232,-68.41932544303347,7.202033987624077,1,0
73,3.6,153.3,44.05332516745944,-78.68150324840398,-35.3,-23.1,-35.3,27.6,5261.4,5261.0,107.6,0.0,1.0,1.0,0.0,1.0,1.0,0.0,0.0,0.0,100.0,1.0,1.186,26.0,0.0,-0.051,50.194,66.0,0.0,26.0,26.0,26.0,26.0,1.5,-0.28,-0.07,381.9,-1.92,-2.79,-3.06,-0.01,-689.12,545.65,5.9,0.0,0.0,0.0,0.0,0.09,-7.49,-7.49,-0.94,-1.02,-0.98,-7.52,29.86,0.63,-0.4,-22.73,100.0,0.0,0.0,83.67,0.0,0.0,0.0,0.0,0.0,0.0,0.0,5609.0,0.0,30.0,3.0,107.6,1.0,0.0,0.0,0.0,0.0,0.0,1.0,0.0,3.636,3.636,50.194,17.865,1.0,110.0,435.8,8750.0,0.0,0.0,110.0,110.0,433.0,0.0,0.0,0.0,1.0,333.3,70.5,70.5,71.6,71.6,34.0,-3.8,-20.67,39.5,106.4,3.0,-187.965,-134.7,100.0,13.6,30.1,20.5,42.1,0.0,1.0,0.0,0.0,0.0,0.0,0.0,1836.0,6331.0,3088.0,5635.0,320.5,307.6,347.9,340.4,25.25,22.88,26.17,24.74,325.0,325.0,355.0,355.0,100.0,99.87,100.0,100.0,8.32,7.88,2.25,2.41,-0.1,-0.7,-0.2,-0.6,83.8,69.0,83.3,74.4,87.5,72.7,85.1,76.2,83.9,69.5,83.3,73.8,81.1,67.8,82.4,72.7,-8.08,7.52,0.1,0.05,0.0,89.67,91.26,82.85,84.48,174.7,27.6,1.5275143207184672,77.06176611437733,73.10064730737948,-43.212205348302746,32.40915408235466,1,0
74,3.65,154.8,44.05331536485394,-78.68149371559495,102.1,3.5,21.8,-76.1,5262.9,5263.0,107.0,0.0,1.0,1.0,0.0,1.0,1.0,0.0,0.0,0.0,100.0,1.0,1.186,26.0,0.0,-0.054,50.194,66.0,0.0,26.0,26.0,26.0,26.0,1.42,-0.28,0.12,382.6,-1.36,-2.45,-1.16,-0.77,-688.06,544.56,5.9,0.0,0.0,0.0,0.0,0.09,-7.49,-7.49,-0.97,1.36,-0.95,5.83,29.71,0.56,-0.44,-29.06,100.0,0.0,0.0,83.27,0.0,0.0,0.0,0.0,0.0,0.0,0.0,5582.0,0.0,30.0,3.0,107.0,0.0,0.0,0.0,0.0,0.0,0.0,1.0,0.0,3.687,3.687,50.194,17.865,0.0,110.0,435.8,8750.0,0.0,0.0,110.0,110.0,433.0,0.0,0.0,0.0,1.0,333.3,66.7,66.7,78.5,78.5,34.0,-4.3,-22.79,2.4,100.7,3.0,-188.02,-138.2,100.0,18.7,30.3,21.6,38.3,0.0,1.0,0.0,0.0,0.0,0.0,0.0,1898.0,6894.0,271.0,5337.0,319.6,306.5,354.0,341.2,25.25,22.88,26.17,24.74,325.0,325.0,355.0,355.0,100.0,99.87,100.0,100.0,7.9,7.49,2.25,2.31,-0.2,-0.6,-0.3,-0.6,83.8,69.0,83.3,74.4,87.6,72.9,85.0,76.2,84.0,69.6,83.3,73.8,81.2,68.0,82.3,72.7,-8.27,7.72,0.1,0.05,0.0,89.03,91.27,82.17,84.37,174.7,27.6,1.4523085071705666,74.90115586118779,74.90115586118779,-43.212205063790776,32.40915408235466,1,0
75,3.7,156.2,44.05330646157004,-78.68148454251458,-101.5,-27.3,-110.9,59.1,5264.4,5264.0,106.5,0.0,1.0,1.0,0.0,1.0,1.0,0.0,0.0,0.0,100.0,1.0,1.186,26.0,0.0,-0.051,50.194,66.0,0.0,26.0,26.0,26.0,26.0,1.47,-0.23,-0.05,383.7,-1.55,-2.1,-2.01,0.45,-687.04,543.57,5.9,0.0,0.0,0.0,0.0,0.09,-7.49,-7.49,-0.87,1.33,-0.86,-2.07,29.57,0.65,-0.35,-30.05,100.0,0.0,0.0,82.95,0.0,0.0,0.0,0.0,0.0,0.0,0.0,5560.0,0.0,30.0,3.0,106.5,1.0,0.0,0.0,0.0,0.0,0.0,1.0,0.0,3.734,3.734,50.194,17.865,1.0,110.0,435.8,8750.0,0.0,0.0,110.0,110.0,433.0,0.0,0.0,0.0,1.0,333.3,72.4,72.4,78.1,78.1,34.0,-2.4,-19.37,25.2,141.5,3.0,-188.065,-141.2,100.0,13.6,28.9,16.0,41.2,0.0,1.0,0.0,0.0,0.0,0.0,0.0,1267.0,6095.0,1980.0,7138.0,322.0,308.7,350.2,336.5,25.25,22.88,26.17,24.74,325.0,325.0,355.0,355.0,100.0,99.87,100.0,100.0,8.33,7.82,2.58,2.69,0.0,-0.4,-0.2,-0.4,83.8,69.0,83.3,74.4,87.5,73.1,85.0,76.2,83.9,69.8,83.2,73.9,81.2,68.1,82.3,72.7,-8.5,7.9,0.11,0.04,0.0,88.62,90.87,81.81,84.08,174.7,27.6,1.4887242860919545,72.74054560799826,76.34156271561494,-18.005085538083136,50.414239620438366,1,0
76,3.75,157.7,44.053297198557495,-78.6814746499769,-7.8,-26.4,103.2,13.2,5265.9,5266.0,106.0,0.0,1.0,1.0,0.0,1.0,1.0,0.0,0.0,0.0,100.0,1.0,1.186,26.0,0.0,-0.054,50.194,66.0,0.0,26.0,26.0,26.0,26.0,1.54,-0.25,0.1,382.6,-2.56,-3.27,-2.85,-0.52,-685.94,542.54,5.9,0.0,0.0,0.0,0.0,0.09,-7.49,-7.49,-0.92,-1.8,-0.9,1.29,29.43,0.68,-0.37,-28.73,100.0,0.0,0.0,82.44,0.0,0.0,0.0,0.0,0.0,0.0,0.0,5526.0,0.0,30.0,3.0,106.0,0.0,0.0,0.0,0.0,0.0,0.0,1.0,0.0,3.786,3.786,50.194,17.865,0.0,110.0,435.8,8750.0,0.0,0.0,110.0,110.0,433.0,0.0,0.0,0.0,1.0,333.3,73.4,73.4,71.9,71.9,34.0,-2.6,-18.49,41.0,129.5,3.0,-188.115,-144.1,100.0,13.3,27.6,21.2,41.9,0.0,1.0,0.0,0.0,0.0,0.0,0.0,1414.0,5768.0,2993.0,6644.0,321.7,309.0,347.8,338.0,25.25,22.88,26.16,24.74,325.0,325.0,355.0,355.0,100.0,99.87,100.0,100.0,8.61,8.09,2.57,2.7,-0.1,-0.5,-0.2,-0.5,83.8,69.0,83.3,74.4,87.5,73.2,85.0,76.3,83.9,69.9,83.2,73.9,81.1,68.3,82.3,72.8,-8.68,8.06,0.09,0.04,0.0,88.04,90.24,81.34,83.54,174.7,27.6,1.5633617623570046,73.10064730737948,79.94257982323163,-43.21220534830232,25.207119525707355,1,0
77,3.8,159.2,44.05328820534144,-78.68146457757493,-20.3,40.1,-87.7,-53.2,5267.3,5267.0,105.5,0.0,1.0,1.0,0.0,1.0,1.0,0.0,0.0,0.0,100.0,1.0,1.186,26.0,0.0,-0.054,50.194,66.0,0.0,26.0,26.0,26.0,26.0,1.33,-0.25,-0.09,386.0,-2.03,-1.85,-2.12,-1.34,-684.82,541.54,5.9,0.0,0.0,0.0,0.0,0.1,-7.49,-7.49,-1.04,-0.84,-0.88,-5.3,29.29,0.76,-0.39,-30.56,100.0,0.0,0.0,81.97,0.0,0.0,0.0,0.0,0.0,0.0,0.0,5495.0,0.0,30.0,3.0,105.5,1.0,0.0,0.0,0.0,0.0,0.0,1.0,0.0,3.837,3.837,50.194,17.865,1.0,110.0,435.8,8750.0,0.0,0.0,110.0,110.0,433.0,0.0,0.0,0.0,1.0,333.3,72.9,72.9,74.8,74.8,34.0,-0.2,-23.06,18.5,80.4,3.0,-188.17,-147.6,100.0,12.2,29.6,16.8,39.2,0.0,1.0,0.0,0.0,0.0,0.0,0.0,208.0,7056.0,1561.0,4757.0,324.5,306.2,351.0,342.7,25.25,22.88,26.16,24.74,325.0,325.0,355.0,355.0,100.0,99.87,100.0,100.0,9.0,8.44,2.89,2.93,0.2,-0.6,-0.3,-0.6,83.8,69.0,83.3,74.4,87.5,73.4,84.9,76.3,83.9,70.1,83.2,73.9,81.1,68.5,82.2,72.8,-8.9,8.25,0.11,0.04,0.0,87.66,89.79,80.87,83.08,174.7,27.6,1.356281681657612,68.41932507316803,78.86227466818568,-54.015256614250404,28.808137088542765,1,0
78,3.85,160.6,44.05328011144698,-78.68145495483374,80.1,21.5,36.9,-33.9,5268.8,5269.0,105.0,0.0,1.0,1.0,0.0,1.0,1.0,0.0,0.0,0.0,100.0,1.0,1.186,26.0,0.0,-0.057,50.194,66.0,0.0,26.0,26.0,26.0,26.0,1.52,-0.28,-0.04,383.4,-1.66,-2.36,-2.5,-0.98,-683.75,540.64,5.9,0.0,0.0,0.0,0.0,0.1,-7.49,-7.49,-1.06,1.21,-1.06,-0.66,29.14,0.81,-0.4,-33.18,100.0,0.0,0.0,81.61,0.0,0.0,0.0,0.0,0.0,0.0,0.0,5471.0,0.0,30.0,3.0,105.0,0.0,0.0,0.0,0.0,0.0,0.0,0.0,0.0,3.884,3.884,50.194,17.865,0.0,110.0,435.8,8750.0,0.0,0.0,110.0,110.0,433.0,0.0,0.0,0.0,1.0,333.3,68.5,68.5,73.7,73.7,34.0,-3.0,-23.68,35.7,68.8,3.0,-188.215,-151.7,100.0,16.2,30.7,18.6,37.5,0.0,1.0,0.0,0.0,0.0,0.0,0.0,1477.0,7248.0,2691.0,4417.0,321.0,306.2,348.6,343.7,25.25,22.89,26.16,24.74,325.0,325.0,355.0,355.0,100.0,99.87,100.0,100.0,9.14,8.61,3.03,3.14,-0.0,-0.6,-0.2,-0.8,83.8,69.0,83.3,74.4,87.5,73.6,84.9,76.3,83.9,70.3,83.1,74.0,81.1,68.6,82.2,72.8,-9.13,8.45,0.1,0.06,0.0,86.9,89.44,80.45,82.78,174.7,27.6,1.5460918472070149,67.69912164595443,82.8233935320859,-28.80813708854305,50.414239620438224,1,0
79,3.9,162.1,44.05327129809525,-78.68144389317798,-0.0,58.2,-45.0,62.5,5270.2,5270.0,104.3,0.0,1.0,1.0,0.0,1.0,1.0,0.0,0.0,0.0,100.0,1.0,1.186,26.0,0.0,-0.057,50.194,66.0,0.0,26.0,26.0,26.0,26.0,1.47,-0.25,-0.06,382.7,-2.52,-2.63,-2.11,-0.46,-682.52,539.66,5.9,0.0,0.0,0.0,0.0,0.1,-7.49,-7.49,-0.93,3.46,-0.95,-3.3,28.96,0.9,-0.37,-35.34,100.0,0.0,0.0,81.18,0.0,0.0,0.0,0.0,0.0,0.0,0.0,5442.0,0.0,30.0,3.0,104.3,1.0,0.0,0.0,0.0,0.0,0.0,0.0,0.0,3.939,3.939,50.194,17.865,1.0,110.0,435.8,8750.0,0.0,0.0,110.0,110.0,433.0,0.0,0.0,0.0,1.0,166.7,68.2,68.2,77.4,77.4,34.0,-1.4,-21.83,7.4,108.7,3.0,-188.27,-155.1,100.0,16.2,33.6,16.4,40.7,0.0,1.0,0.0,0.0,0.0,0.0,0.0,845.0,6665.0,842.0,6574.0,323.0,306.8,352.9,338.0,25.25,22.89,26.16,24.74,325.0,325.0,355.0,355.0,100.0,99.88,100.0,100.0,9.47,8.82,3.44,3.46,0.0,-0.6,-0.4,-0.6,83.8,69.0,83.3,74.4,87.5,73.8,84.9,76.4,83.9,70.5,83.1,74.0,81.1,68.8,82.2,72.9,-9.37,8.64,0.1,0.05,0.0,86.35,89.03,79.84,82.52,174.7,27.6,1.4923136399564267,65.53851136431372,83.9036986302295,-86.42441069660464,-25.20712009473087,1,0
80,3.95,163.5,44.05326374379376,-78.68143400064032,-29.8,-135.8,88.6,42.7,5271.7,5272.0,103.8,0.0,1.0,1.0,0.0,1.0,1.0,0.0,0.0,0.0,100.0,1.0,1.186,26.0,0.0,-0.054,50.194,66.0,0.0,26.0,26.0,26.0,26.0,1.64,-0.25,-0.0,381.8,-2.5,-3.72,-2.43,-0.52,-681.42,538.82,5.9,0.0,0.0,0.0,0.0,0.1,-7.49,-7.49,-0.88,-0.24,-1.05,1.28,28.82,0.97,-0.32,-31.22,100.0,0.0,0.0,80.72,0.0,0.0,0.0,0.0,0.0,0.0,0.0,5412.0,0.0,30.0,3.0,103.8,0.0,0.0,0.0,0.0,0.0,0.0,0.0,0.0,3.987,3.987,50.194,17.865,0.0,110.0,435.8,8750.0,0.0,0.0,110.0,110.0,433.0,0.0,0.0,0.0,1.0,166.7,73.7,73.7,75.9,75.9,34.0,-3.3,-14.2,31.8,146.6,3.0,-188.315,-156.6,100.0,14.7,26.8,20.8,42.8,0.0,1.0,0.0,0.0,0.0,0.0,0.0,1673.0,4562.0,2612.0,8312.0,320.9,311.2,349.1,334.2,25.24,22.89,26.16,24.74,325.0,325.0,355.0,355.0,100.0,99.88,100.0,100.0,9.86,9.15,3.35,3.45,-0.1,-0.5,-0.3,-0.5,83.8,69.0,83.3,74.4,87.5,74.0,84.8,76.4,83.9,70.7,83.1,74.1,81.1,69.0,82.1,72.9,-9.48,8.76,0.09,0.05,0.0,85.77,88.28,79.57,81.88,174.7,27.6,1.6589454481688057,59.05668057629397,80.30268152261282,-68.41932487400967,0.0,1,0
81,4.0,165.0,44.05325654922091,-78.68142383830617,-35.9,-14.3,-18.3,37.4,5273.1,5273.0,103.4,0.0,1.0,1.0,0.0,1.0,1.0,0.0,0.0,0.0,100.0,1.0,1.186,26.0,0.0,-0.057,50.194,66.0,0.0,26.0,26.0,26.0,26.0,1.44,-0.19,0.02,383.9,-2.46,-2.8,-2.69,-0.6,-680.29,538.02,5.9,0.0,0.0,0.0,0.0,0.1,-7.49,-7.49,-1.04,-3.72,-0.94,-0.35,28.7,0.95,-0.39,-28.05,100.0,0.0,0.0,80.71,0.0,0.0,0.0,0.0,0.0,0.0,0.0,5411.0,0.0,30.0,3.0,103.4,1.0,0.0,0.0,0.0,0.0,0.0,0.0,0.0,4.034,4.034,50.194,17.865,1.0,110.0,435.8,8750.0,0.0,0.0,110.0,110.0,433.0,0.0,0.0,0.0,1.0,333.3,74.6,74.6,76.8,76.8,34.0,-1.6,-18.83,15.4,111.9,3.0,-188.365,-157.9,100.0,13.0,26.1,19.9,44.7,0.0,1.0,4.0,0.0,0.0,0.0,0.0,954.0,5926.0,1429.0,6383.0,322.8,308.7,351.5,338.5,25.24,22.89,26.16,24.74,325.0,325.0,355.0,355.0,100.0,99.88,100.0,100.0,10.12,9.49,3.21,3.26,-0.1,-0.6,0.3,-0.2,83.8,69.1,83.2,74.4,87.5,74.2,84.8,76.5,83.9,70.8,83.1,74.1,81.1,69.1,82.1,73.0,-9.56,8.83,0.09,0.05,0.0,85.4,87.51,79.72,81.7,174.7,27.6,1.4526183256451088,58.69657887691275,83.9036986302295,-7.202033987624219,72.02034215233354,1,0
82,4.05,166.4,44.05324908485158,-78.6814130464469,45.2,-30.7,-56.8,-113.2,5274.5,5275.0,103.0,0.0,1.0,1.0,0.0,1.0,1.0,0.0,0.0,0.0,100.0,1.0,1.186,26.0,0.0,-0.057,50.194,66.0,0.0,26.0,26.0,26.0,26.0,1.35,-0.17,-0.14,387.2,-2.09,-3.5,-2.77,-0.04,-679.09,537.19,5.9,0.0,0.0,0.0,0.0,0.1,-7.49,-7.49,-1.22,-2.65,-0.83,5.05,28.59,1.0,-0.41,-29.17,100.0,0.0,0.0,80.35,0.0,0.0,0.0,0.0,0.0,0.0,0.0,5386.0,0.0,30.0,3.0,103.0,0.0,0.0,0.0,0.0,0.0,0.0,0.0,0.0,4.086,4.086,50.194,17.865,0.0,110.0,435.8,8750.0,0.0,0.0,110.0,110.0,433.0,0.0,0.0,0.0,1.0,333.3,74.7,74.7,81.9,81.9,34.0,-1.8,-16.44,20.3,64.5,3.0,-188.415,-160.2,100.0,15.2,24.6,17.1,39.0,0.0,1.0,3.2,0.0,0.0,0.0,0.0,979.0,5344.0,1764.0,4260.0,322.1,310.4,350.7,344.2,25.24,22.89,26.16,24.74,325.0,325.0,355.0,355.0,100.0,99.88,100.0,100.0,10.22,9.58,3.22,3.31,-0.2,-0.7,0.2,-0.1,83.8,69.1,83.2,74.4,87.5,74.3,84.8,76.5,83.9,71.0,83.0,74.1,81.1,69.3,82.1,73.0,-9.7,8.96,0.09,0.06,0.0,84.91,87.23,79.28,81.41,174.7,27.6,1.367845020461017,58.33647717753155,87.50471573784617,-43.21220534830239,21.606102531895175,1,0
83,4.1,167.8,44.05324198021089,-78.68140198479115,-96.0,-29.9,-87.9,-8.6,5276.0,5276.0,102.6,0.0,1.0,1.0,0.0,1.0,1.0,0.0,0.0,0.0,100.0,1.0,1.186,26.0,0.0,-0.057,50.194,66.0,0.0,26.0,26.0,26.0,26.0,1.09,-0.13,-0.34,390.7,-2.43,-1.75,-2.93,-0.22,-677.86,536.4,5.8,0.0,0.0,0.0,0.0,0.1,-7.49,-7.49,-1.37,-3.73,-0.66,-2.87,28.47,1.1,-0.37,-26.75,100.0,0.0,0.0,79.91,0.0,0.0,0.0,0.0,0.0,0.0,0.0,5357.0,0.0,30.0,3.0,102.6,1.0,0.0,0.0,0.0,0.0,0.0,0.0,0.0,4.137,4.137,50.194,17.865,1.0,110.0,435.8,8750.0,0.0,0.0,110.0,110.0,433.0,0.0,0.0,0.0,1.0,166.7,81.6,81.6,86.6,86.6,34.0,0.0,-10.95,11.8,95.2,3.0,-188.465,-162.2,100.0,10.4,23.1,12.7,38.6,0.0,1.0,3.6,0.0,0.0,0.0,0.0,0.0,3976.0,1221.0,6001.0,325.0,314.6,352.1,339.5,25.24,22.89,26.16,24.74,325.0,325.0,355.0,355.0,100.0,99.88,100.0,100.0,0.0,10.04,3.46,3.55,0.0,-0.4,-0.2,-0.1,83.8,69.1,83.2,74.4,87.5,74.5,84.7,76.5,83.9,71.1,83.0,74.2,81.1,69.4,82.0,73.0,-9.86,9.09,0.11,0.06,0.0,84.71,86.72,78.81,81.02,174.7,27.6,1.1491736161259534,54.375358342082514,86.06430888341902,-64.81830816470939,-10.803051550459486,1,0
84,4.15,169.2,44.05323550509533,-78.68139155266053,20.5,24.1,84.2,-93.9,5277.4,5277.0,102.2,0.0,1.0,1.0,0.0,1.0,1.0,0.0,0.0,0.0,100.0,1.0,1.186,26.0,0.0,-0.057,50.194,66.0,0.0,26.0,26.0,26.0,26.0,1.48,-0.16,-0.06,387.2,-2.17,-1.74,-2.53,-0.5,-676.7,535.68,5.8,0.0,0.0,0.0,0.0,0.1,-7.49,-7.49,-1.59,-3.52,-0.67,2.73,28.37,1.08,-0.4,-27.15,100.0,0.0,0.0,80.65,0.0,0.0,0.0,0.0,0.0,0.0,0.0,5406.0,0.0,30.0,3.0,102.2,0.0,0.0,0.0,0.0,0.0,0.0,0.0,0.0,4.184,4.184,50.194,17.865,0.0,110.0,435.8,8750.0,0.0,0.0,110.0,110.0,433.0,0.0,0.0,0.0,1.0,333.3,73.4,73.4,80.9,80.9,34.0,-4.4,-23.48,8.0,84.4,3.0,-188.515,-164.0,100.0,11.4,24.3,16.9,33.9,0.0,1.0,11.1,0.0,0.0,0.0,0.0,2140.0,7280.0,916.0,5517.0,319.9,305.9,352.5,341.3,25.24,22.89,26.16,24.74,325.0,325.0,355.0,355.0,100.0,99.88,100.0,100.0,10.79,10.18,3.4,3.5,-0.2,-0.8,2.0,-0.2,83.8,69.1,83.2,74.4,87.5,74.7,84.7,76.6,83.9,71.3,82.9,74.2,81.1,69.6,82.0,73.1,-9.96,9.18,0.11,0.07,0.0,84.18,86.21,80.7,80.6,174.7,27.6,1.4898322053170954,51.85464636106061,86.42441058280022,-32.409154082354874,43.21220563281443,1,0
85,4.2,170.6,44.05322902997977,-78.68138040107262,97.5,215.9,-100.8,-9.0,5278.8,5279.0,101.9,0.0,1.0,1.0,0.0,1.0,1.0,0.0,0.0,0.0,100.0,1.0,1.186,26.0,0.0,-0.057,50.194,66.0,0.0,26.0,26.0,26.0,26.0,1.48,-0.11,-0.01,384.3,-3.33,-1.92,-2.93,-0.98,-675.46,534.96,5.8,0.0,0.0,0.0,0.0,0.1,-7.49,-7.49,-1.62,4.01,-0.46,-0.14,28.28,1.06,-0.45,-34.38,100.0,0.0,0.0,83.13,0.0,0.0,0.0,0.0,0.0,0.0,0.0,5572.0,0.0,30.0,3.0,101.9,1.0,0.0,0.0,0.0,0.0,0.0,0.0,0.0,4.236,4.236,50.194,17.865,1.0,110.0,435.8,8750.0,0.0,0.0,110.0,110.0,433.0,0.0,0.0,0.0,1.0,333.3,63.4,63.4,80.1,80.1,34.0,-3.3,-31.01,1.9,52.3,3.0,-188.565,-164.0,100.0,16.3,35.1,11.8,33.4,0.0,1.0,38.9,0.0,0.0,0.0,0.0,1824.0,8862.0,556.0,4215.0,320.8,300.4,353.8,343.5,25.24,22.89,26.15,24.74,325.0,325.0,355.0,355.0,100.0,99.88,100.0,100.0,10.34,9.72,3.47,3.67,-0.3,-1.0,5.4,2.1,83.7,69.1,83.2,74.4,87.5,75.0,84.6,76.6,83.9,71.5,82.9,74.2,81.1,69.8,81.9,73.1,-9.95,9.14,0.12,0.07,0.0,83.85,86.56,83.13,83.13,174.7,27.6,1.484115898439202,51.134442933847026,90.38552944670046,-43.21220534830253,32.40915465137846,1,0
86,4.25,172.1,44.05322273472853,-78.68136897968822,-36.7,-39.2,55.6,109.9,5280.2,5280.0,102.1,0.0,1.0,1.0,0.0,1.0,1.0,0.0,0.0,0.0,100.0,1.0,1.186,26.0,0.0,-0.057,50.194,66.0,0.0,26.0,26.0,26.0,26.0,1.62,0.34,0.07,382.3,-2.25,-2.76,-2.42,-0.78,-674.19,534.26,5.8,0.0,0.0,0.0,0.0,0.1,-7.49,-7.49,-1.24,8.35,-0.55,-4.73,28.34,1.2,-0.29,-36.46,100.0,0.0,0.0,83.47,0.0,0.0,0.0,0.0,0.0,0.0,0.0,5595.0,0.0,30.0,3.0,102.1,0.0,0.0,0.0,0.0,0.0,0.0,0.0,0.0,4.287,4.287,50.194,17.865,0.0,110.0,435.8,8750.0,0.0,0.0,110.0,110.0,433.0,0.0,0.0,0.0,1.0,333.3,70.6,70.6,73.2,73.2,34.0,-1.3,-19.38,11.2,79.2,3.0,-188.62,-163.6,100.0,14.5,33.1,14.6,38.9,0.0,1.0,67.2,0.0,0.0,0.0,0.0,774.0,6107.0,3198.0,7269.0,323.0,308.4,347.2,336.0,25.24,22.9,26.15,24.74,325.0,325.0,355.0,355.0,100.0,99.88,100.0,100.0,10.63,9.88,4.14,4.22,-0.5,-0.8,6.5,2.6,83.7,69.1,83.2,74.4,87.5,75.2,84.6,76.7,83.9,71.8,82.9,74.3,81.2,70.0,81.9,73.2,-9.93,9.13,0.11,0.04,0.0,83.78,86.96,83.47,83.47,174.7,27.6,1.6567739737212197,47.533425826230356,89.66532604793807,-50.414239335926325,36.0101710761667,1,0
87,4.3,173.5,44.05321715893457,-78.68135800796462,-15.6,-50.9,234.2,184.6,5281.6,5282.0,102.5,0.0,1.0,1.0,0.0,1.0,1.0,0.0,0.0,0.0,100.0,1.0,1.186,26.0,0.0,-0.06,50.194,66.0,0.0,26.0,26.0,26.0,26.0,1.83,0.26,0.34,376.7,-2.04,-2.54,-3.3,-1.48,-672.97,533.64,5.8,0.0,0.0,0.0,0.0,0.1,-7.49,-7.49,-0.93,5.21,-0.71,-0.75,28.45,1.2,-0.24,-30.97,100.0,0.0,0.0,83.26,0.0,0.0,0.0,0.0,0.0,0.0,0.0,5581.0,0.0,30.0,3.0,102.5,1.0,0.0,0.0,0.0,0.0,0.0,0.0,0.0,4.334,4.334,50.194,17.865,1.0,110.0,435.8,8750.0,0.0,0.0,110.0,110.0,433.0,0.0,0.0,0.0,1.0,333.3,71.5,71.5,64.1,64.1,34.0,-3.9,-17.09,21.5,105.5,3.0,-188.665,-163.8,100.0,13.7,30.6,26.3,48.2,0.0,1.0,82.0,0.0,0.0,0.0,0.0,1837.0,5516.0,3797.0,8270.0,320.1,309.9,346.1,333.3,25.24,22.9,26.15,24.74,325.0,325.0,355.0,355.0,100.0,99.88,100.0,100.0,10.88,10.16,3.91,4.01,-0.9,-0.8,5.5,2.3,83.7,69.1,83.2,74.4,87.5,75.4,84.7,76.7,83.9,72.0,82.9,74.4,81.1,70.2,81.9,73.3,-9.95,9.15,0.08,0.02,0.0,84.06,86.88,83.26,83.26,174.7,27.6,1.879388198324125,46.093019000254394,93.98654655431713,-32.40915379784305,57.61627303903836,1,0
88,4.35,174.9,44.05321122341197,-78.6813455073943,-71.0,-185.8,-31.3,34.7,5283.1,5283.0,103.0,0.0,1.0,1.0,0.0,1.0,1.0,0.0,0.0,0.0,100.0,1.0,1.186,26.0,0.0,-0.06,50.194,66.0,0.0,26.0,26.0,26.0,26.0,1.27,0.38,-0.18,383.9,-2.27,-2.12,-2.64,-0.22,-671.58,532.98,5.8,0.0,0.0,0.0,0.0,0.1,-7.49,-7.49,-0.82,-0.27,-0.51,2.25,28.6,1.17,-0.21,-23.98,100.0,0.0,0.0,84.05,0.0,0.0,0.0,0.0,0.0,0.0,0.0,5634.0,0.0,30.0,3.0,103.0,0.0,0.0,0.0,0.0,0.0,0.0,1.0,0.0,4.389,4.389,50.194,17.865,0.0,110.0,435.8,8750.0,0.0,0.0,110.0,110.0,433.0,0.0,0.0,0.0,1.0,166.7,82.9,82.9,69.7,69.7,34.0,0.0,-14.82,10.3,109.6,3.0,-188.72,-165.2,100.0,10.1,21.3,24.8,49.9,0.0,1.0,79.7,0.0,0.0,0.0,0.0,0.0,5014.0,2064.0,7849.0,325.0,311.7,349.8,335.3,25.24,22.9,26.15,24.74,325.0,325.0,355.0,355.0,100.0,99.88,100.0,100.0,0.0,10.5,3.45,3.48,0.0,-0.8,5.8,3.2,83.7,69.1,83.2,74.4,87.5,75.6,84.7,76.8,83.9,72.1,82.9,74.5,81.1,70.4,81.9,73.3,-10.04,9.27,0.1,0.03,0.0,84.31,86.79,84.05,84.05,174.7,27.6,1.337796696064092,44.29251044644605,95.4269533518419,-50.414239620438224,0.0,1,0
89,4.4,176.4,44.05320609727882,-78.68133417594207,-54.2,-110.0,-10.1,-1.6,5284.5,5285.0,103.6,0.0,1.0,1.0,0.0,1.0,1.0,0.0,0.0,0.0,100.0,1.0,1.186,26.0,0.0,-0.063,50.194,66.0,0.0,26.0,26.0,26.0,26.0,1.15,0.36,-0.16,387.9,-2.06,-3.1,-2.56,-0.79,-670.32,532.41,5.8,0.0,0.0,0.0,0.0,0.1,-7.49,-7.49,-1.01,-7.34,-0.65,-3.86,28.78,1.08,-0.25,-15.67,100.0,0.0,0.0,83.17,0.0,0.0,0.0,0.0,0.0,0.0,0.0,5576.0,0.0,30.0,3.0,103.6,1.0,0.0,0.0,0.0,0.0,0.0,1.0,0.0,4.437,4.437,50.194,17.865,1.0,110.0,435.8,8750.0,0.0,0.0,110.0,110.0,433.0,0.0,0.0,0.0,1.0,166.7,89.9,89.9,71.1,71.1,34.0,0.0,-8.81,30.7,92.6,3.0,-188.765,-167.9,100.0,7.4,15.8,24.3,49.8,0.0,1.0,68.0,0.0,0.0,0.0,0.0,0.0,3310.0,3296.0,5761.0,325.0,316.2,346.9,339.5,25.23,22.9,26.15,24.74,325.0,325.0,355.0,355.0,100.0,99.88,100.0,100.0,0.0,10.98,2.95,3.08,0.0,-0.7,4.1,2.2,83.7,69.1,83.2,74.4,87.4,75.7,84.7,76.9,83.8,72.2,82.9,74.5,81.1,70.5,81.9,73.4,-10.23,9.44,0.09,0.02,0.0,84.31,86.65,83.17,83.17,174.7,27.6,1.215606844337428,41.05159503821057,93.98654655431713,-50.41423962043815,-3.6010164247880994,1,0
90,4.45,177.8,44.053200971145664,-78.68132203510038,40.6,66.6,-92.6,-270.2,5286.0,5286.0,104.0,0.0,1.0,1.0,0.0,1.0,1.0,0.0,0.0,0.0,100.0,1.0,1.186,26.0,0.0,-0.063,50.194,66.0,0.0,26.0,26.0,26.0,26.0,1.26,0.23,-0.19,388.7,-1.92,-2.69,-2.67,-0.37,-668.97,531.84,5.8,0.0,0.0,0.0,0.0,0.11,-7.49,-7.49,-1.45,-7.0,-0.64,0.84,28.88,0.89,-0.37,-17.35,100.0,0.0,0.0,84.53,0.0,0.0,0.0,0.0,0.0,0.0,0.0,5667.0,0.0,30.0,3.0,104.0,0.0,0.0,0.0,0.0,0.0,0.0,1.0,0.0,4.488,4.488,50.194,17.865,0.0,110.0,435.8,8750.0,0.0,0.0,110.0,110.0,433.0,0.0,0.0,0.0,1.0,166.7,79.1,79.1,81.0,81.0,34.0,-3.2,-18.42,5.7,79.1,3.0,-188.815,-170.8,100.0,9.5,19.1,19.6,36.3,0.0,1.0,57.4,0.0,0.0,0.0,0.0,1642.0,5925.0,1171.0,5717.0,320.9,309.1,352.3,340.5,25.23,22.9,26.15,24.74,325.0,325.0,355.0,355.0,100.0,99.88,100.0,100.0,11.36,10.69,2.54,2.63,-1.1,-1.1,5.2,3.5,83.7,69.1,83.2,74.4,87.4,75.9,84.6,76.9,83.8,72.4,82.9,74.5,81.1,70.6,81.9,73.4,-10.41,9.56,0.1,0.05,0.0,85.15,86.83,84.54,84.54,174.7,27.6,1.2948358969382954,39.25108648440224,95.06685170936309,-39.61118806997867,21.606101962871662,1,0
91,4.5,179.3,44.05319629467331,-78.68131043385166,153.2,208.2,-152.3,-160.7,5287.4,5287.0,104.1,0.0,1.0,1.0,0.0,1.0,1.0,0.0,0.0,0.0,100.0,1.0,1.186,26.0,0.0,-0.063,50.194,66.0,0.0,26.0,26.0,26.0,26.0,1.38,0.14,-0.02,386.7,-2.61,-3.11,-3.07,-1.36,-667.68,531.32,5.7,0.0,0.0,0.0,0.0,0.11,-7.49,-7.49,-1.57,2.86,-0.56,1.48,28.91,0.85,-0.39,-29.33,100.0,0.0,0.0,86.11,0.0,0.0,0.0,0.0,0.0,0.0,0.0,5772.0,0.0,30.0,3.0,104.1,1.0,0.0,0.0,0.0,0.0,0.0,1.0,0.0,4.536,4.536,50.194,17.865,1.0,110.0,435.8,8750.0,0.0,0.0,110.0,110.0,433.0,0.0,0.0,0.0,1.0,166.7,66.6,66.6,85.7,85.7,34.0,-7.8,-22.06,4.5,45.3,3.0,-188.865,-170.4,100.0,17.1,29.5,12.0,28.3,0.0,1.0,50.4,0.0,0.0,0.0,0.0,3487.0,6733.0,1776.0,4511.0,317.0,306.5,351.3,343.5,25.23,22.9,26.15,24.74,325.0,325.0,355.0,355.0,100.0,99.88,100.0,100.0,10.57,9.98,2.87,3.02,-0.7,-1.1,7.5,4.5,83.7,69.1,83.2,74.4,87.5,76.1,84.6,76.9,83.9,72.6,82.8,74.6,81.1,70.8,81.9,73.4,-10.35,9.52,0.12,0.07,0.0,85.61,88.0,86.11,86.11,174.7,27.6,1.387227450708787,37.090476231212705,96.1471567506043,-43.21220534830246,21.60610196287152,1,0
92,4.55,180.7,44.05319170813312,-78.68129802321351,-55.4,-7.0,39.0,177.4,5288.8,5289.0,104.5,0.0,1.0,1.0,0.0,1.0,1.0,0.0,0.0,0.0,100.0,1.0,1.186,26.0,0.0,-0.063,50.194,66.0,0.0,26.0,26.0,26.0,26.0,1.42,0.28,-0.07,384.4,-2.87,-1.9,-2.81,-0.2,-666.3,530.81,5.7,0.0,0.0,0.0,0.0,0.11,-7.49,-7.49,-1.29,6.4,-0.16,5.48,29.01,0.94,-0.29,-32.72,100.0,0.0,0.0,84.92,0.0,0.0,0.0,0.0,0.0,0.0,0.0,5693.0,0.0,30.0,3.0,104.5,0.0,0.0,0.0,0.0,0.0,0.0,1.0,0.0,4.587,4.587,50.194,17.865,0.0,110.0,435.8,8750.0,0.0,0.0,110.0,110.0,433.0,0.0,0.0,0.0,1.0,333.3,72.5,72.5,80.2,80.2,34.0,-2.2,-18.6,9.1,128.7,3.0,-188.915,-168.9,100.0,14.4,29.2,14.0,37.1,0.0,1.0,50.4,0.0,0.0,0.0,0.0,1335.0,6007.0,1770.0,7849.0,322.2,309.1,350.6,335.0,25.23,22.9,26.15,24.74,325.0,325.0,355.0,355.0,100.0,99.88,100.0,100.0,10.48,9.75,3.21,3.31,-0.4,-0.8,5.6,2.3,83.7,69.2,83.2,74.4,87.5,76.3,84.6,77.0,83.9,72.8,82.8,74.6,81.1,71.0,81.8,73.5,-10.29,9.44,0.12,0.05,0.0,85.9,88.78,84.92,84.92,174.7,27.6,1.4490341610879987,34.92986594957199,97.22746190565024,-43.21220563281429,25.207120663754523,1,0
93,4.6,182.2,44.05318757125374,-78.68128615216831,-78.0,11.6,128.4,255.9,5290.3,5290.0,104.8,0.0,1.0,1.0,0.0,1.0,1.0,0.0,0.0,0.0,100.0,1.0,1.186,26.0,0.0,-0.063,50.194,66.0,0.0,26.0,26.0,26.0,26.0,1.44,0.38,0.12,381.4,-2.67,-2.1,-3.14,-0.77,-664.98,530.35,5.7,0.0,0.0,0.0,0.0,0.11,-7.49,-7.49,-1.04,3.57,-0.12,-6.09,29.11,0.95,-0.25,-27.82,100.0,0.0,0.0,84.45,0.0,0.0,0.0,0.0,0.0,0.0,0.0,5661.0,0.0,30.0,3.0,104.8,1.0,0.0,0.0,0.0,0.0,0.0,1.0,0.0,4.634,4.634,50.194,17.865,1.0,110.0,435.8,8750.0,0.0,0.0,110.0,110.0,433.0,0.0,0.0,0.0,1.0,333.3,79.1,79.1,62.3,62.3,34.0,0.0,-16.06,39.6,122.0,3.0,-188.965,-169.0,100.0,10.5,29.7,20.4,49.9,0.0,1.0,61.3,0.0,0.0,0.0,0.0,0.0,5255.0,4803.0,7232.0,325.0,310.5,344.0,336.1,25.23,22.91,26.15,24.74,325.0,325.0,355.0,355.0,100.0,99.89,100.0,100.0,0.0,10.06,3.14,3.3,0.0,-0.7,4.9,1.9,83.7,69.2,83.2,74.4,87.5,76.5,84.6,77.0,83.9,73.0,82.8,74.7,81.1,71.2,81.8,73.6,-10.29,9.43,0.1,0.02,0.0,85.95,88.72,84.45,84.45,174.7,27.6,1.4941218156495808,32.769255667931276,98.66786881697975,-39.61118806997874,57.61627417708567,1,0
94,4.65,183.6,44.05318352430651,-78.6812733818015,-35.3,-108.5,100.7,-80.0,5291.8,5292.0,105.3,0.0,1.0,1.0,0.0,1.0,1.0,0.0,0.0,0.0,100.0,1.0,1.186,26.0,0.0,-0.066,50.194,66.0,0.0,26.0,26.0,26.0,26.0,1.28,0.39,-0.12,385.1,-1.49,-1.64,-3.09,-0.28,-663.56,529.9,5.7,0.0,0.0,0.0,0.0,0.11,-7.49,-7.49,-1.02,-0.96,-0.35,-7.28,29.23,0.91,-0.23,-21.39,100.0,0.0,0.0,85.11,0.0,0.0,0.0,0.0,0.0,0.0,0.0,5706.0,0.0,30.0,3.0,105.3,0.0,0.0,0.0,0.0,0.0,0.0,1.0,0.0,4.686,4.686,50.194,17.865,0.0,110.0,435.8,8750.0,0.0,0.0,110.0,110.0,433.0,0.0,0.0,0.0,1.0,333.3,84.3,84.3,58.0,58.0,34.0,0.0,-19.93,27.4,100.7,3.0,-189.015,-171.7,100.0,8.7,24.3,25.4,45.9,0.0,1.0,68.0,0.0,0.0,0.0,0.0,0.0,6362.0,3648.0,6401.0,325.0,308.0,346.5,338.7,25.23,22.91,26.14,24.75,325.0,325.0,355.0,355.0,100.0,99.89,100.0,100.0,0.0,10.55,2.84,2.93,0.0,-0.8,4.9,2.7,83.7,69.2,83.2,74.4,87.4,76.7,84.6,77.1,83.8,73.2,82.8,74.7,81.0,71.4,81.8,73.6,-10.46,9.57,0.09,0.04,0.0,85.95,88.41,85.11,85.11,174.7,27.6,1.3434656675925887,30.968747142574117,102.98908932335881,-46.8132220576026,21.606101962871804,1,0
95,4.7,185.1,44.053179837087924,-78.68126043157038,145.5,90.8,-34.2,-73.6,5293.2,5293.0,105.6,0.0,1.0,1.0,0.0,1.0,1.0,0.0,0.0,0.0,100.0,1.0,1.186,26.0,0.0,-0.066,50.194,66.0,0.0,26.0,26.0,26.0,26.0,1.63,0.21,0.29,379.3,-1.98,-2.8,-2.56,-0.7,-662.12,529.49,5.7,0.0,0.0,0.0,0.0,0.11,-7.49,-7.49,-1.1,0.61,-0.85,-8.8,29.33,0.72,-0.32,-23.33,100.0,0.0,0.0,85.23,0.0,0.0,0.0,0.0,0.0,0.0,0.0,5714.0,0.0,30.0,3.0,105.6,1.0,0.0,0.0,0.0,0.0,0.0,1.0,0.0,4.737,4.737,50.194,17.865,1.0,110.0,435.8,8750.0,0.0,0.0,110.0,110.0,433.0,0.0,0.0,0.0,1.0,333.3,67.0,67.0,67.7,67.7,34.0,-7.3,-23.94,32.1,65.7,3.0,-189.07,-175.0,100.0,16.0,28.9,23.7,42.3,0.0,1.0,61.3,0.0,0.0,0.0,0.0,3125.0,7190.0,3823.0,4274.0,317.1,305.1,345.7,343.8,25.23,22.91,26.14,24.75,325.0,325.0,355.0,355.0,100.0,99.89,100.0,100.0,10.98,10.38,2.54,2.63,-1.1,-1.1,4.7,2.3,83.7,69.2,83.1,74.4,87.4,77.0,84.6,77.1,83.8,73.4,82.8,74.8,81.0,71.6,81.8,73.7,-10.62,9.74,0.1,0.03,0.0,86.83,88.79,85.24,85.24,174.7,27.6,1.6688618876348036,28.087933462171016,100.82847901326693,-46.81322234211436,18.00508553808342,1,0
96,4.75,186.6,44.05317650959798,-78.68124820079655,62.1,85.0,-80.0,-99.4,5294.7,5295.0,105.8,0.0,1.0,1.0,0.0,1.0,1.0,0.0,0.0,0.0,100.0,1.0,1.186,26.0,0.0,-0.069,50.194,66.0,0.0,26.0,26.0,26.0,26.0,1.38,0.17,-0.04,381.9,-2.12,-2.83,-2.45,-1.74,-660.76,529.12,5.7,0.0,0.0,0.0,0.0,0.11,-7.49,-7.49,-0.88,7.24,-0.9,-1.51,29.38,0.66,-0.28,-29.89,100.0,0.0,0.0,85.92,0.0,0.0,0.0,0.0,0.0,0.0,0.0,5760.0,0.0,30.0,3.0,105.8,0.0,0.0,0.0,0.0,0.0,0.0,1.0,0.0,4.784,4.784,50.194,17.865,0.0,110.0,435.8,8750.0,0.0,0.0,110.0,110.0,433.0,0.0,0.0,0.0,1.0,333.3,67.5,67.5,75.3,75.3,34.0,-1.8,-19.41,8.0,115.6,3.0,-189.115,-175.6,100.0,19.1,33.1,19.7,37.3,0.0,1.0,41.3,0.0,0.0,0.0,0.0,978.0,6066.0,1499.0,6652.0,322.2,308.2,351.7,338.1,25.23,22.91,26.14,24.75,325.0,325.0,355.0,355.0,100.0,99.89,100.0,100.0,10.57,9.75,2.63,2.67,-0.5,-0.9,5.2,2.2,83.7,69.2,83.1,74.4,87.5,77.2,84.5,77.1,83.9,73.6,82.8,74.8,81.1,71.8,81.8,73.7,-10.68,9.77,0.11,0.07,0.0,87.16,89.69,85.92,85.92,174.7,27.6,1.391006829602213,26.28742490836268,104.78959787716715,-39.611188354490565,79.22237670898099,1,0
97,4.8,188.0,44.0531732720402,-78.68123426131164,-97.3,-146.5,227.0,263.2,5296.2,5296.0,106.0,0.0,1.0,1.0,0.0,1.0,1.0,0.0,0.0,0.0,100.0,1.0,1.186,26.0,0.0,-0.069,50.194,66.0,0.0,26.0,26.0,26.0,26.0,1.5,0.0,0.29,377.6,-2.58,-6.11,-2.78,-0.78,-659.21,528.76,5.7,0.0,0.0,0.0,0.0,0.11,-7.49,-7.49,-0.64,1.05,-0.78,5.97,29.45,0.61,-0.23,-23.27,100.0,0.0,0.0,83.69,0.0,0.0,0.0,0.0,0.0,0.0,0.0,5610.0,0.0,30.0,3.0,106.0,1.0,0.0,0.0,0.0,0.0,0.0,1.0,0.0,4.839,4.839,50.194,17.865,1.0,110.0,435.8,8750.0,0.0,0.0,110.0,110.0,433.0,0.0,0.0,0.0,1.0,166.7,75.6,75.6,63.0,63.0,34.0,-3.4,-11.93,51.3,152.8,3.0,-189.17,-175.2,100.0,14.2,25.8,31.1,50.4,0.0,1.0,21.8,0.0,0.0,0.0,0.0,1737.0,4150.0,4123.0,7278.0,320.6,313.0,345.3,336.0,25.23,22.92,26.14,24.75,325.0,325.0,355.0,355.0,100.0,99.89,100.0,100.0,10.67,9.83,2.16,2.34,-0.7,-0.6,2.0,0.2,83.7,69.2,83.1,74.4,87.5,77.4,84.5,77.2,83.9,73.8,82.8,74.8,81.1,72.0,81.8,73.7,-10.69,9.79,0.07,0.02,0.0,87.38,89.66,83.37,84.01,174.7,27.6,1.5277761616153067,24.12681462672196,108.75071668416503,-57.61627389257395,-50.414239620438224,1,0
