,Time,Distance,GPS Latitude,GPS Longitude,Damper Velocity (Calc) FL,Damper Velocity (Calc) FR,Damper Velocity (Calc) RL,Damper Velocity (Calc) RR,Corr Dist,Corr Dist (Unstretched),Corr Speed,ABS Active,ABS Enabled,AID Allow Tire Blankets,AID Auto Blip,AID Auto Clutch,AID Auto Shift,AID Fuel Rate,AID Ideal Line,AID Mech Damage,AID Stability,AID Tire Wear Rate,Air Density,Air Temp,Ballast,Best Lap Delta,Best Lap Time,Brake Bias,Brake Pos,Brake Temp FL,Brake Temp FR,Brake Temp RL,Brake Temp RR,CG Accel Lateral,CG Accel Longitudinal,CG Accel Vertical,CG Height,Camber FL,Camber FR,Camber RL,Camber RR,Car Coord X,Car Coord Y,Car Coord Z,Car Damage Front,Car Damage Left,Car Damage Rear,Car Damage Right,Car Pos Norm,Caster FL,Caster FR,Chassis Pitch Angle,Chassis Pitch Rate,Chassis Roll Angle,Chassis Roll Rate,Chassis Velocity X,Chassis Velocity Y,Chassis Velocity Z,Chassis Yaw Rate,Clutch Pos,DRS Active,DRS Available,Drive Train Speed,ERS Heat Charging,ERS Is Charging,ERS Max Energy,ERS Power Level,ERS Recovery Level,Engine Brake Setting,Engine Limiter,Engine RPM,Flags,Fuel Level,Gear,Ground Speed,HR Sample Clock,In Pit,KERS Charge,KERS Deployed Energy,KERS Input,KERS Max Energy,LR Sample Clock,Lap Invalidated,Lap Time,Lap Time2,Last Lap Time,Last Sector Time,MR Sample Clock,Max Fuel,Max Power,Max RPM,Max Sus Travel FL,Max Sus Travel FR,Max Sus Travel RL,Max Sus Travel RR,Max Torque,Max Turbo Boost,Num Tires Off Track,Penalties Enabled,Position,Raw Data Sample Rate,Ride Height FL,Ride Height FR,Ride Height RL,Ride Height RR,Road Temp,Self Align Torque FL,Self Align Torque FR,Self Align Torque RL,Self Align Torque RR,Session Lap Count,Session Time Left,Steering Angle,Surface Grip,Suspension Travel FL,Suspension Travel FR,Suspension Travel RL,Suspension Travel RR,TC Active,TC Enabled,Throttle Pos,Tire Dirt Level FL,Tire Dirt Level FR,Tire Dirt Level RL,Tire Dirt Level RR,Tire Load FL,Tire Load FR,Tire Load RL,Tire Load RR,Tire Loaded Radius FL,Tire Loaded Radius FR,Tire Loaded Radius RL,Tire Loaded Radius RR,Tire Pressure FL,Tire Pressure FR,Tire Pressure RL,Tire Pressure RR,Tire Radius FL,Tire Radius FR,Tire Radius RL,Tire Radius RR,Tire Rubber Grip FL,Tire Rubber Grip FR,Tire Rubber Grip RL,Tire Rubber Grip RR,Tire Slip Angle FL,Tire Slip Angle FR,Tire Slip Angle RL,Tire Slip Angle RR,Tire Slip Ratio FL,Tire Slip Ratio FR,Tire Slip Ratio RL,Tire Slip Ratio RR,Tire Temp Core FL,Tire Temp Core FR,Tire Temp Core RL,Tire Temp Core RR,Tire Temp Inner FL,Tire Temp Inner FR,Tire Temp Inner RL,Tire Temp Inner RR,Tire Temp Middle FL,Tire Temp Middle FR,Tire Temp Middle RL,Tire Temp Middle RR,Tire Temp Outer FL,Tire Temp Outer FR,Tire Temp Outer RL,Tire Temp Outer RR,Toe In FL,Toe In FR,Toe In RL,Toe In RR,Turbo Boost,Wheel Angular Speed FL,Wheel Angular Speed FR,Wheel Angular Speed RL,Wheel Angular Speed RR,Wind Direction,Wind Speed,CG Distance,Lateral Velocity,Longitudinal Velocity,Lateral Acceleration,Longitudinal Acceleration,level,curve_number
175,8.7,317.4,44.05352059004441,-78.68013924732428,46.6,-40.6,263.0,249.8,5425.6,5426.0,144.8,0.0,1.0,1.0,0.0,1.0,1.0,0.0,0.0,0.0,100.0,1.0,1.186,26.0,0.0,-0.126,50.194,66.0,0.0,26.0,26.0,26.0,26.0,-0.32,-0.19,0.36,371.6,-2.48,-2.8,-0.76,-2.44,-537.45,567.38,5.5,0.0,0.0,0.0,0.0,0.19,-7.49,-7.49,-0.57,10.88,0.98,-0.38,40.2,-0.05,-0.38,7.38,100.0,0.0,0.0,112.94,0.0,0.0,0.0,0.0,0.0,0.0,0.0,7571.0,0.0,30.0,3.0,144.8,1.0,0.0,0.0,0.0,0.0,0.0,1.0,0.0,8.736,8.736,50.194,17.865,1.0,110.0,435.8,8750.0,0.0,0.0,110.0,110.0,433.0,0.0,0.0,0.0,1.0,333.3,59.7,59.7,64.9,64.9,34.0,-52.2,-4.19,-49.4,22.0,3.0,-193.065,11.4,100.0,34.9,29.9,39.2,33.4,0.0,1.0,0.0,0.0,0.0,0.0,0.0,4994.0,3367.0,6292.0,6142.0,312.2,315.9,339.7,339.0,25.15,23.03,26.09,24.78,325.0,325.0,355.0,355.0,100.0,99.9,100.0,100.0,-0.51,-0.43,-0.41,-0.16,0.0,0.1,-0.4,-0.2,83.2,69.9,82.8,74.6,84.2,75.8,83.2,77.5,80.9,72.5,81.5,75.1,78.4,70.9,80.5,74.1,0.69,-0.65,0.06,0.06,0.0,124.05,123.4,113.06,112.81,174.7,27.6,0.5177837386399847,50.05413780725227,138.99926039952555,3.6010172783237238,43.212204494766695,1,1
176,8.75,319.4,44.05352679536349,-78.68012189041728,-172.7,-133.9,238.5,203.4,5427.6,5428.0,144.4,0.0,1.0,1.0,0.0,1.0,1.0,0.0,0.0,0.0,100.0,1.0,1.186,26.0,0.0,-0.129,50.194,66.0,0.0,26.0,26.0,26.0,26.0,-0.41,-0.17,0.11,372.5,-2.38,-2.2,-1.4,-1.86,-535.52,568.07,5.5,0.0,0.0,0.0,0.0,0.19,-7.49,-7.49,-0.27,1.61,0.92,-0.94,40.11,-0.12,-0.32,7.0,100.0,0.0,0.0,112.51,0.0,0.0,0.0,0.0,0.0,0.0,0.0,7542.0,0.0,30.0,3.0,144.4,0.0,0.0,0.0,0.0,0.0,0.0,1.0,0.0,8.787,8.787,50.194,17.865,0.0,110.0,435.8,8750.0,0.0,0.0,110.0,110.0,433.0,0.0,0.0,0.0,1.0,333.3,71.1,71.1,52.6,52.6,34.0,-36.5,-7.76,-61.1,-2.9,3.0,-193.12,11.3,100.0,26.3,23.2,51.2,43.6,0.0,1.0,0.0,0.0,0.0,0.0,0.0,3657.0,2465.0,6356.0,5555.0,315.7,318.9,339.2,340.9,25.15,23.03,26.1,24.78,325.0,325.0,355.0,355.0,100.0,99.9,100.0,100.0,-0.56,-0.56,-0.43,-0.32,0.0,0.1,-0.5,-0.1,83.2,70.0,82.8,74.6,84.2,75.7,83.2,77.4,80.9,72.4,81.5,75.1,78.3,70.8,80.5,74.1,0.65,-0.66,0.03,0.03,0.0,123.45,122.76,112.62,112.39,174.7,27.6,0.457274534606947,47.89352755406273,135.0381415356253,-32.4091540823548,-43.21220563281429,1,1
177,8.8,321.4,44.05353255102177,-78.68010552276407,6.9,-38.6,-126.2,-78.0,5429.6,5430.0,144.1,0.0,1.0,1.0,0.0,1.0,1.0,0.0,0.0,0.0,100.0,1.0,1.186,26.0,0.0,-0.129,50.194,66.0,0.0,26.0,26.0,26.0,26.0,-0.43,-0.22,0.04,376.1,-2.62,-1.96,-1.55,-1.64,-533.7,568.71,5.5,0.0,0.0,0.0,0.0,0.19,-7.49,-7.49,-0.31,-1.07,0.86,-0.8,40.02,-0.15,-0.4,7.79,100.0,0.0,0.0,112.12,0.0,0.0,0.0,0.0,0.0,0.0,0.0,7516.0,0.0,30.0,3.0,144.1,1.0,0.0,0.0,0.0,0.0,0.0,1.0,0.0,8.834,8.834,50.194,17.865,1.0,110.0,435.8,8750.0,0.0,0.0,110.0,110.0,433.0,0.0,0.0,0.0,1.0,166.7,68.8,68.8,64.7,64.7,34.0,-57.6,-11.22,-48.2,-10.0,3.0,-193.165,10.8,100.0,26.6,21.3,44.9,39.7,0.0,1.0,0.0,0.0,0.0,0.0,0.0,5018.0,3085.0,4904.0,4190.0,312.0,317.3,342.9,344.2,25.15,23.03,26.09,24.78,325.0,325.0,355.0,355.0,100.0,99.9,100.0,100.0,-0.59,-0.56,-0.49,-0.43,-0.0,0.0,-0.6,-0.2,83.2,70.0,82.8,74.6,84.1,75.7,83.2,77.4,80.8,72.4,81.5,75.1,78.3,70.8,80.5,74.0,0.63,-0.64,0.03,0.03,0.0,123.16,122.38,112.26,111.97,174.7,27.6,0.48466483264210536,46.81322239901679,134.67803983624412,-3.6010172783237238,36.01017164519078,1,1
178,8.85,323.4,44.05353848654436,-78.68008825578923,-4.2,-37.8,-81.7,-89.4,5431.6,5432.0,143.8,0.0,1.0,1.0,0.0,1.0,1.0,0.0,0.0,0.0,100.0,1.0,1.186,26.0,0.0,-0.132,50.194,66.0,0.0,26.0,26.0,26.0,26.0,-0.49,-0.17,0.02,379.3,-2.94,-2.67,-1.02,-0.94,-531.78,569.37,5.5,0.0,0.0,0.0,0.0,0.19,-7.49,-7.49,-0.37,-1.96,0.82,0.21,39.92,-0.19,-0.44,7.68,100.0,0.0,0.0,111.7,0.0,0.0,0.0,0.0,0.0,0.0,0.0,7488.0,0.0,30.0,3.0,143.8,0.0,0.0,0.0,0.0,0.0,0.0,0.0,0.0,8.886,8.886,50.194,17.865,0.0,110.0,435.8,8750.0,0.0,0.0,110.0,110.0,433.0,0.0,0.0,0.0,1.0,333.3,70.4,70.4,71.2,71.2,34.0,-61.4,-6.81,-41.5,-18.5,3.0,-193.215,10.3,100.0,26.4,19.4,40.8,35.2,0.0,1.0,0.0,0.0,0.0,0.0,0.0,5036.0,2535.0,4162.0,3984.0,312.2,318.4,343.9,343.9,25.15,23.03,26.09,24.78,325.0,325.0,355.0,355.0,100.0,99.9,100.0,100.0,-0.64,-0.57,-0.59,-0.48,-0.0,-0.0,-0.5,-0.2,83.2,70.0,82.8,74.6,84.1,75.7,83.1,77.4,80.8,72.4,81.4,75.0,78.3,70.8,80.4,74.0,0.6,-0.6,0.06,0.06,0.0,122.73,122.12,111.83,111.57,174.7,27.6,0.5190375708944391,47.533425826230356,138.63915870014438,2.845117563765598e-07,43.21220563281429,1,1
179,8.9,325.4,44.05354442206696,-78.68007089888224,-124.9,-38.1,-59.8,-113.5,5433.6,5434.0,143.4,0.0,1.0,1.0,0.0,1.0,1.0,0.0,0.0,0.0,100.0,1.0,1.186,26.0,0.0,-0.135,50.194,66.0,0.0,26.0,26.0,26.0,26.0,-0.4,-0.21,-0.36,386.6,-2.19,-3.55,-1.82,-2.44,-529.85,570.03,5.5,0.0,0.0,0.0,0.0,0.19,-7.49,-7.49,-0.51,-4.05,0.8,-1.15,39.83,-0.23,-0.48,6.51,100.0,0.0,0.0,111.38,0.0,0.0,0.0,0.0,0.0,0.0,0.0,7466.0,0.0,30.0,3.0,143.4,1.0,0.0,0.0,0.0,0.0,0.0,0.0,0.0,8.937,8.937,50.194,17.865,1.0,110.0,435.8,8750.0,0.0,0.0,110.0,110.0,433.0,0.0,0.0,0.0,1.0,333.3,79.3,79.3,71.8,71.8,34.0,-33.8,-2.44,-52.3,-3.0,3.0,-193.265,10.1,100.0,20.2,17.5,37.8,29.5,0.0,1.0,0.0,0.0,0.0,0.0,0.0,3200.0,1043.0,4607.0,2571.0,316.8,322.2,343.7,348.4,25.15,23.03,26.09,24.78,325.0,325.0,355.0,355.0,100.0,99.9,100.0,100.0,-0.68,-0.7,-0.6,-0.48,-0.0,0.1,-0.6,-0.3,83.2,70.0,82.8,74.6,84.1,75.6,83.1,77.3,80.8,72.3,81.4,75.0,78.2,70.7,80.4,74.0,0.58,-0.61,0.06,0.06,0.0,122.35,121.72,111.38,111.38,174.7,27.6,0.5776677245614472,46.81322242746796,138.99926039952555,-32.40915379784305,-39.611188069978596,1,1
180,8.95,327.4,44.05355017772524,-78.68005354197524,43.7,24.5,-144.4,-42.1,5435.6,5436.0,143.1,0.0,1.0,1.0,0.0,1.0,1.0,0.0,0.0,0.0,100.0,1.0,1.186,26.0,0.0,-0.135,50.194,66.0,0.0,26.0,26.0,26.0,26.0,-0.38,-0.22,-0.3,386.7,-2.88,-2.45,-1.21,-2.1,-527.92,570.67,5.5,0.0,0.0,0.0,0.0,0.19,-7.49,-7.49,-0.75,-3.1,0.83,-2.51,39.73,-0.24,-0.56,7.49,100.0,0.0,0.0,110.94,0.0,0.0,0.0,0.0,0.0,0.0,0.0,7437.0,0.0,30.0,3.0,143.1,0.0,0.0,0.0,0.0,0.0,0.0,0.0,0.0,8.988,8.988,50.194,17.865,0.0,110.0,435.8,8750.0,0.0,0.0,110.0,110.0,433.0,0.0,0.0,0.0,1.0,166.7,73.2,73.2,80.8,80.8,34.0,-40.2,-12.17,-25.2,-6.9,3.0,-193.315,9.3,100.0,22.3,18.7,30.6,27.4,0.0,1.0,0.0,0.0,0.0,0.0,0.0,3522.0,3524.0,2893.0,3116.0,315.8,315.4,348.4,346.4,25.15,23.04,26.09,24.78,325.0,325.0,355.0,355.0,100.0,99.9,100.0,100.0,-0.65,-0.58,-0.63,-0.49,-0.0,-0.0,-1.0,-0.3,83.2,70.0,82.8,74.6,84.0,75.6,83.1,77.3,80.7,72.3,81.3,75.0,78.2,70.7,80.4,73.9,0.55,-0.55,0.09,0.07,0.0,122.06,121.47,111.18,110.71,174.7,27.6,0.5317894320123332,44.29251044644605,134.67803989314652,-21.606102816407144,-7.202033987623793,1,1
181,9.0,329.4,44.05355548372272,-78.68003726425417,-37.0,0.4,-19.6,-144.0,5437.5,5438.0,142.7,0.0,1.0,1.0,0.0,1.0,1.0,0.0,0.0,0.0,100.0,1.0,1.186,26.0,0.0,-0.138,50.194,66.0,0.0,26.0,26.0,26.0,26.0,-0.47,-0.19,-0.2,388.0,-2.27,-3.94,-0.97,-2.16,-526.11,571.26,5.5,0.0,0.0,0.0,0.0,0.19,-7.49,-7.49,-0.82,-1.24,0.56,-4.7,39.64,-0.3,-0.47,6.98,100.0,0.0,0.0,110.98,0.0,0.0,0.0,0.0,0.0,0.0,0.0,7440.0,0.0,30.0,3.0,142.7,1.0,0.0,0.0,0.0,0.0,0.0,0.0,0.0,9.036,9.036,50.194,17.865,1.0,110.0,435.8,8750.0,0.0,0.0,110.0,110.0,433.0,0.0,0.0,0.0,1.0,333.3,76.6,76.6,76.5,76.5,34.0,-43.8,-3.05,-68.9,-7.4,3.0,-193.365,8.1,100.0,20.5,18.7,29.6,20.2,0.0,1.0,0.0,0.0,0.0,0.0,0.0,3953.0,1556.0,5714.0,3397.0,315.1,320.4,341.1,346.1,25.15,23.04,26.09,24.78,325.0,325.0,355.0,355.0,100.0,99.9,100.0,100.0,-0.68,-0.66,-0.75,-0.5,0.0,0.0,-0.5,-0.2,83.2,70.0,82.8,74.6,84.0,75.6,83.0,77.2,80.7,72.3,81.3,74.9,78.2,70.7,80.3,73.9,0.49,-0.5,0.08,0.09,0.0,121.93,121.25,111.09,110.87,174.7,27.6,0.5449770637375485,44.65261214582725,138.27905700076317,-18.005085822595106,-3.6010175628356933,1,1
182,9.05,331.4,44.053561329313155,-78.68001900802557,204.9,98.8,20.6,103.4,5439.5,5440.0,142.3,0.0,1.0,1.0,0.0,1.0,1.0,0.0,0.0,0.0,100.0,1.0,1.186,26.0,0.0,-0.138,50.194,66.0,0.0,26.0,26.0,26.0,26.0,-0.48,-0.21,0.2,381.6,-2.64,-3.75,-1.46,-1.84,-524.08,571.91,5.5,0.0,0.0,0.0,0.0,0.19,-7.49,-7.49,-0.86,2.54,0.44,-3.36,39.53,-0.3,-0.53,7.6,100.0,0.0,0.0,110.62,0.0,0.0,0.0,0.0,0.0,0.0,0.0,7416.0,0.0,30.0,3.0,142.3,0.0,0.0,0.0,0.0,0.0,0.0,0.0,0.0,9.09,9.09,50.194,17.865,0.0,110.0,435.8,8750.0,0.0,0.0,110.0,110.0,433.0,0.0,0.0,0.0,1.0,166.7,63.8,63.8,81.1,81.1,34.0,-72.3,-1.96,-50.6,-8.5,3.0,-193.42,6.2,100.0,30.7,23.7,30.6,25.4,0.0,1.0,0.0,0.0,0.0,0.0,0.0,6075.0,2960.0,4225.0,2589.0,310.1,316.4,344.3,347.9,25.15,23.04,26.09,24.78,325.0,325.0,355.0,355.0,100.0,99.9,100.0,100.0,-0.61,-0.49,-0.75,-0.56,0.0,0.1,-0.7,-0.4,83.2,70.0,82.8,74.6,84.0,75.5,83.0,77.2,80.7,72.2,81.3,74.9,78.1,70.6,80.3,73.8,0.39,-0.38,0.08,0.09,0.0,121.84,121.15,110.84,110.41,174.7,27.6,0.5608029957123981,42.49200186418654,134.31793813686295,-43.21220534830246,-79.22237670898085,1,1
183,9.1,333.4,44.05356609571766,-78.68000371955827,65.8,23.7,111.7,-14.3,5441.5,5441.0,142.0,0.0,1.0,1.0,0.0,1.0,1.0,0.0,0.0,0.0,100.0,1.0,1.186,26.0,0.0,-0.138,50.194,66.0,0.0,26.0,26.0,26.0,26.0,-0.59,-0.2,0.25,377.3,-2.28,-2.89,-1.0,-1.33,-522.38,572.44,5.5,0.0,0.0,0.0,0.0,0.19,-7.49,-7.49,-0.59,7.85,0.47,4.47,39.44,-0.29,-0.42,6.78,100.0,0.0,0.0,110.65,0.0,0.0,0.0,0.0,0.0,0.0,0.0,7418.0,0.0,30.0,3.0,142.0,1.0,0.0,0.0,0.0,0.0,0.0,0.0,0.0,9.134,9.134,50.194,17.865,1.0,110.0,435.8,8750.0,0.0,0.0,110.0,110.0,433.0,0.0,0.0,0.0,1.0,333.3,60.2,60.2,74.6,74.6,34.0,-80.5,-4.04,-69.6,-20.5,3.0,-193.465,3.7,100.0,34.0,24.9,36.2,24.7,0.0,1.0,0.0,0.0,0.0,0.0,0.0,7116.0,3191.0,5472.0,3867.0,307.4,316.3,341.6,345.3,25.15,23.04,26.09,24.78,325.0,325.0,355.0,355.0,100.0,99.9,100.0,100.0,-0.55,-0.44,-0.82,-0.63,-0.0,0.0,-0.5,-0.2,83.2,70.0,82.8,74.6,83.9,75.5,83.0,77.1,80.7,72.2,81.2,74.8,78.1,70.6,80.3,73.8,0.27,-0.24,0.07,0.08,0.0,121.57,120.97,110.83,110.47,174.7,27.6,0.6712674578735365,40.331391610997,130.3568193298651,-3.60101670930014,39.61118863900225,1,1
184,9.15,335.3,44.05357140171514,-78.67998645258344,-177.6,-70.3,177.2,277.1,5443.5,5443.0,141.7,0.0,1.0,1.0,0.0,1.0,1.0,0.0,0.0,0.0,100.0,1.0,1.186,26.0,0.0,-0.138,50.194,66.0,0.0,26.0,26.0,26.0,26.0,-0.4,-0.17,0.08,376.9,-2.67,-2.81,-2.23,-2.43,-520.46,573.03,5.5,0.0,0.0,0.0,0.0,0.2,-7.49,-7.49,-0.23,3.61,0.72,4.06,39.34,-0.23,-0.33,3.33,100.0,0.0,0.0,110.4,0.0,0.0,0.0,0.0,0.0,0.0,0.0,7401.0,0.0,30.0,3.0,141.7,0.0,0.0,0.0,0.0,0.0,0.0,0.0,0.0,9.186,9.186,50.194,17.865,0.0,110.0,435.8,8750.0,0.0,0.0,110.0,110.0,433.0,0.0,0.0,0.0,1.0,333.3,73.9,73.9,61.2,61.2,34.0,-28.2,-0.54,-76.9,-6.6,3.0,-193.515,0.5,100.0,25.1,21.3,45.1,38.5,0.0,1.0,0.0,0.0,0.0,0.0,0.0,3587.0,1136.0,5893.0,5636.0,315.6,321.5,340.4,340.4,25.15,23.04,26.09,24.78,325.0,325.0,355.0,355.0,100.0,99.9,100.0,100.0,-0.3,-0.37,-0.6,-0.45,-0.0,0.1,-0.3,-0.1,83.2,70.0,82.8,74.6,83.9,75.5,82.9,77.1,80.6,72.2,81.2,74.8,78.1,70.6,80.2,73.8,0.06,-0.05,0.06,0.05,0.0,120.84,120.62,110.4,110.4,174.7,27.6,0.4419275958796871,42.13190019325653,138.27905700076317,2.845117563765598e-07,36.01017107616656,1,1
185,9.2,337.3,44.05357661778046,-78.6799691856086,-134.2,-116.3,11.9,90.6,5445.4,5445.0,141.3,0.0,1.0,1.0,0.0,1.0,1.0,0.0,0.0,0.0,100.0,1.0,1.186,26.0,0.0,-0.135,50.194,66.0,1.0,26.0,26.0,26.0,26.0,-0.19,-0.16,0.16,381.1,-1.81,-2.8,-1.69,-1.1,-518.54,573.61,5.5,0.0,0.0,0.0,0.0,0.2,-7.49,-7.49,-0.36,-7.32,0.9,2.66,39.25,-0.14,-0.43,0.46,100.0,0.0,0.0,109.63,0.0,0.0,0.0,0.0,0.0,0.0,0.0,7349.0,0.0,30.0,3.0,141.3,1.0,0.0,0.0,0.0,0.0,0.0,0.0,0.0,9.237,9.237,50.194,17.865,1.0,110.0,435.8,8750.0,0.0,0.0,110.0,110.0,433.0,0.0,0.0,0.0,1.0,166.7,77.7,77.7,65.7,65.7,34.0,-25.2,5.07,-21.9,-1.6,3.0,-193.565,-0.3,100.0,18.4,15.5,45.7,43.0,0.0,1.0,0.0,0.0,0.0,0.0,0.0,4050.0,2824.0,3067.0,3008.0,314.9,317.3,346.7,347.3,25.15,23.04,26.09,24.78,325.0,325.0,355.0,355.0,100.0,99.9,100.0,100.0,-0.26,-0.18,-0.29,-0.21,-0.1,-0.1,-0.4,-0.3,83.2,70.0,82.8,74.6,83.9,75.4,82.9,77.1,80.6,72.1,81.2,74.8,78.0,70.5,80.2,73.7,-0.01,0.01,0.04,0.04,0.0,120.2,120.12,109.63,109.63,174.7,27.6,0.29546573405388316,40.33139163944818,133.95783643748175,-21.606102816407216,-46.81322262662604,1,1
186,9.25,339.2,44.05358147411713,-78.6799529978197,4.5,28.3,-372.1,-305.3,5447.4,5447.0,141.0,0.0,1.0,1.0,0.0,1.0,1.0,0.0,0.0,0.0,100.0,1.0,1.186,26.0,0.0,-0.138,50.194,66.0,3.3,26.0,26.0,26.0,26.0,-0.14,-0.24,-0.37,389.3,-2.98,-1.82,-1.35,-2.62,-516.74,574.15,5.5,0.0,0.0,0.0,0.0,0.2,-7.49,-7.49,-0.66,-4.9,0.98,0.16,39.16,-0.09,-0.48,0.73,100.0,0.0,0.0,109.39,0.0,0.0,0.0,0.0,0.0,0.0,0.0,7333.0,0.0,30.0,3.0,141.0,0.0,0.0,0.0,0.0,0.0,0.0,0.0,0.0,9.284,9.284,50.194,17.865,0.0,110.0,435.8,8750.0,0.0,0.0,110.0,110.0,433.0,0.0,0.0,0.0,1.0,333.3,76.8,76.8,85.1,85.1,34.0,-29.6,2.3,-14.7,12.4,3.0,-193.615,0.4,100.0,18.7,16.9,27.0,27.8,0.0,1.0,0.0,0.0,0.0,0.0,0.0,4176.0,2343.0,2731.0,3038.0,314.9,318.6,348.2,346.2,25.14,23.04,26.09,24.78,325.0,325.0,355.0,355.0,100.0,99.9,100.0,100.0,-0.2,-0.13,-0.24,-0.11,-0.2,-0.1,-0.6,-0.4,83.2,70.0,82.8,74.6,83.8,75.4,82.9,77.0,80.5,72.1,81.1,74.7,78.0,70.5,80.2,73.7,0.02,-0.02,0.1,0.08,0.0,119.85,119.72,109.39,109.39,174.7,27.6,0.46270941205037097,39.971289911615806,133.59773473810057,3.601016709300211,32.40915408235509,1,1
187,9.3,341.2,44.053586600250284,-78.67993582077702,194.4,149.2,-10.9,-31.2,5449.3,5449.0,140.5,0.0,1.0,1.0,0.0,1.0,1.0,0.0,0.0,0.0,100.0,1.0,1.186,26.0,0.0,-0.138,50.194,66.0,11.7,26.0,26.0,26.0,26.0,-0.16,-0.36,0.14,382.9,-3.11,-3.47,-1.98,-1.42,-514.83,574.72,5.5,0.0,0.0,0.0,0.0,0.2,-7.49,-7.49,-0.82,0.09,1.09,3.1,39.0,-0.04,-0.57,1.39,100.0,0.0,0.0,108.79,0.0,0.0,0.0,0.0,0.0,0.0,0.0,7293.0,0.0,30.0,3.0,140.5,1.0,0.0,0.0,0.0,0.0,0.0,0.0,0.0,9.336,9.336,50.194,17.865,1.0,110.0,435.8,8750.0,0.0,0.0,110.0,110.0,433.0,0.0,0.0,0.0,1.0,166.7,62.9,62.9,85.4,85.4,34.0,-45.1,19.86,-15.0,7.3,3.0,-193.665,1.8,100.0,28.4,24.4,26.5,26.2,0.0,1.0,0.0,0.0,0.0,0.0,0.0,5437.0,4523.0,2372.0,3379.0,311.0,312.7,348.6,346.4,25.14,23.04,26.09,24.78,325.0,325.0,355.0,355.0,100.0,99.9,100.0,100.0,-0.23,-0.09,-0.23,-0.05,-0.4,-0.4,-0.8,-0.7,83.1,70.0,82.8,74.6,83.8,75.3,82.8,77.0,80.5,72.0,81.1,74.7,78.0,70.5,80.1,73.7,0.11,-0.1,0.08,0.07,0.0,119.32,119.11,108.79,108.79,174.7,27.6,0.41809089920733744,40.6914933103782,137.19875184571725,-2.845117563765598e-07,32.40915351333115,1,1
188,9.35,343.1,44.05359163645127,-78.67991873366651,-21.2,75.9,11.6,4.1,5451.3,5451.0,139.7,0.0,1.0,1.0,0.0,1.0,1.0,0.0,0.0,0.0,100.0,1.0,1.186,26.0,0.0,-0.135,50.194,66.0,15.2,26.0,26.0,26.0,26.0,-0.17,-0.5,0.25,378.9,-3.17,-3.39,-2.17,-1.08,-512.93,575.28,5.5,0.0,0.0,0.0,0.0,0.2,-7.49,-7.49,-0.68,4.61,1.17,-0.72,38.79,-0.02,-0.48,1.03,100.0,0.0,0.0,108.6,0.0,0.0,0.0,0.0,0.0,0.0,0.0,7280.0,0.0,30.0,3.0,139.7,0.0,0.0,0.0,0.0,0.0,0.0,1.0,0.0,9.387,9.387,50.194,17.865,0.0,110.0,435.8,8750.0,0.0,0.0,110.0,110.0,433.0,0.0,0.0,0.0,1.0,333.3,62.2,62.2,73.8,73.8,34.0,-40.3,18.52,-46.0,17.0,3.0,-193.715,2.9,100.0,27.3,28.2,27.1,26.4,0.0,1.0,0.0,0.0,0.0,0.0,0.0,5140.0,4796.0,5629.0,5597.0,312.3,311.7,341.5,341.0,25.14,23.04,26.09,24.78,325.0,325.0,355.0,355.0,100.0,99.9,100.0,100.0,-0.22,-0.12,-0.23,0.03,-0.6,-0.5,-0.7,-0.6,83.1,70.0,82.8,74.6,83.7,75.3,82.8,76.9,80.5,72.0,81.0,74.7,77.9,70.4,80.1,73.6,0.16,-0.15,0.09,0.08,0.0,118.6,118.42,108.6,108.6,174.7,27.6,0.5842944463196617,39.97128988316463,136.83865008943368,-21.606102531895175,-50.414239620438366,1,1
189,9.4,345.1,44.053596582720104,-78.679901646556,6.3,-67.2,170.5,132.2,5453.2,5453.0,138.9,0.0,1.0,1.0,0.0,1.0,1.0,0.0,0.0,0.0,100.0,1.0,1.186,26.0,0.0,-0.132,50.194,66.0,18.9,26.0,26.0,26.0,26.0,-0.14,-0.54,-0.09,378.5,-2.68,-2.17,-1.25,-1.49,-511.03,575.83,5.5,0.0,0.0,0.0,0.0,0.2,-7.49,-7.49,-0.52,2.43,1.24,3.18,38.56,0.0,-0.46,2.02,100.0,0.0,0.0,107.78,0.0,0.0,0.0,0.0,0.0,0.0,0.0,7225.0,0.0,30.0,3.0,138.9,1.0,0.0,0.0,0.0,0.0,0.0,1.0,0.0,9.438,9.438,50.194,17.865,1.0,110.0,435.8,8750.0,0.0,0.0,110.0,110.0,433.0,0.0,0.0,0.0,1.0,166.7,66.5,66.5,72.4,72.4,34.0,-31.1,4.26,-20.0,18.0,3.0,-193.765,4.1,100.0,27.6,24.8,35.6,33.0,0.0,1.0,0.0,0.0,0.0,0.0,0.0,4459.0,3416.0,4071.0,5490.0,313.6,315.9,344.7,341.9,25.14,23.04,26.09,24.78,325.0,325.0,355.0,355.0,100.0,99.9,100.0,100.0,-0.22,-0.15,-0.17,-0.0,-0.8,-1.0,-0.8,-0.7,83.1,70.0,82.8,74.6,83.7,75.3,82.7,76.9,80.4,72.0,81.0,74.6,77.9,70.4,80.0,73.6,0.23,-0.23,0.08,0.05,0.0,117.6,117.11,107.78,107.78,174.7,27.6,0.5650663677834666,38.53088305718868,132.15732788367342,-18.005085253571593,-57.616273039038504,1,1
190,9.45,347.0,44.053601259192455,-78.67988572856358,3.2,-27.2,-5.3,56.3,5455.1,5455.0,138.0,0.0,1.0,1.0,0.0,1.0,1.0,0.0,0.0,0.0,100.0,1.0,1.186,26.0,0.0,-0.132,50.194,66.0,23.5,26.0,26.0,26.0,26.0,-0.28,-0.58,0.12,378.0,-2.86,-2.51,-1.56,-0.57,-509.26,576.35,5.5,0.0,0.0,0.0,0.0,0.2,-7.49,-7.49,-0.48,-0.02,1.31,3.39,38.31,0.0,-0.49,2.82,100.0,0.0,0.0,106.9,0.0,0.0,0.0,0.0,0.0,0.0,0.0,7166.0,0.0,30.0,3.0,138.0,0.0,0.0,0.0,0.0,0.0,0.0,1.0,0.0,9.486,9.486,50.194,17.865,0.0,110.0,435.8,8750.0,0.0,0.0,110.0,110.0,433.0,0.0,0.0,0.0,1.0,333.3,64.8,64.8,74.7,74.7,34.0,-57.3,2.3,-30.1,1.2,3.0,-193.815,5.9,100.0,27.8,23.5,35.3,35.9,0.0,1.0,0.0,0.0,0.0,0.0,0.0,6562.0,3140.0,4612.0,3867.0,308.9,316.4,343.2,345.8,25.14,23.04,26.09,24.78,325.0,325.0,355.0,355.0,100.0,99.9,100.0,100.0,-0.3,-0.23,-0.22,-0.06,-0.8,-1.3,-0.7,-0.8,83.1,70.0,82.8,74.6,83.7,75.3,82.7,76.9,80.4,72.0,81.0,74.6,77.9,70.4,80.0,73.5,0.33,-0.34,0.07,0.06,0.0,116.91,115.88,106.95,106.85,174.7,27.6,0.655133574166368,38.17078135780747,131.07702278552983,2.845117563765598e-07,18.00508553808328,1,1
191,9.5,348.9,44.05360611552913,-78.67986891124954,-115.0,-61.9,-50.6,-39.2,5457.0,5457.0,136.9,0.0,1.0,1.0,0.0,1.0,1.0,0.0,0.0,0.0,100.0,1.0,1.186,26.0,0.0,-0.132,50.194,66.0,32.4,26.0,26.0,26.0,26.0,-0.22,-0.68,-0.16,384.1,-4.42,-1.67,-1.47,-0.46,-507.39,576.89,5.6,0.0,0.0,0.0,0.0,0.2,-7.49,-7.49,-0.53,-3.16,1.59,4.02,38.0,-0.0,-0.49,3.72,100.0,0.0,0.0,105.76,0.0,0.0,0.0,0.0,0.0,0.0,0.0,7090.0,0.0,30.0,3.0,136.9,1.0,0.0,0.0,0.0,0.0,0.0,1.0,0.0,9.537,9.537,50.194,17.865,1.0,110.0,435.8,8750.0,0.0,0.0,110.0,110.0,433.0,0.0,0.0,0.0,1.0,333.3,74.6,74.6,74.2,74.2,34.0,-19.2,-4.39,-24.1,-1.3,3.0,-193.87,8.2,100.0,22.0,20.4,32.8,33.9,0.0,1.0,0.0,0.0,0.0,0.0,0.0,2774.0,3099.0,3726.0,4140.0,318.6,316.7,345.7,344.3,25.14,23.04,26.08,24.78,325.0,325.0,355.0,355.0,100.0,99.9,100.0,100.0,-0.34,-0.34,-0.29,-0.09,-2.6,-2.0,-1.1,-0.7,83.1,70.0,82.8,74.6,83.6,75.2,82.6,76.8,80.4,71.9,80.9,74.6,77.8,70.4,79.9,73.5,0.46,-0.46,0.08,0.06,0.0,113.49,114.09,105.76,105.76,174.7,27.6,0.7323933369440222,38.53088308563986,133.95783643748175,-18.00508553808335,-21.606103100919256,1,1
192,9.55,350.8,44.05361088193364,-78.67985227379984,-51.5,-3.0,-31.0,-109.2,5458.9,5459.0,135.6,0.0,1.0,1.0,0.0,1.0,1.0,0.0,0.0,0.0,100.0,1.0,1.186,26.0,0.0,-0.132,50.194,66.0,38.5,26.0,26.0,26.0,26.0,-0.32,-0.86,-0.1,385.2,-2.36,-2.19,-2.09,-1.72,-505.54,577.42,5.6,0.0,0.0,0.0,0.0,0.2,-7.49,-7.49,-0.86,-7.42,1.62,-2.02,37.63,-0.01,-0.61,4.13,100.0,0.0,0.0,104.04,0.0,0.0,0.0,0.0,0.0,0.0,0.0,6974.0,0.0,30.0,3.0,135.6,0.0,0.0,0.0,0.0,0.0,0.0,1.0,0.0,9.588,9.588,50.194,17.865,0.0,110.0,435.8,8750.0,0.0,0.0,110.0,110.0,433.0,0.0,0.0,0.0,1.0,166.7,69.6,69.6,79.3,79.3,34.0,-63.3,-7.85,-18.5,3.3,3.0,-193.915,10.9,100.0,19.5,20.2,31.3,28.4,0.0,1.0,0.0,0.0,0.0,0.0,0.0,5938.0,4402.0,2956.0,1703.0,309.8,313.1,347.8,350.1,25.14,23.05,26.08,24.78,325.0,325.0,355.0,355.0,100.0,99.9,100.0,100.0,-0.58,-0.42,-0.24,-0.08,-1.3,-1.7,-1.5,-1.2,83.1,70.0,82.8,74.6,83.6,75.2,82.6,76.8,80.3,71.9,80.9,74.5,77.8,70.3,79.9,73.5,0.61,-0.62,0.08,0.08,0.0,114.74,113.07,104.3,103.77,174.7,27.6,0.9230384607371461,36.370272803999136,128.9164124754379,-32.40915436686677,-61.21729060187391,1,1
193,9.6,352.6,44.05361519867735,-78.67983671553606,126.3,92.6,-194.8,-194.3,5460.8,5461.0,134.1,0.0,1.0,1.0,0.0,1.0,1.0,0.0,0.0,0.0,100.0,1.0,1.186,26.0,0.0,-0.129,50.194,66.0,49.5,26.0,26.0,26.0,26.0,-0.28,-1.02,-0.11,387.0,-2.4,-2.14,-0.3,-1.2,-503.81,577.9,5.6,0.0,0.0,0.0,0.0,0.21,-7.49,-7.49,-1.04,-0.22,1.47,-4.83,37.22,-0.06,-0.65,7.43,100.0,0.0,0.0,102.07,0.0,0.0,0.0,0.0,0.0,0.0,0.0,6843.0,0.0,30.0,3.0,134.1,1.0,0.0,0.0,0.0,0.0,0.0,1.0,0.0,9.636,9.636,50.194,17.865,1.0,110.0,435.8,8750.0,0.0,0.0,110.0,110.0,433.0,0.0,0.0,0.0,1.0,333.3,63.0,63.0,89.7,89.7,34.0,-53.4,-9.36,-7.1,-0.1,3.0,-193.965,12.7,100.0,25.8,24.9,21.5,18.7,0.0,1.0,0.0,0.0,0.0,0.0,0.0,5693.0,5248.0,1886.0,2256.0,310.7,310.6,350.0,349.3,25.14,23.05,26.08,24.78,325.0,325.0,355.0,355.0,100.0,99.9,100.0,100.0,-0.55,-0.41,-0.39,-0.19,-2.0,-2.0,-2.3,-2.7,83.1,70.0,82.8,74.6,83.6,75.2,82.5,76.8,80.3,71.9,80.8,74.5,77.8,70.3,79.9,73.4,0.72,-0.73,0.09,0.09,0.0,112.38,111.74,102.01,102.14,174.7,27.6,1.063437821407533,35.28996764895318,127.83610737729435,-18.00508553808335,-25.20711952570693,1,1
194,9.65,354.5,44.05361969528538,-78.67982034788282,76.6,-28.4,175.4,20.5,5462.6,5463.0,132.2,0.0,1.0,1.0,0.0,1.0,1.0,0.0,0.0,0.0,100.0,1.0,1.186,26.0,0.0,-0.126,50.194,66.0,53.3,26.0,26.0,26.0,26.0,-0.42,-1.08,0.12,383.6,-2.04,-2.79,-0.98,-1.16,-501.99,578.4,5.6,0.0,0.0,0.0,0.0,0.21,-7.49,-7.49,-0.97,1.35,1.28,0.83,36.69,-0.14,-0.61,9.1,100.0,0.0,0.0,101.41,0.0,0.0,0.0,0.0,0.0,0.0,0.0,6798.0,0.0,30.0,3.0,132.2,0.0,0.0,0.0,0.0,0.0,0.0,1.0,0.0,9.687,9.687,50.194,17.865,0.0,110.0,435.8,8750.0,0.0,0.0,110.0,110.0,433.0,0.0,0.0,0.0,1.0,333.3,63.8,63.8,83.0,83.0,34.0,-56.8,-7.43,-24.1,-7.4,3.0,-194.015,13.3,100.0,29.6,23.4,30.3,19.7,0.0,1.0,0.0,0.0,0.0,0.0,0.0,5661.0,3947.0,3025.0,2989.0,310.5,314.4,347.2,347.3,25.14,23.05,26.08,24.78,325.0,325.0,355.0,355.0,100.0,99.9,100.0,100.0,-0.69,-0.58,-0.63,-0.4,-2.2,-3.4,-2.0,-1.4,83.1,70.0,82.8,74.6,83.6,75.2,82.5,76.7,80.3,71.9,80.8,74.4,77.8,70.3,79.8,73.4,0.79,-0.78,0.08,0.09,0.0,110.55,108.77,101.41,101.41,174.7,27.6,1.1649892703368558,34.5697642501908,126.39570052286722,-10.803050981435831,3.6010169938120384,1,1
195,9.7,356.3,44.05362383216477,-78.67980514934769,3.8,28.1,5.3,76.3,5464.4,5464.0,130.4,0.0,1.0,1.0,0.0,1.0,1.0,0.0,0.0,0.0,100.0,1.0,1.186,26.0,0.0,-0.123,50.194,66.0,52.7,26.0,26.0,26.0,26.0,-0.54,-1.02,0.17,381.7,-2.08,-2.28,-1.51,-1.31,-500.3,578.86,5.6,0.0,0.0,0.0,0.0,0.21,-7.49,-7.49,-0.91,1.47,1.21,-1.99,36.19,-0.2,-0.62,9.92,100.0,0.0,0.0,100.07,0.0,0.0,0.0,0.0,0.0,0.0,0.0,6708.0,0.0,30.0,3.0,130.4,1.0,0.0,0.0,0.0,0.0,0.0,1.0,0.0,9.734,9.734,50.194,17.865,1.0,110.0,435.8,8750.0,0.0,0.0,110.0,110.0,433.0,0.0,0.0,0.0,1.0,333.3,61.4,61.4,79.8,79.8,34.0,-70.0,-13.76,-44.2,-5.2,3.0,-194.065,13.1,100.0,29.8,24.8,30.6,23.6,0.0,1.0,0.0,0.0,0.0,0.0,0.0,6406.0,4477.0,3914.0,1597.0,308.6,312.9,344.8,350.6,25.14,23.05,26.08,24.78,325.0,325.0,355.0,355.0,100.0,99.9,100.0,100.0,-0.72,-0.62,-0.74,-0.57,-2.0,-2.8,-1.4,-1.7,83.1,70.0,82.7,74.6,83.6,75.2,82.5,76.7,80.3,71.9,80.8,74.4,77.8,70.3,79.8,73.4,0.77,-0.77,0.08,0.08,0.0,109.48,107.67,100.67,99.48,174.7,27.6,1.1665761869676579,34.2096625508096,128.19620907667556,-18.00508553808342,3.6010169938120384,1,1
196,9.75,358.1,44.05362823884064,-78.67978833203365,44.7,13.8,4.6,-20.0,5466.2,5466.0,128.4,0.0,1.0,1.0,0.0,1.0,1.0,0.0,0.0,0.0,100.0,1.0,1.186,26.0,0.0,-0.12,50.194,66.0,48.9,26.0,26.0,26.0,26.0,-0.57,-0.99,0.18,380.2,-2.29,-3.49,-1.74,-1.38,-498.43,579.35,5.6,0.0,0.0,0.0,0.0,0.21,-7.49,-7.49,-0.77,4.2,1.26,0.74,35.64,-0.26,-0.58,11.24,100.0,0.0,0.0,98.9,0.0,0.0,0.0,0.0,0.0,0.0,0.0,6630.0,0.0,30.0,3.0,128.4,0.0,0.0,0.0,0.0,0.0,0.0,1.0,0.0,9.789,9.789,50.194,17.865,0.0,110.0,435.8,8750.0,0.0,0.0,110.0,110.0,433.0,0.0,0.0,0.0,1.0,166.7,60.4,60.4,78.6,78.6,34.0,-62.0,-11.14,-50.1,-22.6,3.0,-194.12,12.3,100.0,32.0,25.5,30.8,22.6,0.0,1.0,0.0,0.0,0.0,0.0,0.0,5479.0,5022.0,4068.0,4022.0,310.9,311.4,345.2,345.2,25.14,23.05,26.08,24.78,325.0,325.0,355.0,355.0,100.0,99.9,100.0,100.0,-0.75,-0.63,-0.95,-0.71,-1.8,-2.1,-1.8,-1.3,83.1,70.1,82.7,74.6,83.6,75.2,82.5,76.6,80.3,71.9,80.7,74.4,77.8,70.3,79.8,73.3,0.72,-0.72,0.09,0.09,0.0,107.68,106.93,99.06,98.74,174.7,27.6,1.1564601160437828,32.76925569638246,126.75580222224842,-46.813222626626114,-100.82847924087645,1,1
197,9.8,359.8,44.05363201599138,-78.67977349322716,7.6,-26.2,31.0,56.2,5468.0,5468.0,126.8,0.0,1.0,1.0,0.0,1.0,1.0,0.0,0.0,0.0,100.0,1.0,1.186,26.0,0.0,-0.114,50.194,66.0,45.9,26.0,26.0,26.0,26.0,-0.63,-0.9,0.19,380.5,-2.01,-4.12,-1.93,-1.35,-496.78,579.77,5.6,0.0,0.0,0.0,0.0,0.21,-7.49,-7.49,-0.61,3.4,1.21,0.17,35.19,-0.28,-0.55,10.11,100.0,0.0,0.0,97.74,0.0,0.0,0.0,0.0,0.0,0.0,0.0,6552.0,0.0,30.0,3.0,126.8,1.0,0.0,0.0,0.0,0.0,0.0,1.0,0.0,9.837,9.837,50.194,17.865,1.0,110.0,435.8,8750.0,0.0,0.0,110.0,110.0,433.0,0.0,0.0,0.0,1.0,333.3,63.6,63.6,77.6,77.6,34.0,-60.9,-6.15,-80.1,-16.3,3.0,-194.165,11.8,100.0,32.4,24.2,32.3,25.4,0.0,1.0,0.0,0.0,0.0,0.0,0.0,5394.0,2619.0,5493.0,2871.0,310.7,316.7,341.8,347.7,25.14,23.05,26.08,24.78,325.0,325.0,355.0,355.0,100.0,99.9,100.0,100.0,-0.77,-0.75,-0.96,-0.76,-1.8,-2.2,-1.3,-1.4,83.1,70.1,82.7,74.6,83.6,75.2,82.4,76.6,80.3,71.9,80.7,74.3,77.8,70.3,79.7,73.3,0.69,-0.68,0.08,0.09,0.0,106.46,104.62,98.27,97.21,174.7,27.6,1.1148990985734988,29.528340288146985,118.11336115258791,-39.611188354490494,-61.21729060187377,1,1
198,9.85,361.6,44.053635613277805,-78.67975883428498,-235.2,-180.0,26.4,17.3,5469.7,5470.0,125.4,0.0,1.0,1.0,0.0,1.0,1.0,0.0,0.0,0.0,100.0,1.0,1.186,26.0,0.0,-0.111,50.194,66.0,41.8,26.0,26.0,26.0,26.0,-0.46,-0.8,-0.32,388.4,-2.62,-3.09,-0.7,-1.86,-495.15,580.17,5.6,0.0,0.0,0.0,0.0,0.21,-7.49,-7.49,-0.62,-3.72,1.21,-0.28,34.79,-0.3,-0.49,7.63,100.0,0.0,0.0,96.46,0.0,0.0,0.0,0.0,0.0,0.0,0.0,6466.0,0.0,30.0,3.0,125.4,0.0,0.0,0.0,0.0,0.0,0.0,0.0,0.0,9.884,9.884,50.194,17.865,0.0,110.0,435.8,8750.0,0.0,0.0,110.0,110.0,433.0,0.0,0.0,0.0,1.0,333.3,78.5,78.5,77.9,77.9,34.0,-37.5,-2.12,-47.0,-9.9,3.0,-194.215,12.4,100.0,20.7,15.2,33.7,26.2,0.0,1.0,0.0,0.0,0.0,0.0,0.0,3642.0,1740.0,4188.0,2275.0,315.8,320.2,344.8,348.9,25.13,23.05,26.08,24.78,325.0,325.0,355.0,355.0,100.0,99.9,100.0,100.0,-0.9,-0.9,-0.88,-0.72,-2.6,-6.3,-1.3,-1.2,83.1,70.1,82.7,74.6,83.6,75.2,82.4,76.6,80.3,71.9,80.7,74.3,77.8,70.3,79.7,73.3,0.71,-0.72,0.07,0.07,0.0,104.35,99.45,96.82,96.1,174.7,27.6,0.9767292357659825,28.80813686093341,120.63407316206104,-7.202034272135762,46.81322262662647,1,1
199,9.9,363.3,44.05363921056423,-78.67974336595336,-9.9,-26.3,-83.8,-35.8,5471.4,5471.0,123.9,0.0,1.0,1.0,0.0,1.0,1.0,0.0,0.0,0.0,100.0,1.0,1.186,26.0,0.0,-0.099,50.194,66.0,39.6,26.0,26.0,26.0,26.0,-0.34,-0.63,-0.33,392.9,-2.74,-2.28,-1.04,-2.05,-493.43,580.57,5.6,0.0,0.0,0.0,0.0,0.21,-7.49,-7.49,-1.0,-8.73,1.37,3.43,34.4,-0.27,-0.59,7.55,100.0,0.0,0.0,94.59,0.0,0.0,0.0,0.0,0.0,0.0,0.0,6341.0,0.0,30.0,3.0,123.9,1.0,0.0,0.0,0.0,0.0,0.0,0.0,0.0,9.936,9.936,50.194,17.865,1.0,110.0,435.8,8750.0,0.0,0.0,110.0,110.0,433.0,0.0,0.0,0.0,1.0,333.3,79.8,79.8,90.1,90.1,34.0,-36.0,-2.71,-8.2,-5.3,3.0,-194.265,13.9,100.0,20.2,13.9,29.5,24.4,0.0,1.0,0.0,0.0,0.0,0.0,0.0,3297.0,1440.0,1174.0,1498.0,316.5,321.2,351.9,350.5,25.13,23.05,26.08,24.78,325.0,325.0,355.0,355.0,100.0,99.9,100.0,100.0,-0.98,-0.96,-0.81,-0.7,-2.4,-5.8,-2.1,-1.4,83.1,70.1,82.7,74.6,83.5,75.2,82.4,76.5,80.3,71.9,80.7,74.3,77.8,70.3,79.7,73.2,0.8,-0.8,0.09,0.09,0.0,102.79,98.51,94.59,94.59,174.7,27.6,0.7882892870006544,28.80813686093341,122.79468341525056,-18.00508553808342,-25.207120094731295,1,1
200,9.95,365.0,44.05364280785065,-78.67972816741822,-8.8,66.8,-203.2,-211.8,5473.1,5473.0,122.5,0.0,1.0,1.0,0.0,1.0,1.0,0.0,0.0,0.0,100.0,1.0,1.186,26.0,0.0,-0.096,50.194,66.0,39.0,26.0,26.0,26.0,26.0,-0.58,-0.96,-0.27,392.9,-2.85,-2.36,-1.66,-1.44,-491.74,580.97,5.6,0.0,0.0,0.0,0.0,0.21,-7.49,-7.49,-1.35,-5.51,1.33,-2.54,33.98,-0.32,-0.59,10.18,100.0,0.0,0.0,93.22,0.0,0.0,0.0,0.0,0.0,0.0,0.0,6249.0,0.0,30.0,3.0,122.5,0.0,0.0,0.0,0.0,0.0,0.0,0.0,0.0,9.987,9.987,50.194,17.865,0.0,110.0,435.8,8750.0,0.0,0.0,110.0,110.0,433.0,0.0,0.0,0.0,1.0,166.7,72.4,72.4,90.4,90.4,34.0,-67.7,-24.02,-41.0,-4.8,3.0,-194.315,15.2,100.0,19.7,17.2,19.3,13.9,0.0,1.0,0.0,0.0,0.0,0.0,0.0,5270.0,4442.0,3378.0,1289.0,312.6,313.5,346.7,351.5,25.13,23.05,26.07,24.77,325.0,325.0,355.0,355.0,100.0,99.9,100.0,100.0,-1.05,-0.91,-1.04,-0.8,-2.1,-2.6,-1.9,-2.9,83.1,70.1,82.7,74.6,83.5,75.2,82.3,76.5,80.3,71.9,80.6,74.2,77.7,70.3,79.7,73.2,0.88,-0.89,0.11,0.1,0.0,102.74,101.92,94.15,92.28,174.7,27.6,1.1536463929644993,27.007628307125067,118.11336115258791,-36.01017107616677,-57.616273608062585,1,1
201,10.0,366.7,44.05364595547627,-78.67971386820469,303.5,242.0,18.6,-64.7,5474.8,5475.0,121.1,0.0,1.0,1.0,0.0,1.0,1.0,0.0,0.0,0.0,100.0,1.0,1.186,26.0,0.0,-0.096,50.194,66.0,36.4,26.0,26.0,26.0,26.0,-0.75,-0.89,0.25,383.1,-3.02,-2.87,-1.57,-0.65,-490.15,581.32,5.6,0.0,0.0,0.0,0.0,0.21,-7.49,-7.49,-1.4,5.2,1.11,-5.55,33.59,-0.35,-0.64,14.82,100.0,0.0,0.0,92.12,0.0,0.0,0.0,0.0,0.0,0.0,0.0,6175.0,0.0,30.0,3.0,121.1,1.0,0.0,0.0,0.0,0.0,0.0,0.0,0.0,10.034,10.034,50.194,17.865,1.0,110.0,435.8,8750.0,0.0,0.0,110.0,110.0,433.0,0.0,0.0,0.0,1.0,166.7,51.7,51.7,93.5,93.5,34.0,-135.2,-27.31,-33.2,-11.5,3.0,-194.365,15.7,100.0,34.9,29.3,20.2,10.6,0.0,1.0,0.0,0.0,0.0,0.0,0.0,8303.0,5485.0,2961.0,2079.0,303.8,309.4,348.1,349.8,25.13,23.05,26.07,24.77,325.0,325.0,355.0,355.0,100.0,99.9,100.0,100.0,-0.99,-0.77,-1.2,-0.97,-1.1,-1.3,-2.4,-3.4,83.1,70.1,82.7,74.6,83.5,75.2,82.3,76.5,80.3,71.9,80.6,74.2,77.7,70.3,79.6,73.2,0.92,-0.91,0.1,0.11,0.0,103.07,101.33,92.75,91.48,174.7,27.6,1.1904200939164291,25.207119753316732,117.0330560544443,-25.20711952570725,10.803051550459344,1,1
202,10.05,368.3,44.05364910310189,-78.67969893946602,90.6,7.2,192.8,143.8,5476.5,5476.0,119.5,0.0,1.0,1.0,0.0,1.0,1.0,0.0,0.0,0.0,100.0,1.0,1.186,26.0,0.0,-0.09,50.194,66.0,37.4,26.0,26.0,26.0,26.0,-0.9,-0.79,0.37,377.3,-1.27,-3.59,-0.24,-2.12,-488.49,581.67,5.6,0.0,0.0,0.0,0.0,0.21,-7.49,-7.49,-0.83,14.67,0.79,-4.63,33.17,-0.4,-0.47,15.28,100.0,0.0,0.0,92.91,0.0,0.0,0.0,0.0,0.0,0.0,0.0,6228.0,0.0,30.0,3.0,119.5,0.0,0.0,0.0,0.0,0.0,0.0,0.0,0.0,10.086,10.086,50.194,17.865,0.0,110.0,435.8,8750.0,0.0,0.0,110.0,110.0,433.0,0.0,0.0,0.0,1.0,333.3,55.8,55.8,77.8,77.8,34.0,-82.7,-12.22,-103.0,-28.7,3.0,-194.415,15.6,100.0,39.4,29.7,29.9,17.8,0.0,1.0,0.0,0.0,0.0,0.0,0.0,6325.0,3335.0,6235.0,3486.0,308.6,315.7,339.4,345.8,25.13,23.05,26.07,24.77,325.0,325.0,355.0,355.0,100.0,99.9,100.0,100.0,-0.94,-0.83,-1.41,-1.08,-1.2,-2.0,-1.0,-0.9,83.1,70.1,82.7,74.6,83.5,75.2,82.3,76.4,80.3,71.9,80.6,74.2,77.7,70.3,79.6,73.1,0.93,-0.89,0.07,0.09,0.0,101.46,99.36,93.55,92.26,174.7,27.6,1.2533953885346796,24.486916354554342,119.19366630763385,-32.40915379784301,-21.606103100918403,1,1
203,10.1,370.0,44.053652070863194,-78.67968410065953,-172.3,-195.0,414.2,281.0,5478.1,5478.0,118.1,0.0,1.0,1.0,0.0,1.0,1.0,0.0,0.0,0.0,100.0,1.0,1.186,26.0,0.0,-0.084,50.194,66.0,43.5,26.0,26.0,26.0,26.0,-0.86,-0.84,0.34,373.9,-2.38,-2.76,-1.0,-2.37,-486.84,582.0,5.6,0.0,0.0,0.0,0.0,0.22,-7.49,-7.49,-0.3,5.24,0.6,-0.93,32.77,-0.34,-0.31,10.35,100.0,0.0,0.0,91.49,0.0,0.0,0.0,0.0,0.0,0.0,0.0,6133.0,0.0,30.0,3.0,118.1,1.0,0.0,0.0,0.0,0.0,0.0,0.0,0.0,10.137,10.137,50.194,17.865,1.0,110.0,435.8,8750.0,0.0,0.0,110.0,110.0,433.0,0.0,0.0,0.0,1.0,333.3,67.8,67.8,59.0,59.0,34.0,-89.9,-5.03,-114.1,-32.9,3.0,-194.465,16.2,100.0,30.8,20.0,50.6,31.9,0.0,1.0,0.0,0.0,0.0,0.0,0.0,6316.0,1760.0,7040.0,4749.0,309.4,320.2,337.5,342.8,25.13,23.05,26.07,24.77,325.0,325.0,355.0,355.0,100.0,99.9,100.0,100.0,-1.09,-1.09,-1.13,-0.94,-1.8,-4.9,-1.0,-0.8,83.1,70.1,82.7,74.6,83.5,75.1,82.3,76.4,80.3,71.9,80.6,74.1,77.7,70.3,79.6,73.1,0.93,-0.95,0.04,0.07,0.0,99.57,94.82,91.89,91.09,174.7,27.6,1.2493198149393132,21.96620437353243,114.87244574435246,-39.611188354490565,-57.6162736080623,1,1
204,10.15,371.6,44.05365458896369,-78.6796702511068,-184.0,-150.7,-54.5,29.0,5479.7,5480.0,116.7,0.0,1.0,1.0,0.0,1.0,1.0,0.0,0.0,0.0,100.0,1.0,1.186,26.0,0.0,-0.075,50.194,66.0,54.6,26.0,26.0,26.0,26.0,-0.47,-0.86,-0.19,383.4,-3.67,-2.7,0.09,-2.15,-485.3,582.28,5.6,0.0,0.0,0.0,0.0,0.22,-7.49,-7.49,-0.35,-6.27,0.82,9.32,32.4,-0.26,-0.36,6.28,100.0,0.0,0.0,89.61,0.0,0.0,0.0,0.0,0.0,0.0,0.0,6007.0,0.0,30.0,3.0,116.7,0.0,0.0,0.0,0.0,0.0,0.0,0.0,0.0,10.186,10.186,50.194,17.865,0.0,110.0,435.8,8750.0,0.0,0.0,110.0,110.0,433.0,0.0,0.0,0.0,1.0,333.3,79.9,79.9,66.4,66.4,34.0,-29.0,-0.52,-37.1,-16.0,3.0,-194.515,17.9,100.0,21.6,12.4,47.9,33.3,0.0,1.0,0.0,0.0,0.0,0.0,0.0,3306.0,1761.0,3803.0,3325.0,316.7,320.4,345.2,346.7,25.13,23.05,26.07,24.77,325.0,325.0,355.0,355.0,100.0,99.9,100.0,100.0,-1.28,-1.32,-0.88,-0.78,-4.1,-8.9,-1.4,-1.3,83.0,70.1,82.7,74.6,83.5,75.1,82.3,76.4,80.2,71.8,80.6,74.1,77.7,70.2,79.6,73.1,1.02,-1.04,0.04,0.07,0.0,94.91,92.08,89.73,89.5,174.7,27.6,0.9982985525382675,20.525797519105286,113.43203894682762,-18.00508553808342,3.601017562835267,1,1
205,10.2,373.2,44.05365719699635,-78.67965577202894,-62.3,18.6,-275.0,-109.4,5481.3,5481.0,114.9,0.0,1.0,1.0,0.0,1.0,1.0,0.0,0.0,0.0,100.0,1.0,1.186,26.0,0.0,-0.066,50.194,66.0,65.0,26.0,26.0,26.0,26.0,-0.39,-1.01,-0.3,389.8,-3.58,-2.34,-1.74,-1.74,-483.69,582.57,5.6,0.0,0.0,0.0,0.0,0.22,-7.49,-7.49,-0.88,-12.91,1.13,5.36,31.89,-0.19,-0.54,5.26,100.0,0.0,0.0,87.29,0.0,0.0,0.0,0.0,0.0,0.0,0.0,5852.0,0.0,30.0,3.0,114.9,1.0,0.0,0.0,0.0,0.0,0.0,0.0,0.0,10.236,10.236,50.194,17.865,1.0,110.0,435.8,8750.0,0.0,0.0,110.0,110.0,433.0,0.0,0.0,0.0,1.0,333.3,78.9,78.9,83.0,83.0,34.0,-26.2,0.82,-13.3,-6.8,3.0,-194.565,20.7,100.0,18.5,13.3,34.1,27.9,0.0,1.0,0.0,0.0,0.0,0.0,0.0,4037.0,2419.0,1596.0,2113.0,315.3,318.9,350.2,348.9,25.13,23.05,26.07,24.77,325.0,325.0,355.0,355.0,100.0,99.9,100.0,100.0,-1.42,-1.35,-0.7,-0.6,-5.3,-11.8,-2.1,-1.7,83.0,70.1,82.7,74.6,83.5,75.2,82.2,76.3,80.2,71.9,80.5,74.1,77.7,70.3,79.6,73.1,1.18,-1.2,0.07,0.07,0.0,92.52,85.05,87.24,87.34,174.7,27.6,1.1234767465328332,20.16569581972409,115.23254750063599,-18.005085538083385,-32.40915408235466,1,1
206,10.25,374.7,44.053659625164684,-78.6796414728154,82.7,174.8,-379.2,-264.8,5482.9,5483.0,112.8,0.0,1.0,1.0,0.0,1.0,1.0,0.0,0.0,0.0,100.0,1.0,1.186,26.0,0.0,-0.057,50.194,66.0,78.1,26.0,26.0,26.0,26.0,-0.47,-1.3,-0.18,392.4,-1.78,-3.46,-1.51,-0.57,-482.1,582.84,5.6,0.0,0.0,0.0,0.0,0.22,-7.49,-7.49,-1.47,-8.26,1.18,-4.22,31.28,-0.21,-0.69,9.95,100.0,0.0,0.0,82.02,0.0,0.0,0.0,0.0,0.0,0.0,0.0,5498.0,0.0,30.0,3.0,112.8,0.0,0.0,0.0,0.0,0.0,0.0,0.0,0.0,10.287,10.287,50.194,17.865,0.0,110.0,435.8,8750.0,0.0,0.0,110.0,110.0,433.0,0.0,0.0,0.0,1.0,333.3,65.5,65.5,99.3,99.3,34.0,-63.9,-19.02,-3.7,-0.5,3.0,-194.615,22.5,100.0,22.6,22.1,15.2,14.6,0.0,1.0,0.0,0.0,0.0,0.0,0.0,6262.0,4896.0,1541.0,417.0,309.2,311.5,351.6,353.9,25.12,23.05,26.07,24.77,325.0,325.0,355.0,355.0,100.0,99.9,100.0,100.0,-1.32,-1.15,-0.84,-0.65,-3.9,-4.7,-6.3,-5.9,83.0,70.1,82.7,74.6,83.5,75.2,82.2,76.3,80.3,71.9,80.5,74.0,77.7,70.3,79.5,73.0,1.29,-1.3,0.12,0.11,0.0,93.07,90.98,82.78,81.26,174.7,27.6,1.3940229553346675,18.725288965296947,110.19112353859215,-28.8081370885428,-75.62135971516923,1,1
207,10.3,376.3,44.0536618734687,-78.6796282527878,252.3,66.4,-18.1,-159.2,5484.4,5484.0,110.5,1.0,1.0,1.0,0.0,1.0,1.0,0.0,0.0,0.0,100.0,1.0,1.186,26.0,0.0,-0.048,50.194,66.0,83.1,26.0,26.0,26.0,26.0,-0.59,-1.23,-0.08,389.5,-2.67,-3.24,-0.35,-1.47,-480.63,583.09,5.6,0.0,0.0,0.0,0.0,0.22,-7.49,-7.49,-1.62,2.6,0.98,-0.58,30.66,-0.27,-0.73,15.02,100.0,0.0,0.0,75.9,0.0,0.0,0.0,0.0,0.0,0.0,0.0,5088.0,0.0,30.0,3.0,110.5,1.0,0.0,0.0,0.0,0.0,0.0,0.0,0.0,10.334,10.334,50.194,17.865,1.0,110.0,435.8,8750.0,0.0,0.0,110.0,110.0,433.0,0.0,0.0,0.0,1.0,333.3,56.1,56.1,107.8,107.8,34.0,-113.6,-6.85,-10.9,0.1,3.0,-194.665,22.7,100.0,35.2,25.4,14.3,6.6,0.0,1.0,0.0,0.0,0.0,0.0,0.0,8181.0,3900.0,1522.0,527.0,303.9,314.2,351.1,353.5,25.12,23.05,26.07,24.77,325.0,325.0,355.0,355.0,100.0,99.9,100.0,100.0,-1.23,-1.08,-1.23,-0.98,-3.0,-6.6,-3.4,-19.3,83.0,70.1,82.7,74.6,83.6,75.2,82.2,76.3,80.3,71.9,80.5,74.0,77.8,70.3,79.5,73.0,1.33,-1.32,0.12,0.11,0.0,92.2,86.62,83.78,68.02,174.7,27.6,1.366528448295168,17.28488211086981,107.67041152911906,-25.207119810219076,-18.00508610710679,1,1
208,10.35,377.8,44.05366394190839,-78.6796145830994,-16.1,-36.5,114.2,166.3,5485.9,5486.0,107.9,0.0,1.0,1.0,0.0,1.0,1.0,0.0,0.0,0.0,100.0,1.0,1.186,26.0,0.0,-0.042,50.194,66.0,91.8,26.0,26.0,26.0,26.0,-0.62,-1.5,0.03,386.9,-1.73,-2.87,-0.33,-2.4,-479.11,583.32,5.6,0.0,0.0,0.0,0.0,0.22,-7.49,-7.49,-1.37,4.7,1.11,3.91,29.91,-0.44,-0.55,16.57,100.0,0.0,0.0,78.33,0.0,0.0,0.0,0.0,0.0,0.0,0.0,5251.0,0.0,30.0,3.0,107.9,0.0,0.0,0.0,0.0,0.0,0.0,1.0,0.0,10.386,10.386,50.194,17.865,0.0,110.0,435.8,8750.0,0.0,0.0,110.0,110.0,433.0,0.0,0.0,0.0,1.0,333.3,62.9,62.9,96.6,96.6,34.0,-46.9,-1.13,-26.7,0.2,3.0,-194.715,23.1,100.0,34.4,23.6,20.0,15.0,0.0,1.0,0.0,0.0,0.0,0.0,0.0,5582.0,2450.0,3457.0,1924.0,310.1,318.4,346.3,349.9,25.12,23.05,26.06,24.77,325.0,325.0,355.0,355.0,100.0,99.9,100.0,100.0,-1.42,-1.38,-1.8,-1.5,-4.8,-8.7,-4.8,-9.8,83.0,70.1,82.6,74.6,83.6,75.3,82.2,76.3,80.3,72.0,80.5,74.0,77.8,70.4,79.5,73.0,1.33,-1.34,0.1,0.1,0.0,87.76,80.5,81.44,75.22,174.7,27.6,1.623360711610331,16.20457698427504,108.39061492788147,-28.808136804031044,-50.414239051414285,1,1
209,10.4,379.2,44.05366592041592,-78.67960118320747,-161.2,9.6,197.3,105.0,5487.4,5487.0,104.9,0.0,1.0,1.0,0.0,1.0,1.0,0.0,0.0,0.0,100.0,1.0,1.186,26.0,0.0,-0.033,50.194,66.0,100.0,26.0,26.0,26.0,26.0,-0.71,-1.65,0.08,382.9,-1.43,-2.44,-1.4,-1.81,-477.62,583.54,5.6,0.0,0.0,0.0,0.0,0.22,-7.49,-7.49,-1.31,-1.31,1.25,-0.61,29.09,-0.49,-0.53,13.14,100.0,0.0,0.0,78.23,0.0,0.0,0.0,0.0,0.0,0.0,0.0,5244.0,0.0,30.0,3.0,104.9,1.0,0.0,0.0,0.0,0.0,0.0,1.0,0.0,10.437,10.437,50.194,17.865,1.0,110.0,435.8,8750.0,0.0,0.0,110.0,110.0,433.0,0.0,0.0,0.0,1.0,333.3,63.0,63.0,78.5,78.5,34.0,1.6,-30.27,-51.8,-7.7,3.0,-194.765,24.9,100.0,26.4,24.1,29.8,20.2,0.0,1.0,0.0,0.0,0.0,0.0,0.0,6340.0,4932.0,3822.0,2045.0,309.5,311.0,345.3,349.6,25.12,23.05,26.06,24.77,325.0,325.0,355.0,355.0,100.0,99.9,100.0,100.0,-1.8,-1.7,-1.73,-1.51,-9.5,-5.0,-2.8,-5.6,83.0,70.1,82.6,74.5,83.7,75.3,82.2,76.3,80.4,72.0,80.5,74.0,77.9,70.4,79.5,73.0,1.41,-1.43,0.08,0.09,0.0,86.48,82.94,79.61,76.85,174.7,27.6,1.7980545041794478,14.404068430466705,102.62898762397764,-36.010171076166735,-82.82339256474557,1,1
210,10.45,380.7,44.05366753919481,-78.67958895243362,138.6,78.9,-12.0,-61.9,5488.8,5489.0,102.1,0.0,1.0,1.0,0.0,1.0,1.0,0.0,0.0,0.0,100.0,1.0,1.186,26.0,0.0,-0.021,50.194,66.0,100.0,26.0,26.0,26.0,26.0,-0.87,-1.69,0.28,380.9,-3.38,-3.03,-0.22,-1.51,-476.26,583.72,5.6,0.0,0.0,0.0,0.0,0.22,-7.49,-7.49,-1.32,1.63,1.11,-4.24,28.29,-0.45,-0.63,15.15,100.0,0.0,0.0,74.59,0.0,0.0,0.0,0.0,0.0,0.0,0.0,5000.0,0.0,30.0,3.0,102.1,0.0,0.0,0.0,0.0,0.0,0.0,1.0,0.0,10.484,10.484,50.194,17.865,0.0,110.0,435.8,8750.0,0.0,0.0,110.0,110.0,433.0,0.0,0.0,0.0,1.0,333.3,53.8,53.8,85.1,85.1,34.0,-83.4,-12.71,-39.8,0.0,3.0,-194.815,27.6,100.0,33.3,28.0,29.2,17.1,0.0,1.0,0.0,0.0,0.0,0.0,0.0,8548.0,5296.0,3165.0,682.0,303.2,310.6,346.5,353.4,25.12,23.06,26.06,24.77,325.0,325.0,355.0,355.0,100.0,99.9,100.0,100.0,-1.8,-1.62,-1.66,-1.49,-5.0,-7.1,-2.6,-9.6,83.0,70.1,82.6,74.5,83.7,75.4,82.1,76.3,80.4,72.1,80.4,74.0,77.9,70.5,79.5,73.0,1.58,-1.58,0.08,0.08,0.0,84.02,78.99,78.43,70.74,174.7,27.6,1.9213016421166145,12.603559876658366,100.10827567140691,-28.80813680403106,-21.606103100919114,1,1
211,10.5,382.0,44.05366906804154,-78.67957618206681,-16.4,-71.5,-81.8,-33.0,5490.2,5490.0,99.2,1.0,1.0,1.0,0.0,1.0,1.0,0.0,0.0,0.0,100.0,1.0,1.186,26.0,0.0,-0.015,50.194,66.0,100.0,26.0,26.0,26.0,26.0,-0.56,-1.73,-0.13,385.4,-2.37,-2.54,-0.78,-1.56,-474.84,583.89,5.6,0.0,0.0,0.0,0.0,0.22,-7.49,-7.49,-1.12,4.15,0.95,-2.24,27.5,-0.52,-0.53,15.33,100.0,0.0,0.0,72.61,0.0,0.0,0.0,0.0,0.0,0.0,0.0,4867.0,0.0,30.0,3.0,99.2,1.0,0.0,0.0,0.0,0.0,0.0,1.0,0.0,10.536,10.536,50.194,17.865,1.0,110.0,435.8,8750.0,0.0,0.0,110.0,110.0,433.0,0.0,0.0,0.0,1.0,333.3,63.1,63.1,87.5,87.5,34.0,4.7,-0.55,-25.1,-2.4,3.0,-194.865,30.2,100.0,32.5,24.4,25.1,15.5,0.0,1.0,0.0,0.0,0.0,0.0,0.0,5543.0,3218.0,4126.0,2033.0,310.9,316.5,344.9,349.1,25.12,23.06,26.06,24.77,325.0,325.0,355.0,355.0,100.0,99.9,100.0,100.0,-1.99,-1.95,-1.88,-1.67,-10.1,-9.2,-5.7,-8.0,83.0,70.1,82.6,74.5,83.8,75.5,82.1,76.3,80.5,72.2,80.4,74.0,78.0,70.5,79.5,73.0,1.73,-1.74,0.09,0.11,0.0,76.13,79.49,74.77,70.45,174.7,27.6,1.823019473291495,11.523254750063598,100.46837731388572,-28.80813680403106,-54.01525718327406,1,1
212,10.55,383.4,44.05367041702395,-78.67956386136082,-119.7,-105.8,99.2,64.2,5491.5,5492.0,96.6,1.0,1.0,1.0,0.0,1.0,1.0,0.0,0.0,0.0,100.0,1.0,1.186,26.0,0.0,-0.006,50.194,66.0,100.0,26.0,26.0,26.0,26.0,-0.61,-1.52,-0.09,386.1,-1.9,-2.34,-1.65,-2.02,-473.47,584.04,5.6,0.0,0.0,0.0,0.0,0.22,-7.49,-7.49,-1.06,-2.46,0.92,0.92,26.78,-0.48,-0.48,10.43,100.0,0.0,0.0,71.33,0.0,0.0,0.0,0.0,0.0,0.0,0.0,4782.0,0.0,30.0,3.0,96.6,0.0,0.0,0.0,0.0,0.0,0.0,1.0,0.0,10.587,10.587,50.194,17.865,0.0,110.0,435.8,8750.0,0.0,0.0,110.0,110.0,433.0,0.0,0.0,0.0,1.0,333.3,69.9,69.9,80.5,80.5,34.0,6.5,1.2,-80.1,-1.6,3.0,-194.915,32.8,100.0,26.5,19.1,30.1,18.7,0.0,1.0,0.0,0.0,0.0,0.0,0.0,5472.0,2619.0,5244.0,2250.0,311.3,318.2,341.9,349.2,25.12,23.06,26.06,24.76,325.0,325.0,355.0,355.0,100.0,99.9,100.0,100.0,-2.37,-2.37,-1.76,-1.5,-10.7,-17.0,-2.7,-8.4,83.0,70.1,82.6,74.5,83.9,75.5,82.1,76.3,80.6,72.2,80.4,74.0,78.0,70.6,79.5,73.0,1.86,-1.9,0.08,0.1,0.0,78.61,70.52,74.0,68.66,174.7,27.6,1.6403048497154424,9.72274619625526,94.70674995307951,-32.4091540823548,-79.22237613995748,1,1
213,10.6,384.7,44.05367149620988,-78.67955252990858,57.5,51.6,-59.1,-51.4,5492.8,5493.0,94.0,0.0,1.0,1.0,0.0,1.0,1.0,0.0,0.0,0.0,100.0,1.0,1.186,26.0,0.0,-0.006,50.194,66.0,100.0,26.0,26.0,26.0,26.0,-0.59,-1.45,-0.02,386.5,-2.19,-2.45,-0.84,-1.42,-472.21,584.16,5.6,0.0,0.0,0.0,0.0,0.22,-7.49,-7.49,-1.24,-2.39,0.94,1.8,26.04,-0.4,-0.58,10.69,100.0,0.0,0.0,67.57,0.0,0.0,0.0,0.0,0.0,0.0,0.0,4530.0,0.0,30.0,3.0,94.0,1.0,0.0,0.0,0.0,0.0,0.0,1.0,0.0,10.634,10.634,50.194,17.865,1.0,110.0,435.8,8750.0,0.0,0.0,110.0,110.0,433.0,0.0,0.0,0.0,1.0,333.3,61.9,61.9,89.9,89.9,34.0,0.2,3.53,-28.4,0.1,3.0,-194.965,36.3,100.0,29.4,21.7,27.1,16.1,0.0,1.0,0.0,0.0,0.0,0.0,0.0,7284.0,4513.0,2684.0,476.0,306.5,313.0,348.4,354.1,25.12,23.06,26.06,24.76,325.0,325.0,355.0,355.0,100.0,99.9,100.0,100.0,-2.48,-2.34,-1.52,-1.42,-8.8,-11.2,-3.0,-11.5,83.0,70.1,82.6,74.5,83.9,75.6,82.1,76.2,80.6,72.2,80.4,74.0,78.1,70.6,79.4,72.9,2.06,-2.1,0.09,0.09,0.0,73.59,74.78,71.68,63.46,174.7,27.6,1.5655669899432603,8.282339341828118,92.54613969988998,-21.60610281640715,-18.005085538083136,1,1
214,10.65,385.9,44.05367248546364,-78.67954074879555,-19.4,-26.1,-148.7,-68.3,5494.1,5494.0,91.5,1.0,1.0,1.0,0.0,1.0,1.0,0.0,0.0,0.0,100.0,1.0,1.186,26.0,0.0,0.006,50.194,66.0,87.4,26.0,26.0,26.0,26.0,-0.42,-1.09,-0.42,392.9,-3.15,-2.42,-0.54,-1.19,-470.9,584.27,5.6,0.0,0.0,0.0,0.0,0.23,-7.49,-7.49,-1.26,0.83,1.14,6.05,25.37,-0.38,-0.5,11.65,100.0,0.0,0.0,64.08,0.0,0.0,0.0,0.0,0.0,0.0,0.0,4978.0,0.0,30.0,0.0,91.5,0.0,0.0,0.0,0.0,0.0,0.0,1.0,0.0,10.686,10.686,50.194,17.865,0.0,110.0,435.8,8750.0,0.0,0.0,110.0,110.0,433.0,0.0,0.0,0.0,1.0,333.3,68.9,68.9,100.6,100.6,34.0,-55.6,1.24,0.3,0.2,3.0,-195.015,40.1,100.0,28.4,20.4,19.7,12.7,0.0,1.0,50.0,0.0,0.0,0.0,0.0,5497.0,1763.0,1861.0,685.0,311.3,320.1,350.7,353.3,25.12,23.06,26.05,24.76,325.0,325.0,355.0,355.0,100.0,99.9,100.0,100.0,-2.64,-2.68,-1.61,-1.48,-4.1,-11.6,-9.5,-12.7,83.0,70.1,82.6,74.5,84.0,75.6,82.1,76.2,80.7,72.3,80.4,74.0,78.2,70.7,79.4,72.9,2.26,-2.33,0.1,0.11,0.0,74.67,70.61,64.98,63.17,174.7,27.6,1.241329931968129,7.562135914614545,92.9062413992712,-21.606102531895324,-43.212205063790634,1,1
215,10.7,387.2,44.05367338478525,-78.67952932741115,-111.6,-35.3,6.5,109.7,5495.3,5495.0,89.3,0.0,1.0,1.0,0.0,1.0,1.0,0.0,0.0,0.0,100.0,1.0,1.186,26.0,0.0,0.015,50.194,66.0,52.7,26.0,26.0,26.0,26.0,-0.9,-0.93,-0.12,390.9,-2.03,-2.62,-1.08,-1.17,-469.63,584.37,5.5,0.0,0.0,0.0,0.0,0.23,-7.49,-7.49,-1.3,-2.07,1.22,-3.76,24.77,-0.32,-0.41,12.77,100.0,0.0,0.0,68.3,0.0,0.0,0.0,0.0,0.0,0.0,0.0,6075.0,0.0,30.0,0.0,89.3,1.0,0.0,0.0,0.0,0.0,0.0,1.0,0.0,10.737,10.737,50.194,17.865,1.0,110.0,435.8,8750.0,0.0,0.0,110.0,110.0,433.0,0.0,0.0,0.0,1.0,333.3,73.0,73.0,90.4,90.4,34.0,-53.9,1.53,-69.3,-14.1,3.0,-195.065,45.4,100.0,22.8,18.7,20.0,18.2,0.0,1.0,27.3,0.0,0.0,0.0,0.0,4620.0,2308.0,4409.0,1882.0,313.1,318.6,344.3,350.6,25.12,23.06,26.05,24.76,325.0,325.0,355.0,355.0,100.0,99.9,100.0,100.0,-2.63,-2.64,-1.59,-1.34,-3.4,-10.3,-1.5,-2.6,83.0,70.1,82.6,74.5,84.0,75.6,82.1,76.2,80.7,72.3,80.4,73.9,78.2,70.7,79.4,72.9,2.56,-2.63,0.1,0.09,0.0,73.38,67.27,69.41,67.2,174.7,27.6,1.2997307413460681,6.121729088638586,88.22491919351091,-32.40915379784296,-57.61627360806216,1,1
216,10.75,388.4,44.053674014310374,-78.6795187154162,14.9,-29.2,134.3,-48.2,5496.6,5497.0,87.9,0.0,1.0,1.0,0.0,1.0,1.0,0.0,0.0,0.0,100.0,1.0,1.186,26.0,0.0,0.024,50.194,66.0,29.5,26.0,26.0,26.0,26.0,-1.0,-0.8,-0.06,389.2,-3.06,-2.46,-0.54,-1.62,-468.45,584.44,5.5,0.0,0.0,0.0,0.0,0.23,-7.49,-7.49,-1.5,-4.06,0.97,-5.2,24.4,-0.19,-0.44,16.21,100.0,0.0,0.0,67.48,0.0,0.0,0.0,0.0,0.0,0.0,0.0,6176.0,0.0,30.0,0.0,87.9,0.0,0.0,0.0,0.0,0.0,0.0,1.0,0.0,10.784,10.784,50.194,17.865,0.0,110.0,435.8,8750.0,0.0,0.0,110.0,110.0,433.0,0.0,0.0,0.0,1.0,333.3,69.3,69.3,88.0,88.0,34.0,-112.1,-27.6,-48.1,-4.3,3.0,-195.115,50.2,100.0,23.6,17.2,26.8,15.8,0.0,1.0,0.0,0.0,0.0,0.0,0.0,6647.0,3624.0,3408.0,727.0,308.6,315.3,346.4,352.7,25.11,23.06,26.05,24.76,325.0,325.0,355.0,355.0,100.0,99.9,100.0,100.0,-2.52,-2.39,-1.36,-1.18,-1.7,-4.5,-0.9,-2.1,83.0,70.1,82.6,74.5,84.0,75.6,82.0,76.2,80.7,72.3,80.4,73.9,78.2,70.7,79.4,72.9,2.84,-2.93,0.09,0.1,0.0,74.36,72.75,68.52,66.45,174.7,27.6,1.2820296408429877,4.321220534830248,87.14461403846498,-36.010171076166756,3.6010164247883836,1,1
217,10.8,389.6,44.05367446397118,-78.67950756382828,145.0,28.9,-10.8,-79.2,5497.8,5498.0,86.9,0.0,1.0,1.0,0.0,1.0,1.0,0.0,0.0,0.0,100.0,1.0,1.186,26.0,0.0,0.024,50.194,66.0,28.2,26.0,26.0,26.0,26.0,-1.09,-0.46,0.08,387.2,-3.11,-3.27,-0.6,-2.13,-467.21,584.49,5.5,0.0,0.0,0.0,0.0,0.23,-7.49,-7.49,-1.53,2.67,0.77,-2.05,24.13,-0.12,-0.45,23.97,100.0,0.0,0.0,67.41,0.0,0.0,0.0,0.0,0.0,0.0,0.0,5793.0,0.0,30.0,2.0,86.9,1.0,0.0,0.0,0.0,0.0,0.0,1.0,0.0,10.836,10.836,50.194,17.865,1.0,110.0,435.8,8750.0,0.0,0.0,110.0,110.0,433.0,0.0,0.0,0.0,1.0,333.3,65.4,65.4,90.5,90.5,34.0,-132.9,-27.99,-75.9,-10.6,3.0,-195.165,53.5,100.0,30.8,18.6,26.2,11.8,0.0,1.0,0.0,0.0,0.0,0.0,0.0,7019.0,2776.0,4617.0,1253.0,307.0,317.4,343.9,351.7,25.11,23.06,26.05,24.76,325.0,325.0,355.0,355.0,100.0,99.9,100.0,100.0,-2.03,-1.95,-1.62,-1.45,-1.3,-2.2,-0.8,0.3,83.0,70.1,82.6,74.5,84.1,75.6,82.0,76.1,80.8,72.3,80.3,73.9,78.2,70.7,79.4,72.8,3.03,-3.13,0.1,0.11,0.0,74.37,71.64,68.37,66.44,174.7,27.6,1.1857908753233009,2.52071198102191,88.58502083598975,-39.61118806997869,-25.20712009473101,1,1
218,10.85,390.8,44.0536746438355,-78.6794965921047,35.9,-9.7,17.1,4.1,5499.0,5499.0,85.9,0.0,1.0,1.0,0.0,1.0,1.0,0.0,0.0,0.0,100.0,1.0,1.186,26.0,0.0,0.036,50.194,66.0,28.2,26.0,26.0,26.0,26.0,-1.13,-0.72,-0.01,386.6,-3.6,-2.59,-1.06,-1.71,-465.99,584.51,5.5,0.0,0.0,0.0,0.0,0.23,-7.49,-7.49,-1.29,7.04,0.79,3.25,23.83,-0.15,-0.35,28.33,100.0,0.0,0.0,66.26,0.0,0.0,0.0,0.0,0.0,0.0,0.0,5694.0,0.0,30.0,2.0,85.9,0.0,0.0,0.0,0.0,0.0,0.0,0.0,0.0,10.887,10.887,50.194,17.865,0.0,110.0,435.8,8750.0,0.0,0.0,110.0,110.0,433.0,0.0,0.0,0.0,1.0,333.3,65.9,65.9,89.9,89.9,34.0,-123.4,-21.32,-80.3,-23.6,3.0,-195.215,57.1,100.0,32.6,18.2,27.1,12.0,0.0,1.0,0.0,0.0,0.0,0.0,0.0,6774.0,2456.0,4670.0,2279.0,308.1,318.6,343.5,349.7,25.11,23.06,26.05,24.76,325.0,325.0,355.0,355.0,100.0,99.9,100.0,100.0,-2.05,-2.0,-2.06,-1.9,-1.4,-3.1,-1.4,-2.1,83.0,70.1,82.5,74.5,84.1,75.6,82.0,76.1,80.8,72.3,80.3,73.8,78.2,70.7,79.3,72.8,3.22,-3.35,0.09,0.11,0.0,73.66,70.19,67.57,64.94,174.7,27.6,1.3399253710561643,0.3601017278323786,84.62390202899188,-10.803051550459507,-50.41423905141457,1,1
219,10.9,392.0,44.05367455390334,-78.67948642977055,-57.0,-9.5,147.6,148.8,5500.1,5500.0,84.8,0.0,1.0,1.0,0.0,1.0,1.0,0.0,0.0,0.0,100.0,1.0,1.186,26.0,0.0,0.045,50.194,66.0,28.2,26.0,26.0,26.0,26.0,-1.01,-0.58,-0.02,385.3,-1.46,-2.29,-1.56,-2.12,-464.86,584.5,5.5,0.0,0.0,0.0,0.0,0.23,-7.49,-7.49,-0.99,5.14,0.81,0.42,23.53,-0.15,-0.28,27.83,100.0,0.0,0.0,65.54,0.0,0.0,0.0,0.0,0.0,0.0,0.0,5633.0,0.0,30.0,2.0,84.8,1.0,0.0,0.0,0.0,0.0,0.0,0.0,0.0,10.936,10.936,50.194,17.865,1.0,110.0,435.8,8750.0,0.0,0.0,110.0,110.0,433.0,0.0,0.0,0.0,1.0,333.3,71.4,71.4,79.2,79.2,34.0,-74.1,-12.87,-90.2,-24.2,3.0,-195.265,62.0,100.0,29.8,17.7,34.4,19.5,0.0,1.0,0.0,0.0,0.0,0.0,0.0,4591.0,1692.0,5037.0,2168.0,313.2,320.6,342.9,349.5,25.11,23.06,26.05,24.76,325.0,325.0,355.0,355.0,100.0,99.9,100.0,100.0,-2.17,-2.21,-2.04,-1.89,-1.6,-3.6,-1.2,-1.3,82.9,70.1,82.5,74.5,84.1,75.6,82.0,76.1,80.8,72.3,80.3,73.8,78.2,70.6,79.3,72.8,3.5,-3.62,0.08,0.1,0.0,72.26,68.44,66.66,64.43,174.7,27.6,1.1648605066702193,1.440406825975959,83.5435969308483,32.409153797842976,7.20203455664759,1,1
220,10.95,393.1,44.05367428410686,-78.67947572784344,-52.5,-12.6,105.9,24.2,5501.3,5501.0,83.6,0.0,1.0,1.0,0.0,1.0,1.0,0.0,0.0,0.0,100.0,1.0,1.186,26.0,0.0,0.051,50.194,66.0,29.5,26.0,26.0,26.0,26.0,-1.17,-0.54,0.11,383.6,-2.13,-2.79,-1.07,-2.67,-463.67,584.47,5.5,0.0,0.0,0.0,0.0,0.23,-7.49,-7.49,-0.86,0.87,0.63,-4.13,23.21,-0.1,-0.28,26.57,100.0,0.0,0.0,64.68,0.0,0.0,0.0,0.0,0.0,0.0,0.0,5559.0,0.0,30.0,2.0,83.6,0.0,0.0,0.0,0.0,0.0,0.0,0.0,0.0,10.986,10.986,50.194,17.865,0.0,110.0,435.8,8750.0,0.0,0.0,110.0,110.0,433.0,0.0,0.0,0.0,1.0,333.3,73.9,73.9,69.5,69.5,34.0,-77.6,-3.56,-143.6,-20.5,3.0,-195.315,68.6,100.0,27.1,17.1,39.7,20.7,0.0,1.0,0.0,0.0,0.0,0.0,0.0,4806.0,619.0,7083.0,2030.0,312.7,322.9,337.3,349.6,25.11,23.06,26.04,24.76,325.0,325.0,355.0,355.0,100.0,99.9,100.0,100.0,-2.41,-2.55,-1.88,-1.72,-1.7,-4.2,-0.8,-1.1,82.9,70.1,82.5,74.5,84.1,75.6,82.0,76.0,80.8,72.2,80.3,73.8,78.2,70.6,79.3,72.8,3.86,-4.0,0.06,0.07,0.0,71.13,66.0,65.86,63.51,174.7,27.6,1.293290377293514,3.6010171076166766,85.34410548465664,39.61118863900239,-18.00508553808328,1,1
221,11.0,394.3,44.053673654581736,-78.67946511584849,-91.6,-111.0,37.9,-19.6,5502.4,5502.0,82.6,0.0,1.0,1.0,0.0,1.0,1.0,0.0,0.0,0.0,100.0,1.0,1.186,26.0,0.0,0.051,50.194,66.0,29.5,26.0,26.0,26.0,26.0,-1.14,-0.61,-0.02,386.2,-2.05,-1.04,-1.04,-2.17,-462.49,584.4,5.5,0.0,0.0,0.0,0.0,0.23,-7.49,-7.49,-1.05,-6.55,0.67,4.62,22.93,-0.09,-0.29,23.37,100.0,0.0,0.0,63.56,0.0,0.0,0.0,0.0,0.0,0.0,0.0,5462.0,0.0,30.0,2.0,82.6,1.0,0.0,0.0,0.0,0.0,0.0,0.0,0.0,11.037,11.037,50.194,17.865,1.0,110.0,435.8,8750.0,0.0,0.0,110.0,110.0,433.0,0.0,0.0,0.0,1.0,333.3,75.8,75.8,77.3,77.3,34.0,-110.6,0.44,-82.9,-18.6,3.0,-195.37,74.7,100.0,22.6,11.5,41.6,19.7,0.0,1.0,0.0,0.0,0.0,0.0,0.0,7380.0,716.0,4665.0,1881.0,306.9,323.1,342.9,350.1,25.11,23.06,26.04,24.75,325.0,325.0,355.0,355.0,100.0,99.9,100.0,100.0,-3.2,-3.28,-1.75,-1.63,-1.7,-9.3,-1.0,-1.2,82.9,70.1,82.5,74.5,84.1,75.5,82.0,76.0,80.8,72.2,80.3,73.8,78.2,70.6,79.3,72.7,4.22,-4.41,0.05,0.09,0.0,70.31,62.04,64.52,62.59,174.7,27.6,1.2930970574554719,5.401525689876198,81.74308837703997,36.010171076166756,-50.414239620438224,1,1
222,11.05,395.4,44.053672935124446,-78.67945531324298,234.5,205.8,-173.9,4.8,5503.6,5504.0,81.4,0.0,1.0,1.0,0.0,1.0,1.0,0.0,0.0,0.0,100.0,1.0,1.186,26.0,0.0,0.057,50.194,66.0,29.5,26.0,26.0,26.0,26.0,-1.41,-0.65,0.41,380.6,-2.63,-3.35,-1.23,-2.27,-461.4,584.32,5.5,0.0,0.0,0.0,0.0,0.23,-7.49,-7.49,-1.3,-2.24,0.91,0.54,22.59,0.01,-0.46,31.09,100.0,0.0,0.0,62.75,0.0,0.0,0.0,0.0,0.0,0.0,0.0,5393.0,0.0,30.0,2.0,81.4,0.0,0.0,0.0,0.0,0.0,0.0,0.0,0.0,11.084,11.084,50.194,17.865,0.0,110.0,435.8,8750.0,0.0,0.0,110.0,110.0,433.0,0.0,0.0,0.0,1.0,333.3,60.0,60.0,86.5,86.5,34.0,-133.2,-40.75,-56.4,-34.3,3.0,-195.415,79.8,100.0,34.3,21.8,32.9,19.9,0.0,1.0,0.0,0.0,0.0,0.0,0.0,7697.0,3412.0,3450.0,2865.0,305.4,315.6,345.9,347.5,25.11,23.06,26.04,24.75,325.0,325.0,355.0,355.0,100.0,99.9,100.0,100.0,-2.84,-2.73,-1.92,-1.79,-1.5,-2.2,-1.3,-1.0,82.9,70.1,82.5,74.5,84.1,75.5,82.0,76.0,80.8,72.2,80.3,73.7,78.2,70.6,79.3,72.7,4.49,-4.67,0.08,0.09,0.0,69.67,66.3,63.7,61.8,174.7,27.6,1.6058331171077522,7.202034215233352,80.30268152261282,43.21220477927877,-3.6010169938120384,1,1
223,11.1,396.5,44.053671855938525,-78.67944506097668,26.0,83.5,-134.9,-151.4,5504.7,5505.0,80.3,0.0,1.0,1.0,0.0,1.0,1.0,0.0,0.0,0.0,100.0,1.0,1.186,26.0,0.0,0.06,50.194,66.0,26.8,26.0,26.0,26.0,26.0,-0.99,-0.51,-0.11,386.5,-2.61,-3.36,-1.04,-1.82,-460.26,584.2,5.5,0.0,0.0,0.0,0.0,0.23,-7.49,-7.49,-1.19,7.98,0.51,-9.68,22.27,-0.12,-0.48,40.84,100.0,0.0,0.0,61.12,0.0,0.0,0.0,0.0,0.0,0.0,0.0,5253.0,0.0,30.0,2.0,80.3,1.0,0.0,0.0,0.0,0.0,0.0,0.0,0.0,11.136,11.136,50.194,17.865,1.0,110.0,435.8,8750.0,0.0,0.0,110.0,110.0,433.0,0.0,0.0,0.0,1.0,333.3,60.4,60.4,93.6,93.6,34.0,-133.6,-19.02,-45.0,-0.2,3.0,-195.465,81.2,100.0,35.6,26.0,26.2,12.4,0.0,1.0,0.0,0.0,0.0,0.0,0.0,7161.0,2008.0,3058.0,67.0,306.8,319.4,347.5,354.8,25.11,23.06,26.04,24.75,325.0,325.0,355.0,355.0,100.0,99.9,100.0,100.0,-2.29,-2.31,-2.46,-2.5,-1.3,-2.6,-1.6,-4.2,82.9,70.1,82.5,74.5,84.1,75.5,81.9,75.9,80.8,72.2,80.2,73.7,78.3,70.6,79.3,72.7,4.6,-4.8,0.08,0.11,0.0,69.73,64.65,63.88,58.35,174.7,27.6,1.1190621073023606,9.722746167804075,81.38298667765876,46.813222626626235,-3.6010169938118963,1,1
224,11.15,397.6,44.05367050695612,-78.67943498857468,-95.7,-184.2,272.0,-106.7,5505.8,5506.0,79.4,0.0,1.0,1.0,0.0,1.0,1.0,0.0,0.0,0.0,100.0,1.0,1.186,26.0,0.0,0.06,50.194,66.0,7.4,26.0,26.0,26.0,26.0,-1.32,-0.56,-0.01,386.2,-1.96,-2.5,-0.04,-1.86,-459.14,584.05,5.5,0.0,0.0,0.0,0.0,0.23,-7.49,-7.49,-0.7,9.31,0.37,6.43,22.04,-0.33,-0.24,41.03,100.0,0.0,0.0,60.03,0.0,0.0,0.0,0.0,0.0,0.0,0.0,5159.0,0.0,30.0,2.0,79.4,0.0,0.0,0.0,0.0,0.0,0.0,0.0,0.0,11.187,11.187,50.194,17.865,0.0,110.0,435.8,8750.0,0.0,0.0,110.0,110.0,433.0,0.0,0.0,0.0,1.0,333.3,72.8,72.8,71.2,71.2,34.0,-72.8,-7.34,-109.7,-14.4,3.0,-195.515,79.6,100.0,30.8,16.8,39.8,7.0,0.0,1.0,0.0,0.0,0.0,0.0,0.0,4481.0,883.0,6872.0,2618.0,313.4,322.6,337.9,348.4,25.11,23.06,26.04,24.75,325.0,325.0,355.0,355.0,100.0,99.9,100.0,100.0,-2.81,-2.94,-3.44,-2.51,-0.5,-2.3,-1.4,-5.4,82.9,70.1,82.5,74.4,84.1,75.5,82.0,75.9,80.8,72.2,80.3,73.6,78.3,70.6,79.3,72.6,4.53,-4.74,0.06,0.11,0.0,69.45,64.93,62.25,57.81,174.7,27.6,1.4339107364128356,11.883356477895976,79.94257982323163,39.61118863900241,-46.81322262662604,1,1
225,11.2,398.7,44.05366888817722,-78.67942509603702,-210.3,-147.8,82.9,347.2,5506.9,5507.0,78.8,0.0,1.0,1.0,0.0,1.0,1.0,0.0,0.0,0.0,100.0,1.0,1.186,26.0,0.0,0.06,50.194,66.0,0.0,26.0,26.0,26.0,26.0,-1.32,-0.14,-0.08,386.3,-1.99,-2.31,-0.98,-2.73,-458.04,583.87,5.5,0.0,0.0,0.0,0.0,0.23,-7.49,-7.49,-0.52,-0.97,0.6,1.31,21.89,-0.37,-0.13,31.74,100.0,0.0,0.0,61.3,0.0,0.0,0.0,0.0,0.0,0.0,0.0,5268.0,0.0,30.0,2.0,78.8,1.0,0.0,0.0,0.0,0.0,0.0,0.0,0.0,11.238,11.238,50.194,17.865,1.0,110.0,435.8,8750.0,0.0,0.0,110.0,110.0,433.0,0.0,0.0,0.0,1.0,166.7,84.6,84.6,67.8,67.8,34.0,-35.4,-0.64,-98.5,-74.1,3.0,-195.565,78.1,100.0,20.3,9.4,43.9,24.4,0.0,1.0,0.0,0.0,0.0,0.0,0.0,2868.0,122.0,5765.0,4647.0,317.4,324.6,340.7,343.1,25.1,23.06,26.04,24.75,325.0,325.0,355.0,355.0,100.0,99.9,100.0,100.0,-3.41,-3.6,-3.13,-3.03,0.0,-0.4,-0.5,-0.1,82.9,70.1,82.5,74.4,84.1,75.5,82.0,75.9,80.8,72.1,80.3,73.6,78.3,70.5,79.3,72.6,4.46,-4.67,0.05,0.08,0.0,68.54,65.47,62.63,59.97,174.7,27.6,1.3298120167903433,13.683865031704316,76.70166441499616,39.61118778546685,-39.61118806997874,1,1
170,8.45,318.7,44.05351744241879,-78.68012054143487,-75.4,-73.9,255.7,180.5,7148.8,7149.0,153.2,0.0,1.0,1.0,0.0,1.0,1.0,0.0,0.0,0.0,100.0,1.0,1.186,26.0,0.0,-0.318,48.272,66.0,0.0,26.0,26.0,26.0,26.0,-0.48,0.39,0.28,371.1,-1.75,-3.06,-1.07,-2.98,-535.37,567.03,5.5,0.0,0.0,0.0,0.0,0.19,-7.49,-7.49,-0.21,3.28,0.76,2.95,42.57,-0.27,-0.26,7.3,100.0,0.0,0.0,121.33,0.0,0.0,0.0,0.0,0.0,0.0,0.0,8133.0,0.0,30.0,3.0,153.2,1.0,0.0,0.0,0.0,0.0,0.0,1.0,0.0,8.463,8.463,48.272,17.725,1.0,110.0,435.8,8750.0,0.0,0.0,110.0,110.0,433.0,0.0,0.0,0.0,1.0,333.3,69.5,69.5,52.6,52.6,34.0,-38.2,-4.94,-79.8,-9.4,4.0,-241.065,5.5,100.0,28.0,20.8,51.6,41.3,0.0,1.0,86.7,0.0,0.0,0.0,0.0,4122.0,3193.0,6973.0,6303.0,314.2,316.4,338.2,338.2,25.35,22.85,26.47,24.82,325.0,325.0,355.0,355.0,99.98,100.0,99.98,100.0,-0.52,-0.49,-0.67,-0.58,-0.0,-0.1,1.1,1.7,84.5,68.8,85.2,74.9,85.5,74.8,86.0,78.2,82.4,71.5,84.4,75.9,79.8,70.0,83.4,74.9,0.35,-0.35,0.02,0.03,0.0,130.99,130.31,121.33,121.33,174.7,27.6,0.6788961628997472,50.77434123446583,142.9603792065234,3.6010169938120384,57.616273608061874,1,1
171,8.5,320.8,44.05352391753435,-78.68010210534196,-71.6,41.4,-51.0,-21.7,7150.9,7151.0,153.8,0.0,1.0,1.0,0.0,1.0,1.0,0.0,0.0,0.0,100.0,1.0,1.186,26.0,0.0,-0.321,48.272,66.0,0.0,26.0,26.0,26.0,26.0,-0.38,0.37,0.12,375.0,-2.11,-2.48,-1.25,-2.22,-533.32,567.75,5.5,0.0,0.0,0.0,0.0,0.19,-7.49,-7.49,-0.12,1.65,0.72,-2.82,42.74,-0.28,-0.3,5.14,100.0,0.0,0.0,122.26,0.0,0.0,0.0,0.0,0.0,0.0,0.0,8196.0,0.0,30.0,3.0,153.8,0.0,0.0,0.0,0.0,0.0,0.0,1.0,0.0,8.514,8.514,48.272,17.725,0.0,110.0,435.8,8750.0,0.0,0.0,110.0,110.0,433.0,0.0,0.0,0.0,1.0,166.7,71.2,71.2,52.9,52.9,34.0,-28.5,-3.64,-60.5,-6.6,4.0,-241.115,3.5,100.0,24.4,22.8,49.0,40.2,0.0,1.0,87.9,0.0,0.0,0.0,0.0,3461.0,2768.0,6148.0,4346.0,316.0,316.3,339.8,343.9,25.35,22.85,26.47,24.82,325.0,325.0,355.0,355.0,99.98,100.0,99.98,100.0,-0.41,-0.39,-0.57,-0.48,-0.1,-0.1,1.6,1.9,84.4,68.8,85.2,74.9,85.5,74.7,86.0,78.2,82.4,71.5,84.4,75.9,79.8,70.0,83.4,74.9,0.22,-0.2,0.05,0.05,0.0,131.31,130.87,122.26,122.26,174.7,27.6,0.543783044972901,51.85464636106061,148.00180316856725,-7.20203427213562,18.005085538083563,1,1
