Time,Distance,GPS Latitude,GPS Longitude,Damper Velocity (Calc) FL,Damper Velocity (Calc) FR,Damper Velocity (Calc) RL,Damper Velocity (Calc) RR,Corr Dist,Corr Dist (Unstretched),Corr Speed,ABS Active,ABS Enabled,AID Allow Tire Blankets,AID Auto Blip,AID Auto Clutch,AID Auto Shift,AID Fuel Rate,AID Ideal Line,AID Mech Damage,AID Stability,AID Tire Wear Rate,Air Density,Air Temp,Ballast,Best Lap Delta,Best Lap Time,Brake Bias,Brake Pos,Brake Temp FL,Brake Temp FR,Brake Temp RL,Brake Temp RR,CG Accel Lateral,CG Accel Longitudinal,CG Accel Vertical,CG Height,Camber FL,Camber FR,Camber RL,Camber RR,Car Coord X,Car Coord Y,Car Coord Z,Car Damage Front,Car Damage Left,Car Damage Rear,Car Damage Right,Car Pos Norm,Caster FL,Caster FR,Chassis Pitch Angle,Chassis Pitch Rate,Chassis Roll Angle,Chassis Roll Rate,Chassis Velocity X,Chassis Velocity Y,Chassis Velocity Z,Chassis Yaw Rate,Clutch Pos,DRS Active,DRS Available,Drive Train Speed,ERS Heat Charging,ERS Is Charging,ERS Max Energy,ERS Power Level,ERS Recovery Level,Engine Brake Setting,Engine Limiter,Engine RPM,Flags,Fuel Level,Gear,Ground Speed,HR Sample Clock,In Pit,KERS Charge,KERS Deployed Energy,KERS Input,KERS Max Energy,LR Sample Clock,Lap Invalidated,Lap Time,Lap Time2,Last Lap Time,Last Sector Time,MR Sample Clock,Max Fuel,Max Power,Max RPM,Max Sus Travel FL,Max Sus Travel FR,Max Sus Travel RL,Max Sus Travel RR,Max Torque,Max Turbo Boost,Num Tires Off Track,Penalties Enabled,Position,Raw Data Sample Rate,Ride Height FL,Ride Height FR,Ride Height RL,Ride Height RR,Road Temp,Self Align Torque FL,Self Align Torque FR,Self Align Torque RL,Self Align Torque RR,Session Lap Count,Session Time Left,Steering Angle,Surface Grip,Suspension Travel FL,Suspension Travel FR,Suspension Travel RL,Suspension Travel RR,TC Active,TC Enabled,Throttle Pos,Tire Dirt Level FL,Tire Dirt Level FR,Tire Dirt Level RL,Tire Dirt Level RR,Tire Load FL,Tire Load FR,Tire Load RL,Tire Load RR,Tire Loaded Radius FL,Tire Loaded Radius FR,Tire Loaded Radius RL,Tire Loaded Radius RR,Tire Pressure FL,Tire Pressure FR,Tire Pressure RL,Tire Pressure RR,Tire Radius FL,Tire Radius FR,Tire Radius RL,Tire Radius RR,Tire Rubber Grip FL,Tire Rubber Grip FR,Tire Rubber Grip RL,Tire Rubber Grip RR,Tire Slip Angle FL,Tire Slip Angle FR,Tire Slip Angle RL,Tire Slip Angle RR,Tire Slip Ratio FL,Tire Slip Ratio FR,Tire Slip Ratio RL,Tire Slip Ratio RR,Tire Temp Core FL,Tire Temp Core FR,Tire Temp Core RL,Tire Temp Core RR,Tire Temp Inner FL,Tire Temp Inner FR,Tire Temp Inner RL,Tire Temp Inner RR,Tire Temp Middle FL,Tire Temp Middle FR,Tire Temp Middle RL,Tire Temp Middle RR,Tire Temp Outer FL,Tire Temp Outer FR,Tire Temp Outer RL,Tire Temp Outer RR,Toe In FL,Toe In FR,Toe In RL,Toe In RR,Turbo Boost,Wheel Angular Speed FL,Wheel Angular Speed FR,Wheel Angular Speed RL,Wheel Angular Speed RR,Wind Direction,Wind Speed,CG Distance,Lateral Velocity,Longitudinal Velocity,Lateral Acceleration,Longitudinal Acceleration
s,m,deg,deg,mm/s,mm/s,mm/s,mm/s,m,m,km/h,,,,,,,,,%,%,,kg/m3,C,kg,s,s,%,%,C,C,C,C,G,G,G,mm,deg,deg,deg,deg,m,m,m,,,,,,deg,deg,deg,deg/s,deg,deg/s,m/s,m/s,m/s,deg/s,%,,,rad/s,,,MJ,,,,,rpm,,l,,km/h,,,%,kJ,%,MJ,,,s,s,s,s,,l,hp,rpm,mm,mm,mm,mm,N.m,,,,,Hz,mm,mm,mm,mm,C,N.m,N.m,N.m,N.m,,s,deg,%,mm,mm,mm,mm,,,%,,,,,N,N,N,N,mm,mm,mm,mm,psi,psi,psi,psi,mm,mm,mm,mm,%,%,%,%,deg,deg,deg,deg,%,%,%,%,C,C,C,C,C,C,C,C,C,C,C,C,C,C,C,C,deg,deg,deg,deg,,rad/s,rad/s,rad/s,rad/s,deg,km/h,G,Km/h,Km/h,Km/h^2,Km/h^2
0.000,0.0,44.054628464330740,-78.681971435232015,-36.6,51.1,89.5,0.9,5022.0,5022,170.2,0,1,1,0,1,1,0,0,0,100,1,1.186,26.0,0.0,-0.660,50.651,66.0,0.0,26.0,26.0,26.0,26.0,0.36,0.24,0.09,378.2,-3.23,-2.32,-1.82,-1.29,-741.18,690.57,5.7,0.00,0.00,0.00,0.00,0.00,-7.49,-7.49,-0.20,0.30,0.49,-4.39,47.28,0.25,-0.39,-4.10,100.0,0,0,135.42,0,0,0.0,0,0,0,0,7223,0,30.00,4,170.2,1,0,0.0,0.0,0.0,0.0,0,0,0.006,0.006,50.651,17.788,1,110.00,435.8,8750,0.0,0.0,110.0,110.0,433.0,0.00,0,0,1,333.3,71.7,71.7,59.0,59.0,34.0,0.15,45.7,2.8,52.6,3,-158.460,-3.3,100.0,16.5,27.4,40.9,42.2,0,1,100.0,0.00,0.00,0.00,0.00,2514,4826,2542,5971,318.9,310.9,348.8,339.8,25.34,22.74,26.49,24.85,325.0,325.0,355.0,355.0,100.00,99.81,100.00,99.94,0.38,0.43,0.40,0.50,-0.1,-0.0,1.9,1.6,84.4,68.1,85.3,75.0,92.6,69.5,94.0,79.6,89.1,66.5,92.5,77.3,86.4,65.1,91.5,76.1,-0.20,0.21,0.06,0.04,0.00,144.80,145.18,135.42,135.42,56.6,15.7,0.44192759587968705
0.050,2.4,44.054607420205159,-78.681966309098868,77.7,-98.3,-94.6,5.0,5024.3,5024,170.8,0,1,1,0,1,1,0,0,0,100,1,1.186,26.0,0.0,0.000,50.651,66.0,0.0,26.0,26.0,26.0,26.0,0.32,0.40,0.05,379.9,-2.74,-3.03,-2.02,-1.42,-740.61,688.23,5.7,0.00,0.00,0.00,0.00,0.00,-7.49,-7.49,-0.17,0.11,0.08,-6.19,47.47,0.23,-0.35,-2.58,100.0,0,0,135.39,0,0,0.0,0,0,0,0,7222,0,30.00,4,170.8,0,0,0.0,0.0,0.0,0.0,0,0,0.057,0.057,50.651,17.788,0,110.00,435.8,8750,0.0,0.0,110.0,110.0,433.0,0.00,0,0,1,166.7,76.0,76.0,66.8,66.8,34.0,0.62,12.9,3.1,58.4,3,-158.510,-1.5,100.0,20.4,22.4,36.2,42.5,0,1,100.0,0.00,0.00,0.00,0.00,2745,1838,4924,6238,318.4,319.8,342.4,338.8,25.34,22.74,26.49,24.85,325.0,325.0,355.0,355.0,100.00,99.81,100.00,99.94,0.34,0.31,0.36,0.49,-0.0,-0.0,1.7,1.5,84.4,68.1,85.3,75.1,92.5,69.5,94.0,79.6,89.0,66.5,92.4,77.3,86.4,65.1,91.4,76.1,-0.10,0.08,0.07,0.03,0.00,145.38,145.53,135.39,135.39,56.6,15.7,0.5146843692983109,169.24780411488612,41.05159503821057
0.100,4.8,44.054586196215261,-78.681961182965708,-147.6,-201.9,71.4,-49.2,5026.7,5027,171.5,0,1,1,0,1,1,0,0,0,100,1,1.186,26.0,0.0,-0.015,50.651,66.0,0.0,26.0,26.0,26.0,26.0,0.12,0.29,-0.16,386.1,-2.39,-2.11,-0.94,-2.20,-740.04,685.87,5.7,0.00,0.00,0.00,0.00,0.00,-7.49,-7.49,-0.40,-7.46,-0.05,2.66,47.64,0.20,-0.40,-0.44,100.0,0,0,135.96,0,0,0.0,0,0,0,0,7252,0,30.00,4,171.5,1,0,0.0,0.0,0.0,0.0,0,0,0.108,0.108,50.651,17.788,1,110.00,435.8,8750,0.0,0.0,110.0,110.0,433.0,0.00,0,0,1,333.3,86.6,86.6,66.1,66.1,34.0,0.02,7.2,2.5,24.0,3,-158.570,-1.7,100.0,13.0,12.3,39.8,40.0,0,1,100.0,0.00,0.00,0.00,0.00,2410,1409,5082,3290,318.7,321.6,341.8,345.9,25.35,22.74,26.50,24.85,325.0,325.0,355.0,355.0,100.00,99.81,100.00,99.94,0.28,0.31,0.18,0.30,-0.1,-0.0,1.7,1.6,84.4,68.1,85.3,75.1,92.4,69.4,93.9,79.6,88.9,66.5,92.4,77.3,86.3,65.0,91.4,76.1,-0.09,0.08,0.06,0.05,0.00,145.82,145.73,135.96,135.96,56.6,15.7,0.3522782990761707,164.92658358005585,40.33139163944818,-39.611188069978596,0.0
0.150,7.1,44.054566231275608,-78.681956236696877,66.3,252.6,-306.8,-206.0,5029.1,5029,171.9,0,1,1,0,1,1,0,0,0,100,1,1.186,26.0,0.0,-0.024,50.651,66.0,0.0,26.0,26.0,26.0,26.0,0.22,0.37,-0.13,386.0,-2.61,-2.38,-1.56,-1.52,-739.49,683.65,5.7,0.00,0.00,0.00,0.00,0.01,-7.49,-7.49,-0.65,-1.11,0.15,-0.26,47.77,0.15,-0.49,-2.11,100.0,0,0,137.98,0,0,0.0,0,0,0,0,7360,0,30.00,4,171.9,0,0,0.0,0.0,0.0,0.0,1,0,0.156,0.156,50.651,17.788,0,110.00,435.8,8750,0.0,0.0,110.0,110.0,433.0,0.00,0,0,1,333.3,70.6,70.6,73.5,73.5,34.0,-1.32,56.0,-3.1,14.7,3,-158.610,-3.9,100.0,16.3,25.0,24.4,29.7,0,1,100.0,0.00,0.00,0.00,0.00,2819,6017,3461,3019,317.9,308.4,346.6,346.9,25.35,22.74,26.50,24.85,325.0,325.0,355.0,355.0,100.00,99.81,100.00,99.94,0.27,0.39,0.14,0.31,-0.1,-0.1,3.0,2.8,84.4,68.1,85.4,75.1,92.3,69.4,93.9,79.5,88.9,66.5,92.3,77.2,86.2,65.0,91.3,76.1,-0.21,0.20,0.09,0.07,0.00,146.35,146.67,137.98,137.98,56.6,15.7,0.4496665431183423,165.28668530788826,41.05159503821057,61.21729088638631,25.207119525707355
0.200,9.5,44.054544917353546,-78.681950930699401,45.6,39.7,131.4,123.4,5031.5,5031,172.6,0,1,1,0,1,1,0,0,0,100,1,1.186,26.0,0.0,-0.033,50.651,66.0,0.0,26.0,26.0,26.0,26.0,0.32,0.36,0.14,379.4,-3.30,-2.02,-1.56,-1.59,-738.90,681.28,5.7,0.00,0.00,0.00,0.00,0.01,-7.49,-7.49,-0.51,3.31,-0.01,-6.16,47.97,0.14,-0.38,-3.29,100.0,0,0,136.69,0,0,0.0,0,0,0,0,7291,0,30.00,4,172.6,1,0,0.0,0.0,0.0,0.0,1,0,0.207,0.207,50.651,17.788,1,110.00,435.8,8750,0.0,0.0,110.0,110.0,433.0,0.00,0,0,1,166.7,71.2,71.2,66.5,66.5,34.0,2.21,38.3,-2.8,66.1,3,-158.660,-6.8,100.0,18.6,27.0,31.0,35.9,0,1,100.0,0.00,0.00,0.00,0.00,3115,4264,4723,7028,317.2,313.9,343.3,336.9,25.35,22.74,26.50,24.85,325.0,325.0,355.0,355.0,100.00,99.81,100.00,99.94,0.44,0.50,0.19,0.43,-0.1,-0.0,1.6,1.4,84.4,68.1,85.4,75.1,92.2,69.4,93.8,79.5,88.8,66.5,92.3,77.2,86.2,65.0,91.3,76.1,-0.38,0.37,0.08,0.05,0.00,147.10,147.23,136.69,136.69,56.6,15.7,0.5015974481593781,171.04831266869448,42.85210359201891,10.803050981435547,10.803050981435831
0.250,11.9,44.054523513499326,-78.681945534769767,76.3,-57.5,129.4,148.8,5033.9,5034,173.2,0,1,1,0,1,1,0,0,0,100,1,1.186,26.0,0.0,-0.048,50.651,66.0,0.0,26.0,26.0,26.0,26.0,0.32,0.35,-0.05,378.4,-3.62,-3.17,-1.16,-2.03,-738.30,678.90,5.7,0.00,0.00,0.00,0.00,0.01,-7.49,-7.49,-0.38,2.05,-0.33,-4.82,48.13,0.14,-0.34,-3.90,100.0,0,0,137.76,0,0,0.0,0,0,0,0,7348,0,30.00,4,173.2,0,0,0.0,0.0,0.0,0.0,1,0,0.258,0.258,50.651,17.788,0,110.00,435.8,8750,0.0,0.0,110.0,110.0,433.0,0.00,0,0,1,333.3,72.5,72.5,64.9,64.9,34.0,1.48,29.5,4.4,34.7,3,-158.720,-6.9,100.0,22.4,24.1,37.5,43.3,0,1,100.0,0.00,0.00,0.00,0.00,2812,3042,4635,4324,318.3,316.6,343.5,343.4,25.35,22.74,26.50,24.85,325.0,325.0,355.0,355.0,100.00,99.81,100.00,99.94,0.47,0.49,0.26,0.35,-0.0,-0.1,1.9,1.6,84.4,68.1,85.4,75.1,92.2,69.4,93.8,79.5,88.7,66.4,92.3,77.2,86.1,65.0,91.3,76.0,-0.39,0.39,0.06,0.04,0.00,147.38,147.73,137.76,137.76,56.6,15.7,0.47686476070265454,166.36699040603182,42.131900136354155,-43.212205348302746,-3.6010169938119674
0.300,14.4,44.054503368695357,-78.681940408636621,-28.4,-28.1,122.7,-14.0,5036.3,5036,173.8,0,1,1,0,1,1,0,0,0,100,1,1.186,26.0,0.0,-0.054,50.651,66.0,0.0,26.0,26.0,26.0,26.0,0.29,0.27,-0.02,376.6,-2.41,-2.32,-2.47,-1.69,-737.73,676.66,5.7,0.00,0.00,0.00,0.00,0.01,-7.49,-7.49,-0.36,-0.85,-0.34,2.86,48.29,0.17,-0.36,-4.40,100.0,0,0,137.99,0,0,0.0,0,0,0,0,7360,0,30.00,4,173.8,1,0,0.0,0.0,0.0,0.0,1,0,0.306,0.306,50.651,17.788,1,110.00,435.8,8750,0.0,0.0,110.0,110.0,433.0,0.00,0,0,1,166.7,72.3,72.3,58.9,58.9,34.0,4.80,38.2,-7.4,43.4,3,-158.760,-6.6,100.0,21.0,22.7,43.6,42.6,0,1,100.0,0.00,0.00,0.00,0.00,2842,4252,4435,5544,317.6,313.6,344.2,341.1,25.35,22.74,26.51,24.86,325.0,325.0,355.0,355.0,100.00,99.81,100.00,99.94,0.42,0.45,0.24,0.35,-0.0,-0.0,1.8,1.5,84.4,68.1,85.4,75.1,92.1,69.3,93.8,79.5,88.7,66.4,92.2,77.2,86.0,64.9,91.2,76.0,-0.38,0.38,0.06,0.04,0.00,147.80,148.18,137.99,137.99,56.6,15.7,0.39673668849754745,166.7270921338642,42.49200189263772,61.217291170898136,25.20712009473094
0.350,16.8,44.054481874908973,-78.681934922774815,-35.6,-41.1,-115.2,-6.4,5038.7,5039,174.4,0,1,1,0,1,1,0,0,0,100,1,1.186,26.0,0.0,-0.060,50.651,66.0,0.0,26.0,26.0,26.0,26.0,0.35,0.33,0.10,377.9,-2.37,-2.44,-1.82,-1.72,-737.12,674.27,5.7,0.00,0.00,0.00,0.00,0.01,-7.49,-7.49,-0.46,-2.65,-0.21,3.44,48.46,0.20,-0.39,-4.34,100.0,0,0,138.31,0,0,0.0,0,0,0,0,7378,0,30.00,4,174.4,0,0,0.0,0.0,0.0,0.0,1,0,0.357,0.357,50.651,17.788,0,110.00,435.8,8750,0.0,0.0,110.0,110.0,433.0,0.00,0,0,1,333.3,72.5,72.5,65.3,65.3,34.0,5.98,45.0,-0.4,51.9,3,-158.820,-6.3,100.0,19.2,20.6,37.8,42.3,0,1,100.0,0.00,0.00,0.00,0.00,3895,4590,4542,5966,315.5,312.9,344.1,339.4,25.35,22.74,26.51,24.86,325.0,325.0,355.0,355.0,100.00,99.81,100.00,99.94,0.40,0.51,0.27,0.40,-0.0,-0.1,1.8,1.6,84.5,68.1,85.4,75.1,92.0,69.3,93.7,79.5,88.6,66.4,92.2,77.2,86.0,64.9,91.2,76.0,-0.36,0.37,0.06,0.04,0.00,148.34,148.61,138.31,138.31,56.6,15.7,0.49132473986152986,172.48871952312163,44.65261214582725,10.803051265947659,18.00508553808335
0.400,19.2,44.054460291190431,-78.681929257048708,80.7,70.0,-109.9,-59.5,5041.2,5041,175.0,0,1,1,0,1,1,0,0,0,100,1,1.186,26.0,0.0,-0.078,50.651,66.0,0.0,26.0,26.0,26.0,26.0,0.29,0.43,-0.09,380.3,-2.29,-1.85,-1.12,-1.34,-736.49,671.87,5.7,0.00,0.00,0.00,0.00,0.01,-7.49,-7.49,-0.44,2.54,-0.08,3.59,48.62,0.26,-0.39,-5.20,100.0,0,0,139.00,0,0,0.0,0,0,0,0,7414,0,30.00,4,175.0,1,0,0.0,0.0,0.0,0.0,1,0,0.408,0.408,50.651,17.788,1,110.00,435.8,8750,0.0,0.0,110.0,110.0,433.0,0.00,0,0,1,333.3,72.7,72.7,70.7,70.7,34.0,6.99,15.0,9.7,42.4,3,-158.870,-6.2,100.0,23.3,24.1,32.3,39.3,0,1,100.0,0.00,0.00,0.00,0.00,2793,2117,5226,5142,317.2,319.3,341.9,342.3,25.35,22.74,26.51,24.86,325.0,325.0,355.0,355.0,100.00,99.81,100.00,99.94,0.47,0.45,0.33,0.49,-0.1,-0.1,2.1,1.7,84.5,68.1,85.4,75.1,92.0,69.3,93.7,79.5,88.6,66.4,92.1,77.2,85.9,64.9,91.1,76.0,-0.35,0.35,0.06,0.06,0.00,148.87,149.23,139.00,139.00,56.6,15.7,0.5264028875300742,167.80739726045897,44.29251044644605,3.601016993811754,18.00508553808335
0.450,21.7,44.054439966522139,-78.681923861119060,-91.6,-24.9,104.2,129.5,5043.6,5044,175.6,0,1,1,0,1,1,0,0,0,100,1,1.186,26.0,0.0,-0.084,50.651,66.0,0.0,26.0,26.0,26.0,26.0,0.39,0.30,0.13,377.9,-2.72,-2.45,-2.19,-2.44,-735.89,669.61,5.7,0.00,0.00,0.00,0.00,0.01,-7.49,-7.49,-0.45,-1.58,0.15,3.32,48.78,0.27,-0.43,-4.65,100.0,0,0,139.26,0,0,0.0,0,0,0,0,7429,0,30.00,4,175.6,0,0,0.0,0.0,0.0,0.0,1,0,0.456,0.456,50.651,17.788,0,110.00,435.8,8750,0.0,0.0,110.0,110.0,433.0,0.00,0,0,1,166.7,73.5,73.5,63.0,63.0,34.0,5.27,44.1,1.3,55.3,3,-158.910,-6.2,100.0,18.7,22.9,37.6,45.8,0,1,100.0,0.00,0.00,0.00,0.00,2522,4328,4272,5274,318.4,313.0,344.3,340.8,25.36,22.74,26.51,24.86,325.0,325.0,355.0,355.0,100.00,99.81,100.00,99.94,0.50,0.54,0.36,0.44,-0.0,-0.1,1.7,1.5,84.5,68.1,85.5,75.1,91.9,69.3,93.6,79.5,88.5,66.4,92.1,77.2,85.8,64.9,91.1,76.0,-0.35,0.36,0.06,0.03,0.00,149.29,149.68,139.26,139.26,56.6,15.7,0.5089204259999789,172.8488212225028,46.45312069963558,57.61627389257427,28.808136519519252
0.500,24.1,44.054417123753346,-78.681917655799992,-95.1,-142.8,-90.2,-96.9,5046.1,5046,176.2,0,1,1,0,1,1,0,0,0,100,1,1.186,26.0,0.0,-0.099,50.651,66.0,0.0,26.0,26.0,26.0,26.0,0.39,0.38,-0.22,383.7,-2.85,-1.79,-1.86,-1.39,-735.20,667.07,5.7,0.00,0.00,0.00,0.00,0.02,-7.49,-7.49,-0.56,-4.44,0.20,-0.53,48.96,0.33,-0.37,-4.14,100.0,0,0,139.59,0,0,0.0,0,0,0,0,7446,0,30.00,4,176.2,1,0,0.0,0.0,0.0,0.0,1,0,0.510,0.510,50.651,17.788,1,110.00,435.8,8750,0.0,0.0,110.0,110.0,433.0,0.00,0,0,1,166.7,81.5,81.5,68.4,68.4,34.0,4.42,37.3,7.1,56.1,3,-158.970,-5.5,100.0,13.9,15.7,33.0,41.0,0,1,100.0,0.00,0.00,0.00,0.00,2114,3928,4501,5639,320.4,314.9,343.7,340.2,25.36,22.74,26.52,24.86,325.0,325.0,355.0,355.0,100.00,99.81,100.00,99.94,0.55,0.61,0.42,0.57,-0.1,-0.1,1.8,1.5,84.5,68.1,85.5,75.1,91.8,69.2,93.6,79.5,88.4,66.3,92.0,77.2,85.8,64.9,91.0,76.0,-0.31,0.32,0.08,0.05,0.00,149.71,150.02,139.59,139.59,56.6,15.7,0.587281874401041,173.5690246497164,47.17332409839798,-90.02542769041668,-14.404067975247656
0.550,26.6,44.054396619220732,-78.681912080006029,-3.6,20.9,-55.3,-148.8,5048.5,5049,176.7,0,1,1,0,1,1,0,0,0,100,1,1.186,26.0,0.0,-0.105,50.651,66.0,0.0,26.0,26.0,26.0,26.0,0.26,0.24,-0.40,388.5,-2.69,-2.34,-2.62,-0.98,-734.58,664.79,5.7,0.00,0.00,0.00,0.00,0.02,-7.49,-7.49,-0.80,-4.39,0.09,-1.53,49.09,0.36,-0.44,-4.31,100.0,0,0,141.60,0,0,0.0,0,0,0,0,7553,0,30.00,4,176.7,0,0,0.0,0.0,0.0,0.0,1,0,0.558,0.558,50.651,17.788,0,110.00,435.8,8750,0.0,0.0,110.0,110.0,433.0,0.00,0,0,1,333.3,80.2,80.2,75.6,75.6,34.0,7.43,32.7,1.8,15.9,3,-159.020,-5.0,100.0,13.8,16.8,30.3,33.5,0,1,100.0,0.00,0.00,0.00,0.00,2742,3254,3302,2687,317.8,316.2,347.0,349.1,25.36,22.74,26.52,24.86,325.0,325.0,355.0,355.0,100.00,99.81,100.00,99.94,0.55,0.63,0.46,0.59,-0.1,-0.1,2.8,2.5,84.5,68.1,85.5,75.2,91.7,69.2,93.5,79.4,88.3,66.3,92.0,77.1,85.7,64.8,91.0,76.0,-0.29,0.29,0.09,0.07,0.00,150.14,150.46,141.60,141.60,56.6,15.7,0.5340411969127475,163.84627845346114,45.01271390211082,-46.8132223421145,-3.6010169938118963
0.600,29.0,44.054376204620276,-78.681906414279908,34.8,38.8,-49.3,-31.8,5051.0,5051,177.3,0,1,1,0,1,1,0,0,0,100,1,1.186,26.0,0.0,-0.120,50.651,66.0,0.0,26.0,26.0,26.0,26.0,0.33,0.33,-0.26,386.8,-2.04,-2.04,-2.52,-1.23,-733.95,662.52,5.7,0.00,0.00,0.00,0.00,0.02,-7.49,-7.49,-0.93,-1.68,0.08,-0.02,49.25,0.38,-0.43,-4.68,100.0,0,0,141.51,0,0,0.0,0,0,0,0,7548,0,30.00,4,177.3,1,0,0.0,0.0,0.0,0.0,1,0,0.606,0.606,50.651,17.788,1,110.00,435.8,8750,0.0,0.0,110.0,110.0,433.0,0.00,0,0,1,333.3,78.1,78.1,75.6,75.6,34.0,9.19,35.3,3.1,32.5,3,-159.060,-4.8,100.0,15.5,18.7,27.8,31.9,0,1,100.0,0.00,0.00,0.00,0.00,2565,3652,3943,3847,318.3,315.3,345.8,345.3,25.36,22.74,26.52,24.87,325.0,325.0,355.0,355.0,100.00,99.81,100.00,99.94,0.56,0.60,0.47,0.66,-0.0,-0.1,2.5,2.2,84.5,68.1,85.5,75.2,91.7,69.2,93.5,79.4,88.3,66.3,91.9,77.1,85.6,64.8,90.9,76.0,-0.27,0.27,0.09,0.08,0.00,150.71,151.05,141.51,141.51,56.6,15.7,0.5342284155677233,168.88770241550495,46.81322239901679,108.03051322849967,39.61118750095501
0.650,31.5,44.054354441037411,-78.681900388825156,-78.0,-37.0,23.9,65.9,5053.4,5053,177.9,0,1,1,0,1,1,0,0,0,100,1,1.186,26.0,0.0,-0.123,50.651,66.0,0.0,26.0,26.0,26.0,26.0,0.32,0.31,-0.35,388.1,-2.16,-2.46,-1.89,-1.20,-733.28,660.10,5.7,0.00,0.00,0.00,0.00,0.02,-7.49,-7.49,-1.06,-4.34,0.16,0.38,49.43,0.40,-0.41,-3.76,100.0,0,0,141.51,0,0,0.0,0,0,0,0,7548,0,30.00,4,177.9,0,0,0.0,0.0,0.0,0.0,0,0,0.657,0.657,50.651,17.788,0,110.00,435.8,8750,0.0,0.0,110.0,110.0,433.0,0.00,0,0,1,166.7,85.0,85.0,72.4,72.4,34.0,3.66,23.1,7.0,39.9,3,-159.110,-5.8,100.0,11.6,16.9,29.0,35.2,0,1,100.0,0.00,0.00,0.00,0.00,1114,2333,4090,4566,322.6,318.3,344.9,343.7,25.36,22.74,26.52,24.87,325.0,325.0,355.0,355.0,100.00,99.81,100.00,99.94,0.66,0.66,0.46,0.62,-0.1,-0.1,2.2,1.9,84.5,68.1,85.5,75.2,91.6,69.2,93.4,79.4,88.2,66.3,91.9,77.1,85.5,64.8,90.9,75.9,-0.31,0.33,0.09,0.04,0.00,151.04,151.48,141.51,141.51,56.6,15.7,0.5665686189686118,174.6493297763111,48.97383265220632,10.803050981435547,21.606103100919043
0.700,34.0,44.054332587522389,-78.681894183506074,257.2,151.4,-70.7,-17.8,5055.9,5056,178.4,0,1,1,0,1,1,0,0,0,100,1,1.186,26.0,0.0,-0.138,50.651,66.0,0.0,26.0,26.0,26.0,26.0,0.46,0.25,-0.01,379.6,-2.31,-1.86,-1.42,-1.30,-732.59,657.67,5.6,0.00,0.00,0.00,0.00,0.02,-7.49,-7.49,-1.23,0.70,0.40,7.33,49.57,0.37,-0.50,-6.25,100.0,0,0,142.91,0,0,0.0,0,0,0,0,7623,0,30.00,4,178.4,1,0,0.0,0.0,0.0,0.0,0,0,0.708,0.708,50.651,17.788,1,110.00,435.8,8750,0.0,0.0,110.0,110.0,433.0,0.00,0,0,1,166.7,62.4,62.4,82.7,82.7,34.0,23.30,91.2,2.5,40.5,3,-159.160,-9.0,100.0,24.4,24.4,25.5,34.3,0,1,100.0,0.00,0.00,0.00,0.00,4959,7063,1451,4785,312.6,306.7,351.4,342.4,25.36,22.74,26.53,24.87,325.0,325.0,355.0,355.0,100.00,99.81,100.00,99.94,0.64,0.80,0.46,0.59,-0.0,-0.1,2.6,2.4,84.5,68.1,85.5,75.2,91.5,69.2,93.4,79.4,88.1,66.2,91.8,77.1,85.5,64.8,90.8,75.9,-0.48,0.49,0.10,0.05,0.00,151.74,152.37,142.91,142.91,56.6,15.7,0.5236410984634419,169.9680075136485,48.97383270910869,-43.21220534830218,10.803051550459486
0.750,36.5,44.054311993057617,-78.681888158051308,28.2,124.1,230.0,141.4,5058.4,5058,179.1,0,1,1,0,1,1,0,0,0,100,1,1.186,26.0,0.0,-0.144,50.651,66.0,0.0,26.0,26.0,26.0,26.0,0.64,0.29,0.44,371.0,-2.27,-2.92,-1.63,-0.49,-731.92,655.38,5.6,0.00,0.00,0.00,0.00,0.02,-7.49,-7.49,-0.95,6.90,0.74,9.82,49.74,0.41,-0.35,-7.73,100.0,0,0,141.67,0,0,0.0,0,0,0,0,7557,0,30.00,4,179.1,0,0,0.0,0.0,0.0,0.0,0,0,0.756,0.756,50.651,17.788,0,110.00,435.8,8750,0.0,0.0,110.0,110.0,433.0,0.00,0,0,1,333.3,64.1,64.1,58.8,58.8,34.0,12.14,74.6,14.4,90.7,3,-159.210,-9.4,100.0,25.9,30.7,37.0,41.4,0,1,100.0,0.00,0.00,0.00,0.00,2316,5520,4975,8085,318.3,309.7,342.6,334.2,25.36,22.74,26.53,24.87,325.0,325.0,355.0,355.0,100.00,99.81,100.00,99.94,0.74,0.77,0.49,0.71,-0.0,-0.1,1.5,1.1,84.5,68.1,85.6,75.2,91.5,69.2,93.3,79.4,88.1,66.3,91.8,77.1,85.4,64.8,90.8,75.9,-0.54,0.56,0.07,0.04,0.00,152.38,153.07,141.67,141.67,56.6,15.7,0.8290355842785037,170.3281092414809,50.05413780725227,57.616273892573986,32.409153513331006
0.800,38.9,44.054290049610429,-78.681881682935753,-231.5,-109.9,97.3,235.7,5060.9,5061,179.7,0,1,1,0,1,1,0,0,0,100,1,1.186,26.0,0.0,-0.153,50.651,66.0,0.0,26.0,26.0,26.0,26.0,0.57,0.37,0.04,373.5,-2.13,-1.55,-1.43,-1.77,-731.20,652.94,5.6,0.00,0.00,0.00,0.00,0.02,-7.49,-7.49,-0.81,-1.23,0.81,-3.61,49.91,0.44,-0.32,-5.91,100.0,0,0,142.09,0,0,0.0,0,0,0,0,7579,0,30.00,4,179.7,1,0,0.0,0.0,0.0,0.0,0,0,0.807,0.807,50.651,17.788,1,110.00,435.8,8750,0.0,0.0,110.0,110.0,433.0,0.00,0,0,1,333.3,77.5,77.5,49.3,49.3,34.0,3.19,50.6,30.3,92.7,3,-159.270,-7.0,100.0,14.3,25.2,41.8,53.2,0,1,100.0,0.00,0.00,0.00,0.00,734,4464,5714,6893,322.9,312.9,340.2,337.0,25.36,22.74,26.53,24.87,325.0,325.0,355.0,355.0,100.00,99.81,100.00,99.94,0.79,0.78,0.64,0.73,-0.0,-0.1,1.6,1.2,84.5,68.1,85.6,75.2,91.4,69.2,93.3,79.4,88.0,66.3,91.7,77.1,85.4,64.8,90.7,75.9,-0.42,0.43,0.05,0.03,0.00,152.62,153.07,142.09,142.09,56.6,15.7,0.6807348970047004,175.7296349029059,52.21474806044179,3.6010169938120384,18.00508553808342
0.850,41.5,44.054268106163249,-78.681875117888026,108.5,-48.3,-153.6,-140.7,5063.4,5063,180.2,0,1,1,0,1,1,0,0,0,100,1,1.186,26.0,0.0,-0.165,50.651,66.0,0.0,26.0,26.0,26.0,26.0,0.49,0.29,0.06,376.8,-2.43,-3.01,-1.10,-0.71,-730.47,650.50,5.6,0.00,0.00,0.00,0.00,0.03,-7.49,-7.49,-0.94,-1.40,0.55,-4.73,50.06,0.43,-0.40,-5.61,100.0,0,0,143.38,0,0,0.0,0,0,0,0,7648,0,30.00,4,180.2,0,0,0.0,0.0,0.0,0.0,0,0,0.858,0.858,50.651,17.788,0,110.00,435.8,8750,0.0,0.0,110.0,110.0,433.0,0.00,0,0,1,333.3,69.6,69.6,68.6,68.6,34.0,15.89,65.1,17.9,39.7,3,-159.320,-3.9,100.0,19.7,22.7,34.2,46.1,0,1,100.0,0.00,0.00,0.00,0.00,4244,5290,3926,4440,314.3,311.3,345.0,344.0,25.36,22.74,26.53,24.88,325.0,325.0,355.0,355.0,100.00,99.81,100.00,99.94,0.58,0.68,0.61,0.70,-0.1,-0.1,2.1,1.7,84.5,68.1,85.6,75.2,91.3,69.2,93.2,79.4,87.9,66.2,91.7,77.1,85.3,64.8,90.7,75.9,-0.26,0.24,0.08,0.03,0.00,153.23,153.63,143.38,143.38,56.6,15.7,0.5725382083319854,170.6882109408621,51.85464636106061,-46.813222342114216,7.20203455664759
0.900,44.0,44.054247421766313,-78.681868732704629,0.3,13.4,53.4,-136.6,5065.9,5066,180.8,0,1,1,0,1,1,0,0,0,100,1,1.186,26.0,0.0,-0.171,50.651,66.0,0.0,26.0,26.0,26.0,26.0,0.41,0.40,-0.07,377.5,-2.98,-2.01,-1.35,-1.68,-729.76,648.20,5.6,0.00,0.00,0.00,0.00,0.03,-7.49,-7.49,-0.91,0.34,0.49,2.22,50.22,0.44,-0.35,-3.94,100.0,0,0,143.11,0,0,0.0,0,0,0,0,7634,0,30.00,4,180.8,1,0,0.0,0.0,0.0,0.0,0,0,0.906,0.906,50.651,17.788,1,110.00,435.8,8750,0.0,0.0,110.0,110.0,433.0,0.00,0,0,1,333.3,74.7,74.7,61.1,61.1,34.0,2.99,28.8,25.2,74.9,3,-159.370,-1.8,100.0,19.7,23.4,36.8,39.3,0,1,100.0,0.00,0.00,0.00,0.00,2770,3527,6103,6296,318.8,316.4,340.0,338.9,25.36,22.74,26.54,24.88,325.0,325.0,355.0,355.0,100.00,99.81,100.00,99.94,0.45,0.49,0.54,0.68,-0.1,0.0,1.7,1.5,84.5,68.1,85.6,75.2,91.3,69.1,93.2,79.4,87.9,66.2,91.7,77.1,85.2,64.8,90.6,75.9,-0.10,0.11,0.07,0.04,0.00,153.70,154.02,143.12,143.11,56.6,15.7,0.5770615218501404,171.04831266869448,52.93495151610655,61.21729117089757,36.010171645190354
0.950,46.5,44.054225388386968,-78.681861897860415,-44.5,16.8,-11.8,100.7,5068.4,5068,181.3,0,1,1,0,1,1,0,0,0,100,1,1.186,26.0,0.0,-0.183,50.651,66.0,0.0,26.0,26.0,26.0,26.0,0.38,0.24,-0.07,377.7,-2.74,-2.84,-2.24,-0.93,-729.00,645.75,5.5,0.00,0.00,0.00,0.00,0.03,-7.49,-7.49,-0.98,-1.79,0.63,-2.04,50.37,0.37,-0.43,-2.68,100.0,0,0,144.37,0,0,0.0,0,0,0,0,7701,0,30.00,4,181.3,0,0,0.0,0.0,0.0,0.0,0,0,0.957,0.957,50.651,17.788,0,110.00,435.8,8750,0.0,0.0,110.0,110.0,433.0,0.00,0,0,1,333.3,70.0,70.0,64.0,64.0,34.0,1.00,72.6,2.8,29.5,3,-159.420,-0.8,100.0,17.5,24.3,36.2,44.3,0,1,100.0,0.00,0.00,0.00,0.00,3333,6652,2638,3840,317.8,307.2,348.2,344.6,25.36,22.74,26.54,24.88,325.0,325.0,355.0,355.0,100.00,99.81,100.00,99.94,0.34,0.47,0.45,0.54,-0.1,-0.1,1.9,1.8,84.5,68.1,85.6,75.2,91.2,69.1,93.2,79.4,87.8,66.2,91.6,77.1,85.2,64.8,90.6,75.9,-0.03,0.04,0.06,0.05,0.00,154.19,154.47,144.37,144.37,56.6,15.7,0.45486261662176636,176.80994005795185,55.455663525579645,7.202034272135336,14.40406797524787
1.000,49.0,44.054203265075458,-78.681854883151885,95.3,99.1,-30.5,-75.8,5071.0,5071,181.9,0,1,1,0,1,1,0,0,0,100,1,1.186,26.0,0.0,-0.192,50.651,66.0,0.0,26.0,26.0,26.0,26.0,0.29,0.33,-0.10,376.7,-3.04,-2.43,-1.73,-1.99,-728.22,643.29,5.5,0.00,0.00,0.00,0.00,0.03,-7.49,-7.49,-0.88,3.97,0.46,-5.57,50.53,0.32,-0.39,-2.36,100.0,0,0,144.51,0,0,0.0,0,0,0,0,7709,0,30.00,4,181.9,1,0,0.0,0.0,0.0,0.0,0,0,1.008,1.008,50.651,17.788,1,110.00,435.8,8750,0.0,0.0,110.0,110.0,433.0,0.00,0,0,1,333.3,70.5,70.5,63.1,63.1,34.0,0.08,29.1,6.6,71.5,3,-159.470,-0.3,100.0,22.3,29.2,34.7,40.6,0,1,100.0,0.00,0.00,0.00,0.00,1342,3573,4522,6712,321.1,314.4,344.4,338.4,25.37,22.74,26.54,24.88,325.0,325.0,355.0,355.0,100.00,99.81,100.00,99.94,0.35,0.35,0.40,0.54,-0.1,-0.0,1.8,1.7,84.5,68.1,85.6,75.3,91.1,69.1,93.1,79.4,87.7,66.2,91.5,77.1,85.1,64.8,90.5,75.9,-0.00,0.02,0.06,0.05,0.00,154.87,155.09,144.51,144.51,56.6,15.7,0.4505552130427524,171.768516095908,54.37535831363134,-46.81322262662604,-7.2020351256712445
1.050,51.5,44.054182490746363,-78.681848318104173,-167.5,-226.1,185.2,112.4,5073.5,5073,182.5,0,1,1,0,1,1,0,0,0,100,1,1.186,26.0,0.0,-0.201,50.651,66.0,0.0,26.0,26.0,26.0,26.0,0.23,0.34,0.00,379.1,-2.22,-3.60,-2.03,-2.06,-727.49,640.98,5.5,0.00,0.00,0.00,0.00,0.03,-7.49,-7.49,-0.94,-5.02,0.14,-5.95,50.70,0.23,-0.39,0.10,100.0,0,0,144.31,0,0,0.0,0,0,0,0,7698,0,30.00,4,182.5,0,0,0.0,0.0,0.0,0.0,0,0,1.056,1.056,50.651,17.788,0,110.00,435.8,8750,0.0,0.0,110.0,110.0,433.0,0.00,0,0,1,333.3,83.0,83.0,57.8,57.8,34.0,-0.24,18.1,-2.3,46.2,3,-159.520,0.7,100.0,13.9,17.9,44.0,46.2,0,1,100.0,0.00,0.00,0.00,0.00,1945,2393,4701,5203,320.7,318.4,342.8,340.3,25.37,22.74,26.54,24.88,325.0,325.0,355.0,355.0,100.00,99.81,100.00,99.94,0.24,0.26,0.27,0.34,-0.0,-0.0,1.4,1.4,84.5,68.1,85.7,75.3,91.0,69.1,93.1,79.4,87.6,66.2,91.5,77.1,85.0,64.7,90.5,75.9,0.04,-0.05,0.05,0.03,0.00,155.25,155.23,144.32,144.31,56.6,15.7,0.41048751503547587,172.12861779528924,54.73546001301252,61.21729088638631,28.808137088542765
1.100,54.1,44.054160277502696,-78.681841213463485,137.1,-13.9,-223.5,-271.2,5076.0,5076,183.0,0,1,1,0,1,1,0,0,0,100,1,1.186,26.0,0.0,-0.210,50.651,66.0,0.0,26.0,26.0,26.0,26.0,0.04,0.35,-0.06,382.1,-2.48,-2.88,-1.31,-1.23,-726.70,638.51,5.5,0.00,0.00,0.00,0.00,0.03,-7.49,-7.49,-1.11,-1.20,-0.00,1.79,50.85,0.16,-0.42,0.73,100.0,0,0,145.56,0,0,0.0,0,0,0,0,7764,0,30.00,4,183.0,1,0,0.0,0.0,0.0,0.0,0,0,1.107,1.107,50.651,17.788,1,110.00,435.8,8750,0.0,0.0,110.0,110.0,433.0,0.00,0,0,1,166.7,73.1,73.1,77.8,77.8,34.0,-22.88,17.6,-5.3,20.6,3,-159.560,2.0,100.0,20.8,17.2,32.8,32.6,0,1,100.0,0.00,0.00,0.00,0.00,5830,3203,3846,4211,311.5,316.9,345.3,343.7,25.37,22.74,26.55,24.88,325.0,325.0,355.0,355.0,100.00,99.81,100.00,99.94,0.02,0.12,0.08,0.23,-0.0,-0.1,2.0,2.0,84.5,68.1,85.7,75.3,91.0,69.0,93.0,79.4,87.6,66.1,91.5,77.0,85.0,64.7,90.4,75.9,0.11,-0.11,0.07,0.07,0.00,155.86,155.72,145.56,145.56,56.6,15.7,0.35735136770411274,177.89024518454664,57.256172022485615,10.803051265947659,7.20203455664759
1.150,56.6,44.054138064259028,-78.681834018890640,221.4,252.4,52.6,60.0,5078.6,5079,183.6,0,1,1,0,1,1,0,0,0,100,1,1.186,26.0,0.0,-0.222,50.651,66.0,0.0,26.0,26.0,26.0,26.0,-0.07,0.34,0.30,371.7,-2.84,-2.48,-1.19,-0.79,-725.90,636.04,5.4,0.00,0.00,0.00,0.00,0.03,-7.49,-7.49,-0.95,6.83,0.29,7.02,51.00,0.10,-0.41,1.52,100.0,0,0,145.63,0,0,0.0,0,0,0,0,7768,0,30.00,4,183.6,0,0,0.0,0.0,0.0,0.0,1,0,1.158,1.158,50.651,17.788,0,110.00,435.8,8750,0.0,0.0,110.0,110.0,433.0,0.00,0,0,1,333.3,57.2,57.2,68.1,68.1,34.0,-38.83,18.4,-15.8,14.9,3,-159.620,3.7,100.0,31.8,29.8,35.4,35.6,0,1,100.0,0.00,0.00,0.00,0.00,5887,5124,4981,5416,310.4,310.8,342.6,341.0,25.37,22.74,26.55,24.89,325.0,325.0,355.0,355.0,100.00,99.81,100.00,99.94,-0.12,-0.04,-0.06,0.09,-0.1,-0.0,1.5,1.6,84.6,68.1,85.7,75.3,90.9,69.0,93.0,79.3,87.5,66.1,91.4,77.0,84.9,64.7,90.4,75.9,0.20,-0.19,0.07,0.05,0.00,156.60,156.55,145.63,145.63,56.6,15.7,0.4588027898781785,173.208922921884,55.45566346867728,-39.61118835449071,-18.00508553808335
1.200,59.2,44.054117020133454,-78.681827363910756,-13.1,128.6,285.8,321.6,5081.1,5081,184.1,0,1,1,0,1,1,0,0,0,100,1,1.186,26.0,0.0,-0.228,50.651,66.0,0.0,26.0,26.0,26.0,26.0,-0.08,0.29,0.66,360.8,-2.74,-1.70,-2.02,-1.58,-725.16,633.70,5.4,0.00,0.00,0.00,0.00,0.04,-7.49,-7.49,-0.58,7.65,0.48,-2.09,51.16,0.05,-0.35,2.81,100.0,0,0,145.65,0,0,0.0,0,0,0,0,7769,0,30.00,4,184.1,1,0,0.0,0.0,0.0,0.0,1,0,1.206,1.206,50.651,17.788,1,110.00,435.8,8750,0.0,0.0,110.0,110.0,433.0,0.00,0,0,1,333.3,53.5,53.5,45.6,45.6,34.0,-36.63,12.0,-31.2,32.3,3,-159.660,5.3,100.0,31.2,36.3,49.7,51.7,0,1,100.0,0.00,0.00,0.00,0.00,5129,7128,5877,7214,312.5,305.5,341.3,336.0,25.37,22.74,26.55,24.89,325.0,325.0,355.0,355.0,100.00,99.81,100.00,99.94,-0.20,-0.09,-0.07,0.05,-0.1,-0.0,1.1,1.3,84.6,68.1,85.7,75.3,90.8,69.0,92.9,79.3,87.5,66.1,91.4,77.0,84.9,64.7,90.4,75.9,0.31,-0.27,0.04,0.03,0.00,157.19,156.99,145.65,145.65,56.6,15.7,0.7253275122315436,173.92912634909757,55.45566346867728,61.21729088638574,18.00508553808335
1.250,61.8,44.054094627025464,-78.681820169337911,57.3,40.5,84.0,64.2,5083.7,5084,184.7,0,1,1,0,1,1,0,0,0,100,1,1.186,26.0,0.0,-0.243,50.651,66.0,0.0,26.0,26.0,26.0,26.0,-0.15,0.27,0.86,357.0,-3.12,-3.06,-1.56,-1.04,-724.36,631.21,5.4,0.00,0.00,0.00,0.00,0.04,-7.49,-7.49,-0.13,8.71,0.08,-13.77,51.31,-0.02,-0.32,3.87,100.0,0,0,145.93,0,0,0.0,0,0,0,0,7784,0,30.00,4,184.7,0,0,0.0,0.0,0.0,0.0,1,0,1.257,1.257,50.651,17.788,0,110.00,435.8,8750,0.0,0.0,110.0,110.0,433.0,0.00,0,0,1,333.3,51.2,51.2,37.9,37.9,34.0,-43.91,23.1,-37.0,19.8,3,-159.710,6.8,100.0,34.0,38.3,53.9,54.9,0,1,98.4,0.00,0.00,0.00,0.00,5314,6746,7868,7794,311.9,306.1,336.5,334.8,25.37,22.74,26.56,24.89,325.0,325.0,355.0,355.0,100.00,99.81,100.00,99.95,-0.24,-0.14,-0.06,0.00,-0.1,-0.0,0.9,1.2,84.6,68.1,85.7,75.3,90.8,69.0,92.9,79.3,87.4,66.1,91.3,77.0,84.8,64.7,90.3,75.9,0.41,-0.34,0.03,0.02,0.00,157.76,157.49,145.93,145.93,56.6,15.7,0.9137833441248533,179.33065201052258,57.256172022485615,61.217290886386024,10.803051550459557
1.300,64.3,44.054072233917481,-78.681813064697224,-5.4,-186.4,122.4,-25.7,5086.3,5086,185.2,0,1,1,0,1,1,0,0,0,100,1,1.186,26.0,0.0,-0.252,50.651,66.0,0.0,26.0,26.0,26.0,26.0,-0.32,0.25,0.37,362.1,-2.64,-2.13,-1.85,-2.56,-723.57,628.72,5.5,0.00,0.00,0.00,0.00,0.04,-7.49,-7.49,0.26,4.72,-0.48,-6.00,51.44,-0.11,-0.34,5.30,100.0,0,0,145.92,0,0,0.0,0,0,0,0,7784,0,30.00,4,185.2,1,0,0.0,0.0,0.0,0.0,1,0,1.308,1.308,50.651,17.788,1,110.00,435.8,8750,0.0,0.0,110.0,110.0,433.0,0.00,0,0,1,333.3,62.9,62.9,38.0,38.0,34.0,-30.27,-5.7,-68.2,23.7,3,-159.770,8.0,100.0,33.8,29.0,60.0,53.6,0,1,72.7,0.00,0.00,0.00,0.00,3525,3334,8526,7177,315.2,315.2,333.9,336.3,25.38,22.74,26.56,24.89,325.0,325.0,355.0,355.0,100.00,99.81,100.00,99.95,-0.36,-0.38,-0.20,-0.18,0.0,-0.0,0.7,1.1,84.6,68.2,85.8,75.3,90.8,69.0,92.9,79.3,87.4,66.1,91.3,77.0,84.8,64.6,90.3,75.9,0.47,-0.44,0.01,0.02,0.00,157.93,157.46,145.92,145.92,56.6,15.7,0.5493632677928149,180.05085543773617,56.535968623723235,-39.61118806997888,-28.80813651951918
1.350,66.9,44.054049660945168,-78.681806049988694,-52.9,-47.8,-93.2,-158.4,5088.9,5089,185.5,0,1,1,0,1,1,0,0,0,100,1,1.186,26.0,0.0,-0.264,50.651,66.0,0.3,26.0,26.0,26.0,26.0,-0.42,0.09,0.11,370.6,-2.80,-3.62,-1.27,-2.05,-722.79,626.21,5.5,0.00,0.00,0.00,0.00,0.04,-7.49,-7.49,0.27,-0.48,-0.69,0.21,51.51,-0.18,-0.55,6.53,100.0,0,0,146.14,0,0,0.0,0,0,0,0,7795,0,30.00,4,185.5,0,0,0.0,0.0,0.0,0.0,1,0,1.359,1.359,50.651,17.788,0,110.00,435.8,8750,0.0,0.0,110.0,110.0,433.0,0.00,0,0,1,166.7,62.8,62.8,54.3,54.3,34.0,-80.67,-5.7,-41.8,-1.9,3,-159.820,10.1,100.0,31.1,26.6,55.4,45.7,0,1,40.9,0.00,0.00,0.00,0.00,6459,2864,5300,3632,309.8,316.4,342.3,345.7,25.38,22.74,26.56,24.90,325.0,325.0,355.0,355.0,100.00,99.81,100.00,99.95,-0.65,-0.60,-0.37,-0.36,-0.0,-0.0,0.7,1.1,84.6,68.2,85.8,75.4,90.7,69.0,92.8,79.3,87.3,66.1,91.3,77.0,84.7,64.6,90.3,75.8,0.59,-0.56,0.03,0.03,0.00,158.14,157.58,146.14,146.14,56.6,15.7,0.44339598554790727,175.3695332035247,54.3753583705337,-43.212205348302746,-25.207119525707284
1.400,69.5,44.054028436955271,-78.681799484940967,3.9,-66.0,-173.2,-96.6,5091.4,5091,185.5,0,1,1,0,1,1,0,0,0,100,1,1.186,26.0,0.0,-0.273,50.651,66.0,1.1,26.0,26.0,26.0,26.0,-0.49,-0.04,0.33,373.5,-2.78,-4.30,-0.70,-2.41,-722.06,623.85,5.5,0.00,0.00,0.00,0.00,0.04,-7.49,-7.49,0.35,0.82,-0.62,2.02,51.53,-0.26,-0.52,7.53,100.0,0,0,145.10,0,0,0.0,0,0,0,0,7740,0,30.00,4,185.5,1,0,0.0,0.0,0.0,0.0,1,0,1.407,1.407,50.651,17.788,1,110.00,435.8,8750,0.0,0.0,110.0,110.0,433.0,0.00,0,0,1,333.3,64.0,64.0,62.4,62.4,34.0,-81.44,-6.1,-53.9,-4.8,3,-159.870,10.4,100.0,31.3,23.3,46.7,40.9,0,1,13.5,0.00,0.00,0.00,0.00,6069,3354,5548,4847,310.3,315.9,340.8,341.9,25.38,22.74,26.57,24.90,325.0,325.0,355.0,355.0,100.00,99.81,100.00,99.95,-0.75,-0.67,-0.56,-0.44,-0.1,-0.1,0.0,0.5,84.6,68.2,85.8,75.4,90.7,69.0,92.8,79.3,87.3,66.1,91.2,77.0,84.7,64.6,90.2,75.8,0.63,-0.60,0.04,0.04,0.00,158.22,157.60,145.35,144.85,56.6,15.7,0.5921148537234985,175.7296349029059,54.01525667115251,3.6010169938120384,-14.404068544271453
1.450,72.1,44.054005774050800,-78.681792560164595,21.1,40.0,-24.6,-66.3,5094.0,5094,185.2,0,1,1,0,1,1,0,0,0,100,1,1.186,26.0,0.0,-0.288,50.651,66.0,2.3,26.0,26.0,26.0,26.0,-0.57,-0.27,0.02,375.8,-2.83,-3.26,-1.37,-3.20,-721.29,621.33,5.6,0.00,0.00,0.00,0.00,0.04,-7.49,-7.49,0.48,3.22,-0.46,3.98,51.44,-0.37,-0.48,9.02,100.0,0,0,144.13,0,0,0.0,0,0,0,0,7688,0,30.00,4,185.2,0,0,0.0,0.0,0.0,0.0,1,0,1.458,1.458,50.651,17.788,0,110.00,435.8,8750,0.0,0.0,110.0,110.0,433.0,0.00,0,0,1,333.3,65.2,65.2,59.5,59.5,34.0,-34.91,-14.5,-67.6,-6.9,3,-159.920,9.5,100.0,32.4,25.3,45.5,37.6,0,1,0.0,0.00,0.00,0.00,0.00,2899,3958,5384,4482,316.6,314.6,341.2,343.6,25.38,22.74,26.57,24.90,325.0,325.0,355.0,355.0,100.00,99.81,100.00,99.95,-0.73,-0.70,-0.71,-0.61,-0.1,-0.1,-0.4,-0.2,84.7,68.2,85.8,75.4,90.7,68.9,92.7,79.2,87.3,66.0,91.2,76.9,84.7,64.6,90.2,75.8,0.59,-0.56,0.05,0.04,0.00,157.97,157.28,144.31,143.95,56.6,15.7,0.63103090257134,175.7296349029059,52.93495151610655,46.81322262662633,-10.803052119483212
1.500,74.6,44.053984550060903,-78.681786264913356,-310.3,-129.6,82.2,35.6,5096.6,5097,184.7,0,1,1,0,1,1,0,0,0,100,1,1.186,26.0,0.0,-0.297,50.651,66.0,5.3,26.0,26.0,26.0,26.0,-0.55,-0.32,-0.27,380.4,-2.99,-4.24,-1.78,-2.38,-720.59,618.97,5.6,0.00,0.00,0.00,0.00,0.04,-7.49,-7.49,0.43,-5.79,-0.59,-6.86,51.30,-0.44,-0.49,6.24,100.0,0,0,143.43,0,0,0.0,0,0,0,0,7651,0,30.00,4,184.7,1,0,0.0,0.0,0.0,0.0,1,0,1.506,1.506,50.651,17.788,1,110.00,435.8,8750,0.0,0.0,110.0,110.0,433.0,0.00,0,0,1,333.3,77.0,77.0,52.4,52.4,34.0,-56.33,-12.2,-73.4,-7.8,3,-159.960,9.3,100.0,16.9,18.8,49.6,39.3,0,1,0.0,0.00,0.00,0.00,0.00,4365,2797,5645,3105,315.2,315.5,340.2,346.6,25.38,22.74,26.57,24.90,325.0,325.0,355.0,355.0,100.00,99.81,100.00,99.95,-0.87,-0.89,-0.65,-0.57,-0.3,-0.3,-0.5,-0.2,84.7,68.2,85.8,75.4,90.6,68.9,92.7,79.2,87.2,66.0,91.1,76.9,84.6,64.6,90.1,75.7,0.54,-0.56,0.04,0.05,0.00,156.93,156.34,143.62,143.23,56.6,15.7,0.6912307863514183,180.41095716556853,52.934951459204186,46.81322262662633,-7.20203455664759
1.550,77.2,44.053960718038340,-78.681779340136998,149.3,-171.9,-383.6,-230.0,5099.1,5099,184.1,0,1,1,0,1,1,0,0,0,100,1,1.186,26.0,0.0,-0.309,50.651,66.0,14.3,26.0,26.0,26.0,26.0,-0.59,-0.51,-0.46,388.0,-1.79,-2.98,-1.76,-1.67,-719.82,616.32,5.7,0.00,0.00,0.00,0.00,0.05,-7.49,-7.49,0.06,-6.09,-0.78,1.20,51.11,-0.50,-0.60,7.27,100.0,0,0,142.50,0,0,0.0,0,0,0,0,7601,0,30.00,4,184.1,0,0,0.0,0.0,0.0,0.0,1,0,1.560,1.560,50.651,17.788,0,110.00,435.8,8750,0.0,0.0,110.0,110.0,433.0,0.00,0,0,1,166.7,75.2,75.2,87.7,87.7,34.0,-90.33,-8.5,-65.5,-19.9,3,-160.020,9.3,100.0,24.3,10.2,30.4,27.8,0,1,0.0,0.00,0.00,0.00,0.00,6327,2184,5040,3742,309.4,319.8,343.9,345.0,25.39,22.74,26.58,24.90,325.0,325.0,355.0,355.0,100.00,99.81,100.00,99.95,-0.97,-0.84,-0.85,-0.68,-0.5,-1.7,-0.9,-0.5,84.7,68.1,85.8,75.4,90.5,68.9,92.6,79.1,87.2,66.0,91.1,76.8,84.6,64.5,90.1,75.7,0.55,-0.55,0.08,0.07,0.00,156.10,153.89,142.75,142.25,56.6,15.7,0.9054280755532159,180.41095716556853,52.21474806044179,-111.63153079133593,-50.41423905141457
1.600,79.7,44.053939494048443,-78.681773224750074,103.3,201.1,16.8,-176.6,5101.7,5102,183.1,0,1,1,0,1,1,0,0,0,100,1,1.186,26.0,0.0,-0.315,50.651,66.0,29.1,26.0,26.0,26.0,26.0,-0.71,-0.73,-0.11,384.8,-1.49,-2.24,-1.35,-2.14,-719.14,613.96,5.7,0.00,0.00,0.00,0.00,0.05,-7.49,-7.49,-0.09,-0.20,-0.46,10.15,50.83,-0.56,-0.65,9.31,100.0,0,0,141.17,0,0,0.0,0,0,0,0,7530,0,30.00,4,183.1,1,0,0.0,0.0,0.0,0.0,1,0,1.608,1.608,50.651,17.788,1,110.00,435.8,8750,0.0,0.0,110.0,110.0,433.0,0.00,0,0,1,333.3,64.2,64.2,78.3,78.3,34.0,-83.28,-29.2,-75.9,-11.6,3,-160.070,7.9,100.0,29.5,20.2,31.3,19.0,0,1,0.0,0.00,0.00,0.00,0.00,6129,4701,5157,2382,309.7,312.8,342.3,349.4,25.39,22.74,26.58,24.90,325.0,325.0,355.0,355.0,100.00,99.81,100.00,99.95,-0.99,-0.85,-1.05,-0.86,-1.1,-1.4,-1.0,-1.4,84.7,68.1,85.9,75.4,90.5,68.9,92.6,79.1,87.2,66.0,91.0,76.8,84.6,64.5,90.0,75.6,0.48,-0.48,0.08,0.08,0.00,154.52,153.48,141.74,140.61,56.6,15.7,1.0242558274181308,169.24780408643494,47.89352755406273,-75.62135943065726,-46.81322205760246
1.650,82.2,44.053918449922868,-78.681767379159638,17.3,149.5,89.9,226.6,5104.2,5104,181.6,0,1,1,0,1,1,0,0,0,100,1,1.186,26.0,0.0,-0.330,50.651,66.0,48.3,26.0,26.0,26.0,26.0,-0.63,-0.96,0.03,379.0,-2.48,-2.28,-0.54,-0.98,-718.49,611.62,5.7,0.00,0.00,0.00,0.00,0.05,-7.49,-7.49,-0.06,0.31,-0.22,-1.06,50.41,-0.61,-0.69,9.00,100.0,0,0,139.85,0,0,0.0,0,0,0,0,7460,0,30.00,4,181.6,0,0,0.0,0.0,0.0,0.0,0,0,1.656,1.656,50.651,17.788,0,110.00,435.8,8750,0.0,0.0,110.0,110.0,433.0,0.00,0,0,1,333.3,62.1,62.1,68.7,68.7,34.0,-43.79,-20.7,-61.3,-28.9,3,-160.110,4.3,100.0,30.4,27.7,35.8,30.3,0,1,0.0,0.00,0.00,0.00,0.00,4225,4759,4734,3672,314.2,311.9,343.1,345.6,25.39,22.74,26.58,24.90,325.0,325.0,355.0,355.0,100.00,99.81,100.00,99.95,-0.77,-0.71,-1.04,-0.86,-2.2,-2.2,-1.2,-1.2,84.7,68.1,85.9,75.4,90.5,68.9,92.5,79.0,87.2,66.0,91.0,76.7,84.6,64.5,90.0,75.6,0.29,-0.29,0.07,0.06,0.00,151.25,150.76,140.11,139.59,56.6,15.7,1.1486513831445988,172.8488212225028,47.533425854681546,72.02034243684523,-3.6010169938118253
1.700,84.7,44.053896326611358,-78.681761353704871,-4.3,-101.9,45.9,32.9,5106.7,5107,179.6,0,1,1,0,1,1,0,0,0,100,1,1.186,26.0,0.0,-0.333,50.651,66.0,65.0,26.0,26.0,26.0,26.0,-0.53,-1.25,-0.14,380.7,-2.07,-2.94,-0.57,-1.33,-717.82,609.16,5.7,0.00,0.00,0.00,0.00,0.05,-7.49,-7.49,-0.17,-4.42,-0.44,-3.11,49.84,-0.63,-0.80,5.97,100.0,0,0,137.37,0,0,0.0,0,0,0,0,7328,0,30.00,4,179.6,1,0,0.0,0.0,0.0,0.0,0,0,1.707,1.707,50.651,17.788,1,110.00,435.8,8750,0.0,0.0,110.0,110.0,433.0,0.00,0,0,1,333.3,65.1,65.1,75.2,75.2,34.0,-47.40,-3.1,-42.6,-16.2,3,-160.160,0.6,100.0,30.1,22.6,38.1,32.0,0,1,0.0,0.00,0.00,0.00,0.00,5358,3453,3915,2813,311.0,315.8,345.2,347.7,25.39,22.74,26.58,24.90,325.0,325.0,355.0,355.0,100.00,99.81,100.00,99.95,-0.64,-0.58,-0.93,-0.78,-2.7,-5.6,-1.7,-1.7,84.7,68.1,85.9,75.4,90.5,68.9,92.5,79.0,87.2,66.0,91.0,76.7,84.5,64.5,89.9,75.6,0.08,-0.07,0.06,0.07,0.00,148.66,143.82,137.55,137.19,56.6,15.7,1.3649175799292792,176.44983833011946,47.533425854681546,-32.4091540823548,-25.20712009473094
1.750,87.2,44.053874383164178,-78.681755508114435,11.5,31.9,-76.6,-202.6,5109.2,5109,177.2,0,1,1,0,1,1,0,0,0,100,1,1.186,26.0,0.0,-0.348,50.651,66.0,67.3,26.0,26.0,26.0,26.0,-0.46,-1.30,-0.17,383.5,-2.26,-2.74,-1.31,-1.98,-717.17,606.72,5.8,0.00,0.00,0.00,0.00,0.05,-7.49,-7.49,-0.38,-2.83,-0.55,1.45,49.17,-0.63,-0.91,4.56,100.0,0,0,133.93,0,0,0.0,0,0,0,0,7144,0,30.00,4,177.2,0,0,0.0,0.0,0.0,0.0,0,0,1.758,1.758,50.651,17.788,0,110.00,435.8,8750,0.0,0.0,110.0,110.0,433.0,0.00,0,0,1,333.3,61.4,61.4,79.1,79.1,34.0,-57.22,-3.9,-42.2,-3.2,3,-160.220,-2.2,100.0,30.7,24.2,34.2,21.9,0,1,0.0,0.00,0.00,0.00,0.00,6363,4472,3641,1364,308.6,313.0,346.1,351.8,25.40,22.74,26.58,24.90,325.0,325.0,355.0,355.0,100.00,99.81,100.00,99.95,-0.58,-0.46,-0.96,-0.80,-2.6,-4.3,-1.8,-4.0,84.7,68.1,85.9,75.4,90.5,68.9,92.5,79.0,87.2,66.0,90.9,76.7,84.5,64.6,89.9,75.5,-0.08,0.10,0.07,0.09,0.00,147.18,144.14,135.53,132.34,56.6,15.7,1.3894243412291294,169.60790581426733,45.01271384520845,-90.02542769041696,-36.010171645190496
1.800,89.6,44.053853968563722,-78.681750112184801,-27.3,-37.9,-112.5,22.8,5111.6,5112,174.9,0,1,1,0,1,1,0,0,0,100,1,1.186,26.0,0.0,-0.354,50.651,66.0,67.3,26.0,26.0,26.0,26.0,-0.31,-1.11,-0.27,388.1,-2.29,-3.52,-1.18,-1.57,-716.57,604.45,5.8,0.00,0.00,0.00,0.00,0.05,-7.49,-7.49,-0.48,-2.95,-0.37,4.30,48.55,-0.62,-0.89,3.06,100.0,0,0,133.14,0,0,0.0,0,0,0,0,7102,0,30.00,4,174.9,1,0,0.0,0.0,0.0,0.0,0,0,1.806,1.806,50.651,17.788,1,110.00,435.8,8750,0.0,0.0,110.0,110.0,433.0,0.00,0,0,1,166.7,69.3,69.3,86.0,86.0,34.0,-17.58,0.1,-26.1,-11.1,3,-160.260,-5.7,100.0,29.4,22.3,28.6,23.0,0,1,0.0,0.00,0.00,0.00,0.00,3434,2544,2747,2414,316.2,318.0,348.5,348.6,25.40,22.74,26.59,24.90,325.0,325.0,355.0,355.0,100.00,99.81,100.00,99.95,-0.42,-0.38,-0.96,-0.76,-3.7,-7.5,-2.3,-2.2,84.7,68.1,85.9,75.4,90.5,69.0,92.4,78.9,87.2,66.1,90.9,76.6,84.5,64.6,89.9,75.5,-0.28,0.29,0.09,0.08,0.00,142.74,136.90,133.14,133.14,56.6,15.7,1.1836807001890333,167.44729556107777,43.9324086901625,7.20203427213562,-10.803050981435831
1.850,92.0,44.053832564709502,-78.681744536390852,-120.2,-24.0,-51.2,-49.7,5114.0,5114,172.6,0,1,1,0,1,1,0,0,0,100,1,1.186,26.0,0.0,-0.357,50.651,66.0,68.0,26.0,26.0,26.0,26.0,-0.21,-1.48,-0.23,388.6,-2.60,-3.52,-1.13,-2.13,-715.95,602.07,5.8,0.00,0.00,0.00,0.00,0.06,-7.49,-7.49,-0.72,-5.39,-0.24,3.04,47.88,-0.55,-0.91,-0.27,100.0,0,0,130.37,0,0,0.0,0,0,0,0,6954,0,30.00,4,172.6,0,0,0.0,0.0,0.0,0.0,0,0,1.857,1.857,50.651,17.788,0,110.00,435.8,8750,0.0,0.0,110.0,110.0,433.0,0.00,0,0,1,166.7,66.6,66.6,87.0,87.0,34.0,-30.26,2.7,-17.6,-2.1,3,-160.310,-12.1,100.0,23.4,21.1,26.0,20.5,0,1,0.0,0.00,0.00,0.00,0.00,6382,4528,2129,1292,309.5,312.1,349.1,351.6,25.40,22.74,26.59,24.90,325.0,325.0,355.0,355.0,100.00,99.81,100.00,99.95,-0.18,-0.06,-0.78,-0.60,-3.1,-7.7,-2.4,-3.3,84.7,68.1,85.9,75.4,90.5,69.1,92.4,78.9,87.2,66.1,90.8,76.6,84.5,64.7,89.8,75.4,-0.63,0.63,0.09,0.08,0.00,143.24,136.04,130.85,129.88,56.6,15.7,1.5124152868838638,170.3281092414809,43.93240874706487,0.0,-7.202033418600209
1.900,94.4,44.053811430651763,-78.681739140461204,170.6,215.3,-197.2,-31.9,5116.3,5116,169.9,0,1,1,0,1,1,0,0,0,100,1,1.186,26.0,0.0,-0.366,50.651,66.0,83.1,26.0,26.0,26.0,26.0,0.03,-1.62,0.05,384.0,-2.90,-2.60,-0.91,-1.79,-715.35,599.72,5.8,0.00,0.00,0.00,0.00,0.06,-7.49,-7.49,-0.77,3.45,-0.06,1.43,47.15,-0.51,-0.88,-1.95,100.0,0,0,127.20,0,0,0.0,0,0,0,0,6785,0,30.00,4,169.9,1,0,0.0,0.0,0.0,0.0,0,0,1.908,1.908,50.651,17.788,1,110.00,435.8,8750,0.0,0.0,110.0,110.0,433.0,0.00,0,0,1,166.7,54.9,54.9,87.8,87.8,34.0,-1.01,49.2,-18.2,-3.6,3,-160.370,-19.0,100.0,31.9,31.9,16.2,18.9,0,1,0.0,0.00,0.00,0.00,0.00,4717,6791,3493,3031,312.4,306.2,347.1,347.6,25.40,22.74,26.59,24.90,325.0,325.0,355.0,355.0,100.00,99.81,100.00,99.95,0.31,0.43,-0.75,-0.48,-3.1,-3.1,-4.4,-4.3,84.8,68.1,85.9,75.4,90.5,69.1,92.3,78.9,87.2,66.2,90.8,76.6,84.5,64.7,89.7,75.4,-1.03,1.05,0.12,0.08,0.00,139.25,140.14,127.20,127.20,56.6,15.7,1.6210490430582292,167.44729556107777,43.212205348302476,-108.03051322849996,-25.20712009473094
1.950,96.7,44.053790746254826,-78.681733744531570,-25.6,30.0,267.1,193.8,5118.7,5119,166.7,0,1,1,0,1,1,0,0,0,100,1,1.186,26.0,0.0,-0.372,50.651,66.0,100.0,26.0,26.0,26.0,26.0,0.07,-1.63,0.12,378.8,-3.47,-2.89,-2.81,-1.51,-714.75,597.42,5.8,0.00,0.00,0.00,0.00,0.06,-7.49,-7.49,-0.60,1.62,-0.11,-1.77,46.26,-0.30,-0.81,-8.01,100.0,0,0,127.02,0,0,0.0,0,0,0,0,6776,0,30.00,4,166.7,0,0,0.0,0.0,0.0,0.0,0,0,1.959,1.959,50.651,17.788,0,110.00,435.8,8750,0.0,0.0,110.0,110.0,433.0,0.00,0,0,1,166.7,60.3,60.3,72.4,72.4,34.0,1.87,15.3,-36.5,10.7,3,-160.420,-24.5,100.0,30.6,33.4,29.5,28.6,0,1,0.0,0.00,0.00,0.00,0.00,3463,4296,4553,4804,315.9,312.2,344.3,342.8,25.40,22.74,26.59,24.90,325.0,325.0,355.0,355.0,100.00,99.81,100.00,99.95,0.72,0.73,-0.31,-0.04,-7.2,-6.2,-2.3,-2.3,84.8,68.1,85.9,75.4,90.6,69.2,92.3,78.8,87.2,66.3,90.7,76.6,84.6,64.8,89.7,75.4,-1.35,1.35,0.08,0.08,0.00,129.99,132.08,126.86,127.19,56.6,15.7,1.6359095329510125,159.5250579186309,41.411696737591775,-108.03051322849996,-25.207120663754665
2.000,99.0,44.053771590704621,-78.681728798262739,-113.9,-68.0,28.7,56.4,5120.9,5121,163.9,1,1,1,0,1,1,0,0,0,100,1,1.186,26.0,0.0,-0.381,50.651,66.0,100.0,26.0,26.0,26.0,26.0,0.25,-1.62,-0.08,380.8,-3.70,-2.84,-2.10,-2.18,-714.20,595.29,5.9,0.00,0.00,0.00,0.00,0.06,-7.49,-7.49,-0.70,-4.23,-0.37,-5.79,45.48,-0.04,-0.87,-9.94,100.0,0,0,124.09,0,0,0.0,0,0,0,0,6619,0,30.00,4,163.9,1,0,0.0,0.0,0.0,0.0,0,0,2.007,2.007,50.651,17.788,1,110.00,435.8,8750,0.0,0.0,110.0,110.0,433.0,0.00,0,0,1,166.7,62.9,62.9,71.4,71.4,34.0,2.94,-4.2,-5.6,15.7,3,-160.460,-30.9,100.0,24.9,30.0,31.0,31.4,0,1,0.0,0.00,0.00,0.00,0.00,4281,5449,3355,2774,314.7,309.3,346.3,347.7,25.40,22.74,26.59,24.90,325.0,325.0,355.0,355.0,100.00,99.81,100.00,99.95,1.32,1.39,0.17,0.33,-8.2,-12.1,-2.3,-3.0,84.8,68.1,85.9,75.4,90.6,69.4,92.2,78.8,87.2,66.4,90.7,76.5,84.6,65.0,89.7,75.4,-1.73,1.70,0.08,0.07,0.00,126.68,122.30,124.09,124.09,56.6,15.7,1.6411276610916046,156.64424423822777,40.69149328192701,-57.61627360806216,-7.202033987623935
2.050,101.2,44.053751625764967,-78.681723582197435,103.2,-37.2,-213.4,-126.7,5123.2,5123,160.8,0,1,1,0,1,1,0,0,0,100,1,1.186,26.0,0.0,-0.384,50.651,66.0,100.0,26.0,26.0,26.0,26.0,0.46,-1.78,0.04,384.3,-2.52,-3.81,-2.02,-1.61,-713.62,593.07,5.9,0.00,0.00,0.00,0.00,0.06,-7.49,-7.49,-0.87,-1.92,-0.36,5.38,44.62,0.28,-0.93,-15.09,100.0,0,0,119.18,0,0,0.0,0,0,0,0,6357,0,30.00,4,160.8,0,0,0.0,0.0,0.0,0.0,0,0,2.058,2.058,50.651,17.788,0,110.00,435.8,8750,0.0,0.0,110.0,110.0,433.0,0.00,0,0,1,333.3,58.4,58.4,90.6,90.6,34.0,2.12,-5.2,2.3,13.3,3,-160.520,-37.2,100.0,30.1,28.1,20.3,25.1,0,1,0.0,0.00,0.00,0.00,0.00,5617,6008,2043,2154,310.6,309.3,349.9,349.0,25.40,22.74,26.59,24.90,325.0,325.0,355.0,355.0,100.00,99.81,100.00,99.95,1.89,2.02,0.62,0.83,-8.9,-10.1,-5.5,-4.1,84.8,68.2,85.9,75.4,90.8,69.6,92.2,78.8,87.4,66.6,90.6,76.5,84.7,65.1,89.6,75.4,-2.11,2.09,0.11,0.08,0.00,123.83,123.11,118.10,120.26,56.6,15.7,1.838912722235615,153.76343055782468,40.69149333882938,-57.616273892574554,5.690237259159403e-07
2.100,103.4,44.053733189672045,-78.681718635928590,-38.7,42.3,-49.6,-12.1,5125.4,5125,157.9,0,1,1,0,1,1,0,0,0,100,1,1.186,26.0,0.0,-0.387,50.651,66.0,100.0,26.0,26.0,26.0,26.0,0.56,-1.63,-0.19,385.7,-3.18,-2.99,-2.10,-2.06,-713.07,591.02,5.9,0.00,0.00,0.00,0.00,0.06,-7.49,-7.49,-0.89,0.04,0.00,9.53,43.79,0.64,-0.90,-17.79,100.0,0,0,116.26,0,0,0.0,0,0,0,0,6202,0,30.00,4,157.9,1,0,0.0,0.0,0.0,0.0,0,0,2.106,2.106,50.651,17.788,1,110.00,435.8,8750,0.0,0.0,110.0,110.0,433.0,0.00,0,0,1,333.3,61.9,61.9,86.9,86.9,34.0,2.11,-4.7,4.5,25.0,3,-160.560,-40.5,100.0,28.1,30.3,17.8,24.5,0,1,0.0,0.00,0.00,0.00,0.00,3278,5573,2560,3275,316.5,309.8,348.7,346.9,25.41,22.74,26.59,24.90,325.0,325.0,355.0,355.0,100.00,99.81,100.00,99.95,2.50,2.53,1.12,1.38,-8.3,-9.5,-6.6,-4.7,84.8,68.2,85.9,75.4,90.9,69.8,92.1,78.8,87.5,66.8,90.6,76.5,84.8,65.3,89.6,75.4,-2.34,2.31,0.11,0.09,0.00,120.50,121.39,114.62,117.91,56.6,15.7,1.7339550167175617,150.88261684897032,40.69149333882938,-14.404068544271524,18.005084969059695
2.150,105.6,44.053713944189681,-78.681713419863286,-201.5,-7.1,-11.4,85.6,5127.5,5128,155.2,0,1,1,0,1,1,0,0,0,100,1,1.186,26.0,0.0,-0.390,50.651,66.0,100.0,26.0,26.0,26.0,26.0,0.72,-1.64,-0.10,386.1,-2.38,-1.08,-2.36,-0.98,-712.49,588.88,5.9,0.00,0.00,0.00,0.00,0.06,-7.49,-7.49,-1.00,-3.73,0.28,-0.65,43.03,0.91,-0.89,-14.24,100.0,0,0,113.19,0,0,0.0,0,0,0,0,6038,0,30.00,4,155.2,0,0,0.0,0.0,0.0,0.0,1,0,2.157,2.157,50.651,17.788,0,110.00,435.8,8750,0.0,0.0,110.0,110.0,433.0,0.00,0,0,1,333.3,64.6,64.6,82.7,82.7,34.0,3.52,-11.6,0.2,41.3,3,-160.620,-41.1,100.0,18.1,29.9,17.3,28.8,0,1,0.0,0.00,0.00,0.00,0.00,3579,7602,1461,3523,316.0,304.5,351.1,345.5,25.41,22.75,26.59,24.90,325.0,325.0,355.0,355.0,100.00,99.81,100.00,99.95,3.07,3.16,1.53,1.72,-7.7,-11.0,-9.1,-3.4,84.8,68.2,86.0,75.4,90.9,70.0,92.1,78.8,87.5,67.0,90.6,76.5,84.8,65.4,89.5,75.4,-2.41,2.35,0.11,0.07,0.00,124.06,117.97,109.10,117.30,56.6,15.7,1.7938784797192922,152.32302370339752,42.49200183573535,-64.81830788019721,10.803051550459486
2.200,107.7,44.053695148368114,-78.681708023933652,192.6,96.8,-182.6,-54.2,5129.6,5130,152.3,1,1,1,0,1,1,0,0,0,100,1,1.186,26.0,0.0,-0.396,50.651,66.0,100.0,26.0,26.0,26.0,26.0,0.88,-1.26,-0.27,385.6,-3.75,-2.10,-2.07,-0.48,-711.89,586.79,5.9,0.00,0.00,0.00,0.00,0.06,-7.49,-7.49,-0.97,5.53,0.27,-1.73,42.25,1.13,-0.85,-16.63,100.0,0,0,106.16,0,0,0.0,0,0,0,0,5663,0,30.00,4,152.3,1,0,0.0,0.0,0.0,0.0,1,0,2.208,2.208,50.651,17.788,1,110.00,435.8,8750,0.0,0.0,110.0,110.0,433.0,0.00,0,0,1,333.3,55.9,55.9,94.0,94.0,34.0,-1.85,20.9,-0.0,48.1,3,-160.670,-41.3,100.0,27.7,34.7,8.1,26.1,0,1,0.0,0.00,0.00,0.00,0.00,3450,8755,91,3878,317.6,301.5,354.7,345.2,25.41,22.75,26.59,24.90,325.0,325.0,355.0,355.0,100.00,99.81,100.00,99.95,3.36,3.45,1.96,2.13,-18.4,-6.7,-18.6,-3.2,84.8,68.2,86.0,75.4,91.0,70.3,92.0,78.8,87.6,67.2,90.5,76.5,84.9,65.7,89.5,75.4,-2.39,2.36,0.12,0.08,0.00,107.88,121.33,96.69,115.64,56.6,15.7,1.5604166110369373,144.4007860609506,41.77179849387533,-111.63153050682439,5.690236548616667e-07
2.250,109.7,44.053677881393284,-78.681702987732649,-0.4,105.6,487.0,60.2,5131.7,5132,149.0,0,1,1,0,1,1,0,0,0,100,1,1.186,26.0,0.0,-0.399,50.651,66.0,100.0,26.0,26.0,26.0,26.0,1.27,-1.82,0.61,374.0,-3.72,-3.00,-2.33,-1.33,-711.33,584.87,5.9,0.00,0.00,0.00,0.00,0.07,-7.49,-7.49,-0.65,5.43,0.09,2.83,41.31,1.24,-0.74,-19.18,100.0,0,0,112.23,0,0,0.0,0,0,0,0,5987,0,30.00,4,149.0,0,0,0.0,0.0,0.0,0.0,1,0,2.256,2.256,50.651,17.788,0,110.00,435.8,8750,0.0,0.0,110.0,110.0,433.0,0.00,0,0,1,333.3,54.6,54.6,55.7,55.7,34.0,-2.24,-12.0,75.1,31.9,3,-160.710,-42.3,100.0,27.7,40.0,32.5,29.1,0,1,0.0,0.00,0.00,0.00,0.00,3224,8426,4752,4646,317.3,302.0,341.9,343.3,25.41,22.75,26.59,24.90,325.0,325.0,355.0,355.0,100.00,99.81,100.00,99.95,3.43,3.50,2.14,2.41,-9.3,-8.9,-1.7,-5.5,84.8,68.2,86.0,75.4,91.2,70.5,92.1,78.9,87.7,67.4,90.5,76.6,85.0,65.9,89.5,75.4,-2.45,2.42,0.07,0.07,0.00,112.25,116.29,112.74,111.72,56.6,15.7,2.3016081334579956,141.15987065271509,42.49200189263772,14.40406854427124,43.212205063790634
2.300,111.8,44.053659894961164,-78.681697411938700,11.7,8.8,-222.7,285.3,5133.7,5134,145.9,0,1,1,0,1,1,0,0,0,100,1,1.186,26.0,0.0,-0.402,50.651,66.0,92.7,26.0,26.0,26.0,26.0,1.15,-1.85,0.33,373.6,-3.73,-2.59,-2.88,-1.29,-710.71,582.87,5.9,0.00,0.00,0.00,0.00,0.07,-7.49,-7.49,-0.40,4.44,0.21,-1.50,40.45,1.31,-0.73,-17.58,100.0,0,0,108.24,0,0,0.0,0,0,0,0,5773,0,30.00,4,145.9,1,0,0.0,0.0,0.0,0.0,1,0,2.307,2.307,50.651,17.788,1,110.00,435.8,8750,0.0,0.0,110.0,110.0,433.0,0.00,0,0,1,333.3,52.4,52.4,71.6,71.6,34.0,-3.95,-17.5,10.4,60.3,3,-160.770,-44.5,100.0,28.2,40.5,21.3,43.3,0,1,0.0,0.00,0.00,0.00,0.00,3592,8655,3877,5141,315.6,302.1,346.2,341.9,25.41,22.75,26.59,24.91,325.0,325.0,355.0,355.0,100.00,99.81,100.00,99.95,3.83,3.88,2.31,2.51,-11.1,-9.4,-6.9,-3.9,84.8,68.2,86.0,75.4,91.3,70.8,92.1,78.9,87.8,67.7,90.5,76.6,85.1,66.1,89.5,75.5,-2.56,2.54,0.09,0.04,0.00,108.26,113.55,106.19,110.28,56.6,15.7,2.203156826011258,145.84119291537772,46.093019000254394,-68.41932487400953,18.00508553808335
2.350,113.8,44.053641458868242,-78.681691476416091,-122.7,-105.7,74.7,-53.8,5135.7,5136,143.0,0,1,1,0,1,1,0,0,0,100,1,1.186,26.0,0.0,-0.405,50.651,66.0,76.5,26.0,26.0,26.0,26.0,1.17,-1.50,-0.04,378.1,-3.49,-3.62,-2.39,-1.95,-710.05,580.82,6.0,0.00,0.00,0.00,0.00,0.07,-7.49,-7.49,-0.27,0.24,-0.00,-4.79,39.64,1.30,-0.68,-13.39,100.0,0,0,108.36,0,0,0.0,0,0,0,0,5780,0,30.00,4,143.0,0,0,0.0,0.0,0.0,0.0,1,0,2.361,2.361,50.651,17.788,0,110.00,435.8,8750,0.0,0.0,110.0,110.0,433.0,0.00,0,0,1,166.7,62.3,62.3,66.7,66.7,34.0,-2.70,-14.9,49.4,65.5,3,-160.820,-46.8,100.0,22.1,35.2,25.1,40.6,0,1,0.0,0.00,0.00,0.00,0.00,2313,6902,4366,5005,319.1,306.1,344.6,342.5,25.41,22.75,26.60,24.91,325.0,325.0,355.0,355.0,100.00,99.82,100.00,99.95,4.16,4.15,2.29,2.48,-9.5,-9.3,-3.1,-3.3,84.8,68.2,86.0,75.4,91.3,71.0,92.0,79.0,87.9,67.9,90.5,76.7,85.2,66.3,89.4,75.5,-2.71,2.65,0.09,0.05,0.00,107.67,110.81,108.19,108.52,56.6,15.7,1.902761151589973,134.31793816531413,44.29251044644605,-180.05085566534547,-18.005086107107076
2.400,115.7,44.053626350265262,-78.681686350282945,-138.8,-89.4,-20.3,-71.4,5137.7,5138,141.0,0,1,1,0,1,1,0,0,0,100,1,1.186,26.0,0.0,-0.405,50.651,66.0,68.7,26.0,26.0,26.0,26.0,0.84,-1.12,-0.30,386.1,-2.81,-2.85,-1.94,-1.30,-709.48,579.14,6.0,0.00,0.00,0.00,0.00,0.07,-7.49,-7.49,-0.40,-4.47,-0.26,-8.75,39.12,1.19,-0.71,-8.24,100.0,0,0,106.07,0,0,0.0,0,0,0,0,5658,0,30.00,4,141.0,1,0,0.0,0.0,0.0,0.0,1,0,2.406,2.406,50.651,17.788,1,110.00,435.8,8750,0.0,0.0,110.0,110.0,433.0,0.00,0,0,1,333.3,70.4,70.4,74.8,74.8,34.0,-2.01,-11.9,8.8,42.5,3,-160.870,-49.3,100.0,15.2,30.7,24.1,37.1,0,1,0.0,0.00,0.00,0.00,0.00,1899,5567,1245,3301,320.3,309.5,351.6,346.4,25.41,22.75,26.60,24.91,325.0,325.0,355.0,355.0,100.00,99.82,100.00,99.95,4.38,4.35,2.06,2.17,-11.2,-8.9,-3.7,-2.9,84.8,68.2,86.0,75.4,91.3,71.2,92.0,79.0,87.9,68.1,90.4,76.7,85.2,66.5,89.4,75.5,-2.87,2.77,0.09,0.06,0.00,107.68,109.20,105.12,107.02,56.6,15.7,1.4317821063276353,127.83610734884317,44.292510389543686,-10.803051550459486,32.409154082354945
2.450,117.6,44.053609532951235,-78.681680414760351,90.6,-35.8,-111.8,-182.1,5139.6,5140,138.8,0,1,1,0,1,1,0,0,0,100,1,1.186,26.0,0.0,-0.408,50.651,66.0,68.0,26.0,26.0,26.0,26.0,0.80,-1.09,-0.25,388.9,-3.42,-2.88,-1.63,-1.44,-708.82,577.27,6.0,0.00,0.00,0.00,0.00,0.07,-7.49,-7.49,-0.61,-2.92,-0.50,-2.19,38.49,1.06,-0.74,-10.63,100.0,0,0,103.22,0,0,0.0,0,0,0,0,5506,0,30.00,4,138.8,0,0,0.0,0.0,0.0,0.0,1,0,2.457,2.457,50.651,17.788,0,110.00,435.8,8750,0.0,0.0,110.0,110.0,433.0,0.00,0,0,1,333.3,65.7,65.7,88.1,88.1,34.0,-4.47,-12.5,0.0,26.6,3,-160.920,-53.0,100.0,19.7,28.9,18.5,28.0,0,1,0.0,0.00,0.00,0.00,0.00,3623,6226,0,2312,316.1,308.1,355.0,348.9,25.41,22.75,26.60,24.91,325.0,325.0,355.0,355.0,100.00,99.82,100.00,99.95,4.25,4.28,0.00,2.04,-10.6,-8.5,0.0,-3.0,84.8,68.2,86.0,75.4,91.4,71.4,91.9,79.0,87.9,68.3,90.4,76.7,85.2,66.7,89.3,75.5,-3.06,2.99,0.11,0.08,0.00,104.49,108.39,100.99,105.45,56.6,15.7,1.3749909090608563,133.23763301026818,47.533425854681546,-10.803050981435689,21.606103669942698
2.500,119.5,44.053593075365846,-78.681674479237742,-24.6,-25.6,-32.0,-54.7,5141.5,5141,136.5,0,1,1,0,1,1,0,0,0,100,1,1.186,26.0,0.0,-0.408,50.651,66.0,73.4,26.0,26.0,26.0,26.0,0.79,-1.27,-0.17,389.8,-2.91,-2.46,-2.05,-1.63,-708.16,575.44,6.0,0.00,0.00,0.00,0.00,0.07,-7.49,-7.49,-0.67,-2.18,-0.66,-1.80,37.87,1.05,-0.66,-12.31,100.0,0,0,102.07,0,0,0.0,0,0,0,0,5444,0,30.00,4,136.5,1,0,0.0,0.0,0.0,0.0,1,0,2.508,2.508,50.651,17.788,1,110.00,435.8,8750,0.0,0.0,110.0,110.0,433.0,0.00,0,0,1,333.3,70.2,70.2,85.8,85.8,34.0,-3.94,-7.7,12.4,38.0,3,-160.970,-56.5,100.0,18.5,27.6,16.9,25.2,0,1,0.0,0.00,0.00,0.00,0.00,2898,4441,2083,3459,317.8,312.7,349.7,346.1,25.41,22.76,26.60,24.91,325.0,325.0,355.0,355.0,100.00,99.82,100.00,99.95,4.42,4.37,1.91,2.15,-9.3,-11.2,-4.6,-3.8,84.8,68.2,86.0,75.4,91.4,71.5,91.9,79.0,88.0,68.4,90.3,76.7,85.3,66.8,89.3,75.5,-3.30,3.19,0.10,0.08,0.00,103.47,102.89,101.10,103.04,56.6,15.7,1.5052906696050434,126.7558022506996,46.453120756537956,-90.02542740590513,-3.6010175628356933
2.550,121.4,44.053577876830701,-78.681668813511621,-9.0,-91.9,-24.1,37.8,5143.4,5143,134.5,0,1,1,0,1,1,0,0,0,100,1,1.186,26.0,0.0,-0.408,50.651,66.0,73.4,26.0,26.0,26.0,26.0,0.83,-0.99,-0.31,391.3,-3.07,-2.50,-1.83,-1.52,-707.53,573.75,6.0,0.00,0.00,0.00,0.00,0.07,-7.49,-7.49,-0.88,-5.75,-0.52,4.29,37.31,1.03,-0.68,-10.47,100.0,0,0,99.87,0,0,0.0,0,0,0,0,5327,0,30.00,4,134.5,0,0,0.0,0.0,0.0,0.0,1,0,2.556,2.556,50.651,17.788,0,110.00,435.8,8750,0.0,0.0,110.0,110.0,433.0,0.00,0,0,1,333.3,72.2,72.2,94.0,94.0,34.0,-3.24,-10.5,0.0,74.3,3,-161.010,-61.2,100.0,18.0,23.0,15.7,27.1,0,1,0.0,0.00,0.00,0.00,0.00,2846,4979,0,4425,318.3,311.7,355.0,343.1,25.41,22.76,26.60,24.91,325.0,325.0,355.0,355.0,100.00,99.82,100.00,99.95,4.66,4.69,0.00,2.03,-8.0,-8.1,0.0,-1.9,84.8,68.2,86.0,75.4,91.5,71.7,91.9,79.0,88.0,68.5,90.3,76.7,85.3,66.9,89.3,75.5,-3.56,3.45,0.10,0.07,0.00,102.98,104.41,96.30,103.44,56.6,15.7,1.3285706605220515,124.23509026967767,47.17332409839798,-14.40406882878321,28.808135950495526
2.600,123.2,44.053562048770438,-78.681662698124711,69.9,158.3,-99.8,-52.4,5145.2,5145,132.2,1,1,1,0,1,1,0,0,0,100,1,1.186,26.0,0.0,-0.408,50.651,66.0,73.4,26.0,26.0,26.0,26.0,1.01,-1.51,-0.01,386.5,-2.55,-1.52,-2.22,-1.38,-706.85,571.99,6.0,0.00,0.00,0.00,0.00,0.07,-7.49,-7.49,-1.10,-1.88,-0.28,5.20,36.66,0.99,-0.74,-14.51,100.0,0,0,95.10,0,0,0.0,0,0,0,0,5073,0,30.00,4,132.2,1,0,0.0,0.0,0.0,0.0,1,0,2.607,2.607,50.651,17.788,1,110.00,435.8,8750,0.0,0.0,110.0,110.0,433.0,0.00,0,0,1,333.3,59.3,59.3,92.3,92.3,34.0,-8.06,-18.9,-0.3,48.7,3,-161.070,-66.8,100.0,21.5,30.9,10.7,24.5,0,1,0.0,0.00,0.00,0.00,0.00,4948,7855,841,3900,312.8,303.1,352.9,345.5,25.41,22.76,26.60,24.91,325.0,325.0,355.0,355.0,100.00,99.82,100.00,99.95,4.74,4.85,1.89,2.12,-9.8,-8.3,-12.3,-3.2,84.8,68.2,86.0,75.4,91.6,71.9,91.8,79.0,88.1,68.7,90.2,76.7,85.4,67.1,89.2,75.5,-3.88,3.75,0.13,0.09,0.00,104.03,103.85,89.47,100.74,56.6,15.7,1.816672782864322,125.31539536782128,49.33393435158751,-54.01525689876195,10.803051550459415
2.650,125.0,44.053546580438820,-78.681656492805629,25.9,131.0,-12.0,4.8,5147.0,5147,129.8,1,1,1,0,1,1,0,0,0,100,1,1.186,26.0,0.0,-0.408,50.651,66.0,78.1,26.0,26.0,26.0,26.0,1.01,-1.38,-0.09,385.7,-3.51,-2.29,-2.56,-0.14,-706.16,570.27,6.0,0.00,0.00,0.00,0.00,0.07,-7.49,-7.49,-0.96,4.38,-0.10,0.65,35.98,1.04,-0.67,-20.06,100.0,0,0,94.84,0,0,0.0,0,0,0,0,5059,0,30.00,4,129.8,0,0,0.0,0.0,0.0,0.0,0,0,2.658,2.658,50.651,17.788,0,110.00,435.8,8750,0.0,0.0,110.0,110.0,433.0,0.00,0,0,1,333.3,60.2,60.2,86.1,86.1,34.0,-2.18,-16.7,-0.6,61.5,3,-161.120,-71.0,100.0,22.8,37.5,10.1,24.7,0,1,0.0,0.00,0.00,0.00,0.00,2374,6794,1528,4879,319.2,305.8,351.3,342.7,25.41,22.76,26.60,24.91,325.0,325.0,355.0,355.0,100.00,99.82,100.00,99.95,5.00,4.90,2.27,2.48,-15.5,-8.3,-10.0,-3.4,84.8,68.2,86.0,75.4,91.7,72.1,91.8,79.0,88.2,69.0,90.2,76.7,85.5,67.3,89.2,75.5,-4.14,4.00,0.12,0.10,0.00,94.56,101.63,90.27,99.42,56.6,15.7,1.7124835765635826,118.83356457980148,48.25362925344392,-90.02542740590513,-3.6010164247881704
2.700,126.8,44.053532371157445,-78.681650647215193,-141.7,-117.5,178.6,263.2,5148.8,5149,127.6,1,1,1,0,1,1,0,0,0,100,1,1.186,26.0,0.0,-0.405,50.651,66.0,90.9,26.0,26.0,26.0,26.0,1.08,-1.14,-0.01,384.3,-1.88,-2.27,-1.70,-0.46,-705.51,568.69,6.0,0.00,0.00,0.00,0.00,0.08,-7.49,-7.49,-0.92,-2.63,-0.33,-10.26,35.39,1.07,-0.61,-14.24,100.0,0,0,94.56,0,0,0.0,0,0,0,0,5044,0,30.00,4,127.6,1,0,0.0,0.0,0.0,0.0,0,0,2.706,2.706,50.651,17.788,1,110.00,435.8,8750,0.0,0.0,110.0,110.0,433.0,0.00,0,0,1,333.3,70.2,70.2,75.9,75.9,34.0,-1.07,-13.6,3.7,85.4,3,-161.160,-76.0,100.0,15.7,31.6,19.0,37.9,0,1,0.0,0.00,0.00,0.00,0.00,953,5853,2062,5280,322.5,308.8,350.0,340.9,25.41,22.76,26.60,24.91,325.0,325.0,355.0,355.0,100.00,99.82,100.00,99.95,5.69,5.57,2.29,2.49,-11.7,-9.5,-7.3,-2.4,84.8,68.3,86.0,75.4,91.7,72.3,91.8,79.0,88.2,69.1,90.2,76.7,85.4,67.5,89.2,75.6,-4.44,4.26,0.10,0.05,0.00,95.78,97.12,91.66,97.46,56.6,15.7,1.5703821191035003,116.31285262723077,48.97383270910869,-18.00508553808342,32.409154082354874
2.750,128.6,44.053517532350945,-78.681644262031782,44.3,-51.3,4.7,-186.5,5150.5,5151,125.3,1,1,1,0,1,1,0,0,0,100,1,1.186,26.0,0.0,-0.402,50.651,66.0,100.0,26.0,26.0,26.0,26.0,0.78,-1.20,-0.30,387.6,-1.92,-1.58,-2.18,-0.88,-704.80,567.04,6.0,0.00,0.00,0.00,0.00,0.08,-7.49,-7.49,-1.16,-4.49,-0.85,-8.13,34.76,1.05,-0.67,-14.62,100.0,0,0,90.72,0,0,0.0,0,0,0,0,4839,0,30.00,4,125.3,0,0,0.0,0.0,0.0,0.0,0,0,2.757,2.757,50.651,17.788,0,110.00,435.8,8750,0.0,0.0,110.0,110.0,433.0,0.00,0,0,1,333.3,67.7,67.7,83.4,83.4,34.0,-4.37,-10.9,0.4,17.0,3,-161.210,-82.5,100.0,17.9,29.1,19.2,28.6,0,1,0.0,0.00,0.00,0.00,0.00,3325,5823,1315,2556,317.1,309.3,352.0,348.4,25.41,22.76,26.60,24.91,325.0,325.0,355.0,355.0,100.00,99.82,100.00,99.95,6.01,5.89,2.31,2.43,-14.6,-13.6,-8.6,-5.0,84.8,68.3,86.0,75.4,91.7,72.5,91.7,79.0,88.2,69.3,90.2,76.7,85.5,67.7,89.1,75.6,-4.83,4.62,0.09,0.07,0.00,87.75,90.77,88.31,93.12,56.6,15.7,1.462326912834473,117.03305602599313,51.494544661679406,-57.61627389257413,14.404067975247727
