Time,Distance,GPS Latitude,GPS Longitude,Damper Velocity (Calc) FL,Damper Velocity (Calc) FR,Damper Velocity (Calc) RL,Damper Velocity (Calc) RR,Corr Dist,Corr Dist (Unstretched),Corr Speed,ABS Active,ABS Enabled,AID Allow Tire Blankets,AID Auto Blip,AID Auto Clutch,AID Auto Shift,AID Fuel Rate,AID Ideal Line,AID Mech Damage,AID Stability,AID Tire Wear Rate,Air Density,Air Temp,Ballast,Best Lap Delta,Best Lap Time,Brake Bias,Brake Pos,Brake Temp FL,Brake Temp FR,Brake Temp RL,Brake Temp RR,CG Accel Lateral,CG Accel Longitudinal,CG Accel Vertical,CG Height,Camber FL,Camber FR,Camber RL,Camber RR,Car Coord X,Car Coord Y,Car Coord Z,Car Damage Front,Car Damage Left,Car Damage Rear,Car Damage Right,Car Pos Norm,Caster FL,Caster FR,Chassis Pitch Angle,Chassis Pitch Rate,Chassis Roll Angle,Chassis Roll Rate,Chassis Velocity X,Chassis Velocity Y,Chassis Velocity Z,Chassis Yaw Rate,Clutch Pos,DRS Active,DRS Available,Drive Train Speed,ERS Heat Charging,ERS Is Charging,ERS Max Energy,ERS Power Level,ERS Recovery Level,Engine Brake Setting,Engine Limiter,Engine RPM,Flags,Fuel Level,Gear,Ground Speed,HR Sample Clock,In Pit,KERS Charge,KERS Deployed Energy,KERS Input,KERS Max Energy,LR Sample Clock,Lap Invalidated,Lap Time,Lap Time2,Last Lap Time,Last Sector Time,MR Sample Clock,Max Fuel,Max Power,Max RPM,Max Sus Travel FL,Max Sus Travel FR,Max Sus Travel RL,Max Sus Travel RR,Max Torque,Max Turbo Boost,Num Tires Off Track,Penalties Enabled,Position,Raw Data Sample Rate,Ride Height FL,Ride Height FR,Ride Height RL,Ride Height RR,Road Temp,Self Align Torque FL,Self Align Torque FR,Self Align Torque RL,Self Align Torque RR,Session Lap Count,Session Time Left,Steering Angle,Surface Grip,Suspension Travel FL,Suspension Travel FR,Suspension Travel RL,Suspension Travel RR,TC Active,TC Enabled,Throttle Pos,Tire Dirt Level FL,Tire Dirt Level FR,Tire Dirt Level RL,Tire Dirt Level RR,Tire Load FL,Tire Load FR,Tire Load RL,Tire Load RR,Tire Loaded Radius FL,Tire Loaded Radius FR,Tire Loaded Radius RL,Tire Loaded Radius RR,Tire Pressure FL,Tire Pressure FR,Tire Pressure RL,Tire Pressure RR,Tire Radius FL,Tire Radius FR,Tire Radius RL,Tire Radius RR,Tire Rubber Grip FL,Tire Rubber Grip FR,Tire Rubber Grip RL,Tire Rubber Grip RR,Tire Slip Angle FL,Tire Slip Angle FR,Tire Slip Angle RL,Tire Slip Angle RR,Tire Slip Ratio FL,Tire Slip Ratio FR,Tire Slip Ratio RL,Tire Slip Ratio RR,Tire Temp Core FL,Tire Temp Core FR,Tire Temp Core RL,Tire Temp Core RR,Tire Temp Inner FL,Tire Temp Inner FR,Tire Temp Inner RL,Tire Temp Inner RR,Tire Temp Middle FL,Tire Temp Middle FR,Tire Temp Middle RL,Tire Temp Middle RR,Tire Temp Outer FL,Tire Temp Outer FR,Tire Temp Outer RL,Tire Temp Outer RR,Toe In FL,Toe In FR,Toe In RL,Toe In RR,Turbo Boost,Wheel Angular Speed FL,Wheel Angular Speed FR,Wheel Angular Speed RL,Wheel Angular Speed RR,Wind Direction,Wind Speed,CG Distance,Lateral Velocity,Longitudinal Velocity,Lateral Acceleration,Longitudinal Acceleration
s,m,deg,deg,mm/s,mm/s,mm/s,mm/s,m,m,km/h,,,,,,,,,%,%,,kg/m3,C,kg,s,s,%,%,C,C,C,C,G,G,G,mm,deg,deg,deg,deg,m,m,m,,,,,,deg,deg,deg,deg/s,deg,deg/s,m/s,m/s,m/s,deg/s,%,,,rad/s,,,MJ,,,,,rpm,,l,,km/h,,,%,kJ,%,MJ,,,s,s,s,s,,l,hp,rpm,mm,mm,mm,mm,N.m,,,,,Hz,mm,mm,mm,mm,C,N.m,N.m,N.m,N.m,,s,deg,%,mm,mm,mm,mm,,,%,,,,,N,N,N,N,mm,mm,mm,mm,psi,psi,psi,psi,mm,mm,mm,mm,%,%,%,%,deg,deg,deg,deg,%,%,%,%,C,C,C,C,C,C,C,C,C,C,C,C,C,C,C,C,deg,deg,deg,deg,,rad/s,rad/s,rad/s,rad/s,deg,km/h,G,Km/h,Km/h,Km/h^2,Km/h^2
0.000,0.0,44.054617492607143,-78.681963521201894,9.4,-14.9,-35.9,-2.4,10209.8,10210,172.8,0,1,1,0,1,1,0,0,0,100,1,1.186,26.0,0.0,0.000,47.092,66.0,0.0,26.0,26.0,26.0,26.0,0.38,0.34,0.13,376.4,-3.35,-2.63,-1.38,-1.80,-740.30,689.35,5.7,0.00,0.00,0.00,0.00,0.00,-7.49,-7.49,-0.25,-0.19,0.23,-5.96,48.01,0.20,-0.39,-3.77,100.0,0,0,137.12,0,0,0.0,0,0,0,0,7314,0,30.00,4,172.8,0,0,0.0,0.0,0.0,0.0,0,0,0.036,0.036,48.829,17.577,0,110.00,435.8,8750,0.0,0.0,110.0,110.0,433.0,0.00,0,0,1,333.3,69.1,69.1,61.2,61.2,34.0,2.75,50.73,7.4,41.5,6,-294.790,-6.2,100.0,19.8,24.7,38.3,43.4,0,1,100.0,0.00,0.00,0.00,0.00,4248,4767,5142,4622,314.7,311.4,342.9,341.7,27.02,23.48,27.44,25.47,325.0,325.0,355.0,355.0,99.83,100.00,99.87,99.96,0.44,0.51,0.33,0.43,-0.1,-0.1,1.8,1.6,94.9,72.7,91.3,78.9,103.3,74.2,94.5,80.7,99.7,71.0,93.2,78.3,95.6,69.0,91.7,76.9,-0.33,0.33,0.06,0.04,0.00,147.10,147.31,137.12,137.12,88.0,25.5,0.5262128846769148
0.050,2.4,44.054597347803174,-78.681958395068733,-88.2,-144.7,-26.6,-50.6,10212.2,10212,173.4,0,1,1,0,1,1,0,0,0,100,1,1.186,26.0,0.0,0.000,47.092,66.0,0.0,26.0,26.0,26.0,26.0,0.34,0.40,-0.19,382.6,-2.75,-2.24,-1.76,-1.46,-739.73,687.11,5.7,0.00,0.00,0.00,0.00,0.00,-7.49,-7.49,-0.27,-2.57,0.09,-1.58,48.17,0.22,-0.32,-3.54,100.0,0,0,137.31,0,0,0.0,0,0,0,0,7324,0,30.00,4,173.4,1,0,0.0,0.0,0.0,0.0,0,0,0.084,0.084,48.829,17.577,1,110.00,435.8,8750,0.0,0.0,110.0,110.0,433.0,0.00,0,0,1,333.3,81.4,81.4,62.9,62.9,34.0,5.73,26.53,2.1,45.4,6,-294.830,-8.0,100.0,15.4,17.5,37.0,40.9,0,1,100.0,0.00,0.00,0.00,0.00,1999,2841,5905,5343,320.4,317.5,341.1,341.1,27.02,23.48,27.44,25.47,325.0,325.0,355.0,355.0,99.83,100.00,99.87,99.96,0.61,0.60,0.30,0.44,-0.1,-0.1,1.8,1.5,94.9,72.7,91.3,78.9,103.3,74.2,94.4,80.7,99.6,70.9,93.1,78.3,95.6,69.0,91.7,76.9,-0.44,0.43,0.06,0.05,0.00,147.32,147.63,137.31,137.31,88.0,25.5,0.5583009940883145,171.40841436807565,43.93240874706487
0.100,4.8,44.054574684898704,-78.681952549478297,78.8,4.9,-108.8,-91.2,10214.6,10215,173.9,0,1,1,0,1,1,0,0,0,100,1,1.186,26.0,0.0,0.000,47.092,66.0,0.0,26.0,26.0,26.0,26.0,0.35,0.32,-0.31,384.9,-1.63,-1.52,-2.06,-1.15,-739.08,684.59,5.7,0.00,0.00,0.00,0.00,0.01,-7.49,-7.49,-0.53,-3.30,0.26,7.21,48.32,0.23,-0.45,-5.05,100.0,0,0,139.23,0,0,0.0,0,0,0,0,7427,0,30.00,4,173.9,0,0,0.0,0.0,0.0,0.0,0,0,0.138,0.138,48.829,17.577,0,110.00,435.8,8750,0.0,0.0,110.0,110.0,433.0,0.00,0,0,1,166.7,75.2,75.2,75.6,75.6,34.0,9.65,50.18,-0.5,25.0,6,-294.890,-8.7,100.0,19.3,17.8,31.6,36.3,0,1,100.0,0.00,0.00,0.00,0.00,2342,4995,2643,4313,319.1,312.2,349.0,344.4,27.02,23.47,27.44,25.47,325.0,325.0,355.0,355.0,99.83,100.00,99.87,99.96,0.56,0.63,0.29,0.39,-0.0,-0.1,2.7,2.5,94.9,72.7,91.3,78.9,103.2,74.1,94.4,80.6,99.5,70.9,93.1,78.3,95.5,69.0,91.6,76.8,-0.50,0.49,0.08,0.05,0.00,147.78,148.26,139.23,139.23,88.0,25.5,0.5665686189686118,171.768516095908,44.65261214582725,-93.62644468422872,-10.803051550459557
0.150,7.2,44.054554450162570,-78.681947243480820,-67.6,236.5,38.4,-60.7,10217.0,10217,174.5,0,1,1,0,1,1,0,0,0,100,1,1.186,26.0,0.0,0.000,47.092,66.0,0.0,26.0,26.0,26.0,26.0,0.45,0.37,-0.02,380.6,-2.30,-2.40,-0.68,-1.39,-738.49,682.34,5.7,0.00,0.00,0.00,0.00,0.01,-7.49,-7.49,-0.53,1.23,0.20,-2.83,48.49,0.30,-0.40,-6.60,100.0,0,0,138.44,0,0,0.0,0,0,0,0,7385,0,30.00,4,174.5,1,0,0.0,0.0,0.0,0.0,0,0,0.186,0.186,48.829,17.577,1,110.00,435.8,8750,0.0,0.0,110.0,110.0,433.0,0.00,0,0,1,333.3,71.6,71.6,58.4,58.4,34.0,8.66,55.04,21.1,49.2,6,-294.940,-7.3,100.0,16.0,29.6,33.5,33.3,0,1,100.0,0.00,0.00,0.00,0.00,2514,4804,5329,4829,319.1,312.1,341.6,342.8,27.02,23.48,27.44,25.47,325.0,325.0,355.0,355.0,99.83,100.00,99.87,99.96,0.59,0.65,0.44,0.64,-0.1,-0.1,2.0,1.5,94.9,72.7,91.3,78.9,103.1,74.1,94.3,80.6,99.4,70.9,93.0,78.3,95.4,69.0,91.6,76.8,-0.44,0.44,0.07,0.08,0.00,148.39,148.97,138.44,138.44,88.0,25.5,0.5829236656715869,162.04576989965278,42.85210359201891,-43.21220534830246,7.202033987623935
0.200,9.7,44.054534215426436,-78.681941847551187,77.0,-32.6,-17.4,290.8,10219.4,10219,175.1,0,1,1,0,1,1,0,0,0,100,1,1.186,26.0,0.0,-0.003,47.092,66.0,0.0,26.0,26.0,26.0,26.0,0.49,0.32,0.16,376.9,-3.20,-3.00,-1.21,-1.67,-737.89,680.09,5.7,0.00,0.00,0.00,0.00,0.01,-7.49,-7.49,-0.50,1.26,-0.08,-10.73,48.64,0.32,-0.42,-6.31,100.0,0,0,139.24,0,0,0.0,0,0,0,0,7427,0,30.00,4,175.1,0,0,0.0,0.0,0.0,0.0,0,0,0.234,0.234,48.829,17.577,0,110.00,435.8,8750,0.0,0.0,110.0,110.0,433.0,0.00,0,0,1,333.3,69.5,69.5,62.6,62.6,34.0,3.92,61.67,18.9,51.7,6,-294.980,-4.2,100.0,19.8,28.0,32.6,47.9,0,1,100.0,0.00,0.00,0.00,0.00,1899,5133,4771,4851,319.9,310.1,343.9,342.9,27.02,23.48,27.44,25.47,325.0,325.0,355.0,355.0,99.83,100.00,99.87,99.96,0.57,0.57,0.56,0.67,-0.0,-0.0,2.1,1.6,94.9,72.7,91.3,78.9,103.0,74.1,94.3,80.6,99.4,70.9,93.0,78.3,95.3,69.0,91.5,76.8,-0.27,0.28,0.07,0.03,0.00,148.84,149.43,139.24,139.24,88.0,25.5,0.6067124524847005,167.44729556107777,45.37281554458964,108.03051322850024,46.81322262662633
0.250,12.1,44.054512631707894,-78.681935912028592,16.3,-82.7,140.0,-115.2,10221.9,10222,175.7,0,1,1,0,1,1,0,0,0,100,1,1.186,26.0,0.0,-0.003,47.092,66.0,0.0,26.0,26.0,26.0,26.0,0.45,0.38,0.26,374.3,-2.94,-2.41,-1.58,-1.14,-737.23,677.69,5.7,0.00,0.00,0.00,0.00,0.01,-7.49,-7.49,-0.45,0.42,-0.36,0.29,48.81,0.33,-0.37,-3.70,100.0,0,0,138.90,0,0,0.0,0,0,0,0,7409,0,30.00,4,175.7,1,0,0.0,0.0,0.0,0.0,0,0,0.285,0.285,48.829,17.577,1,110.00,435.8,8750,0.0,0.0,110.0,110.0,433.0,0.00,0,0,1,333.3,69.6,69.6,59.3,59.3,34.0,-0.53,40.28,14.1,69.9,6,-295.040,-1.5,100.0,20.6,23.8,39.6,42.1,0,1,100.0,0.00,0.00,0.00,0.00,4837,4565,5773,6714,313.8,313.0,339.9,337.6,27.02,23.48,27.45,25.47,325.0,325.0,355.0,355.0,99.83,100.00,99.87,99.96,0.33,0.41,0.43,0.58,-0.1,-0.1,1.5,1.3,94.9,72.7,91.3,78.9,102.9,74.1,94.3,80.6,99.3,70.9,93.0,78.3,95.2,68.9,91.5,76.8,-0.09,0.08,0.07,0.04,0.00,149.55,149.83,138.90,138.90,88.0,25.5,0.6438167441127949,172.8488212225028,47.533425854681546,7.202033987624077,10.80305211948314
0.300,14.6,44.054491047989352,-78.681929976505984,57.6,-72.3,-61.2,17.1,10224.3,10224,176.3,0,1,1,0,1,1,0,0,0,100,1,1.186,26.0,0.0,-0.003,47.092,66.0,0.0,26.0,26.0,26.0,26.0,0.23,0.32,0.02,376.9,-1.91,-1.36,-2.15,-1.41,-736.57,675.29,5.7,0.00,0.00,0.00,0.00,0.01,-7.49,-7.49,-0.40,0.71,-0.17,6.64,48.97,0.30,-0.34,-1.76,100.0,0,0,139.72,0,0,0.0,0,0,0,0,7453,0,30.00,4,176.3,0,0,0.0,0.0,0.0,0.0,1,0,0.336,0.336,48.829,17.577,0,110.00,435.8,8750,0.0,0.0,110.0,110.0,433.0,0.00,0,0,1,166.7,70.4,70.4,70.2,70.2,34.0,1.89,20.45,-3.4,52.4,6,-295.080,-0.2,100.0,23.5,20.2,36.5,43.0,0,1,100.0,0.00,0.00,0.00,0.00,4493,3728,5082,6286,313.2,315.4,343.3,339.5,27.02,23.48,27.45,25.47,325.0,325.0,355.0,355.0,99.83,100.00,99.87,99.96,0.25,0.28,0.27,0.42,-0.0,-0.1,1.7,1.6,94.9,72.7,91.3,78.9,102.8,74.1,94.2,80.6,99.2,70.8,92.9,78.3,95.2,68.9,91.5,76.8,-0.02,0.01,0.06,0.04,0.00,150.12,150.18,139.72,139.72,88.0,25.5,0.39458839313897714,168.16749895984017,46.453120756537956,-39.61118835449071,-3.6010175628356933
0.350,17.0,44.054470633388902,-78.681924310779863,-41.8,154.9,32.4,-7.2,10226.8,10227,176.8,0,1,1,0,1,1,0,0,0,100,1,1.186,26.0,0.0,-0.006,47.092,66.0,0.0,26.0,26.0,26.0,26.0,0.21,0.33,0.03,376.5,-2.35,-2.54,-1.81,-0.71,-735.94,673.02,5.7,0.00,0.00,0.00,0.00,0.01,-7.49,-7.49,-0.39,1.40,0.05,1.00,49.11,0.25,-0.39,-1.59,100.0,0,0,140.62,0,0,0.0,0,0,0,0,7501,0,30.00,4,176.8,1,0,0.0,0.0,0.0,0.0,1,0,0.384,0.384,48.829,17.577,1,110.00,435.8,8750,0.0,0.0,110.0,110.0,433.0,0.00,0,0,1,333.3,68.4,68.4,60.0,60.0,34.0,-3.60,34.98,-1.5,25.3,6,-295.130,0.4,100.0,21.4,27.9,38.2,42.6,0,1,100.0,0.00,0.00,0.00,0.00,3070,4801,5062,4604,317.5,312.0,343.6,343.5,27.02,23.48,27.45,25.47,325.0,325.0,355.0,355.0,99.83,100.00,99.87,99.96,0.18,0.24,0.25,0.36,-0.1,-0.0,2.0,1.8,94.9,72.7,91.3,79.0,102.7,74.0,94.2,80.6,99.1,70.8,92.9,78.2,95.1,68.9,91.4,76.8,0.03,-0.03,0.07,0.04,0.00,150.58,150.64,140.62,140.62,88.0,25.5,0.39230090491866065,168.88770238705374,47.17332409839798,61.21729117089757,28.808135950495526
0.400,19.5,44.054448869806038,-78.681918195392953,-70.7,-96.7,-10.0,89.7,10229.2,10229,177.4,0,1,1,0,1,1,0,0,0,100,1,1.186,26.0,0.0,-0.003,47.092,66.0,0.0,26.0,26.0,26.0,26.0,0.19,0.38,0.06,376.5,-3.58,-1.94,-0.94,-1.56,-735.26,670.60,5.7,0.00,0.00,0.00,0.00,0.01,-7.49,-7.49,-0.38,-1.71,0.02,-6.64,49.29,0.20,-0.37,-0.60,100.0,0,0,140.31,0,0,0.0,0,0,0,0,7484,0,30.00,4,177.4,0,0,0.0,0.0,0.0,0.0,1,0,0.435,0.435,48.829,17.577,0,110.00,435.8,8750,0.0,0.0,110.0,110.0,433.0,0.00,0,0,1,333.3,74.1,74.1,58.4,58.4,34.0,-8.47,26.84,4.8,47.7,6,-295.190,1.2,100.0,17.9,23.1,37.7,47.1,0,1,100.0,0.00,0.00,0.00,0.00,2639,4657,5601,5966,319.1,312.7,340.7,339.4,27.02,23.48,27.45,25.47,325.0,325.0,355.0,355.0,99.83,100.00,99.87,99.96,0.15,0.20,0.21,0.35,-0.0,-0.0,1.5,1.5,94.9,72.7,91.3,79.0,102.6,74.0,94.1,80.6,99.0,70.8,92.8,78.2,95.0,68.8,91.4,76.8,0.08,-0.07,0.06,0.03,0.00,150.91,151.11,140.31,140.31,88.0,25.5,0.42906875905849867,174.28922807692993,49.33393435158751,7.202034556648016,10.803051550459415
0.450,22.0,44.054427106223173,-78.681911990073871,-40.1,-46.1,16.8,-224.2,10231.7,10232,178.0,0,1,1,0,1,1,0,0,0,100,1,1.186,26.0,0.0,-0.006,47.092,66.0,0.0,26.0,26.0,26.0,26.0,0.05,0.32,-0.26,384.2,-2.73,-3.19,-2.29,-1.33,-734.57,668.18,5.7,0.00,0.00,0.00,0.00,0.01,-7.49,-7.49,-0.51,-2.94,-0.41,-7.25,49.44,0.12,-0.40,0.63,100.0,0,0,141.39,0,0,0.0,0,0,0,0,7542,0,30.00,4,178.0,1,0,0.0,0.0,0.0,0.0,1,0,0.486,0.486,48.829,17.577,1,110.00,435.8,8750,0.0,0.0,110.0,110.0,433.0,0.00,0,0,1,333.3,80.6,80.6,67.1,67.1,34.0,-7.24,4.64,-10.8,26.8,6,-295.240,2.3,100.0,15.9,20.8,38.5,35.9,0,1,100.0,0.00,0.00,0.00,0.00,2392,1140,4229,4965,318.9,321.6,345.4,342.6,27.02,23.48,27.45,25.47,325.0,325.0,355.0,355.0,99.83,100.00,99.87,99.96,0.08,0.03,0.13,0.25,-0.1,-0.0,1.9,1.9,94.9,72.7,91.3,79.0,102.5,74.0,94.1,80.5,98.9,70.7,92.8,78.2,94.9,68.8,91.3,76.8,0.13,-0.15,0.07,0.06,0.00,151.47,151.31,141.39,141.39,88.0,25.5,0.4153311931459038,169.60790584271854,48.25362925344392,-43.21220534830246,-10.803050981435902
0.500,24.4,44.054406511758394,-78.681906144483435,-4.0,-149.3,-86.1,-6.1,10234.2,10234,178.5,0,1,1,0,1,1,0,0,0,100,1,1.186,26.0,0.0,-0.006,47.092,66.0,0.0,26.0,26.0,26.0,26.0,0.04,0.24,-0.50,388.4,-2.08,-3.16,-1.37,-2.78,-733.92,665.89,5.7,0.00,0.00,0.00,0.00,0.02,-7.49,-7.49,-0.73,-5.47,-0.60,-3.34,49.59,0.05,-0.45,1.54,100.0,0,0,142.25,0,0,0.0,0,0,0,0,7588,0,30.00,4,178.5,0,0,0.0,0.0,0.0,0.0,1,0,0.534,0.534,48.829,17.577,0,110.00,435.8,8750,0.0,0.0,110.0,110.0,433.0,0.00,0,0,1,333.3,83.9,83.9,77.8,77.8,34.0,-9.94,4.93,-7.8,18.8,6,-295.280,2.8,100.0,15.7,13.3,34.2,35.6,0,1,100.0,0.00,0.00,0.00,0.00,2773,1346,3303,3433,318.7,321.1,347.9,345.8,27.03,23.48,27.45,25.47,325.0,325.0,355.0,355.0,99.83,100.00,99.87,99.96,-0.05,-0.02,-0.03,0.09,-0.1,-0.1,2.1,2.2,94.9,72.7,91.3,79.0,102.4,73.9,94.0,80.5,98.8,70.7,92.7,78.2,94.8,68.8,91.3,76.7,0.16,-0.17,0.07,0.05,0.00,151.81,151.71,142.25,142.25,88.0,25.5,0.5560575509783138,169.96800754209968,48.25362925344392,61.21729060187363,14.404068544271453
0.550,26.9,44.054384658243372,-78.681899939164353,49.6,9.8,-74.7,-159.6,10236.7,10237,179.1,0,1,1,0,1,1,0,0,0,100,1,1.186,26.0,0.0,-0.006,47.092,66.0,0.0,26.0,26.0,26.0,26.0,-0.06,0.27,-0.39,389.2,-1.73,-2.87,-1.45,-1.77,-733.23,663.46,5.7,0.00,0.00,0.00,0.00,0.02,-7.49,-7.49,-0.94,-2.89,-0.40,7.57,49.75,-0.03,-0.46,2.78,100.0,0,0,142.99,0,0,0.0,0,0,0,0,7627,0,30.00,4,179.1,1,0,0.0,0.0,0.0,0.0,1,0,0.585,0.585,48.829,17.577,1,110.00,435.8,8750,0.0,0.0,110.0,110.0,433.0,0.00,0,0,1,333.3,80.1,80.1,81.7,81.7,34.0,-15.07,5.86,-12.1,7.7,6,-295.330,3.0,100.0,18.2,13.8,30.5,27.6,0,1,100.0,0.00,0.00,0.00,0.00,2926,2649,2853,3718,317.5,318.2,348.5,345.8,27.03,23.47,27.45,25.47,325.0,325.0,355.0,355.0,99.83,100.00,99.87,99.96,-0.20,-0.15,-0.23,-0.07,-0.0,-0.1,2.2,2.4,94.9,72.7,91.3,79.0,102.3,73.8,94.0,80.5,98.7,70.6,92.7,78.2,94.7,68.7,91.2,76.7,0.19,-0.19,0.08,0.08,0.00,152.49,152.23,142.99,142.99,88.0,25.5,0.47812132351527686,175.7296349029059,49.694036107871064,64.81830788019778,14.404068544271453
0.600,29.4,44.054362624864027,-78.681893733845271,70.2,-0.1,-28.3,101.0,10239.2,10239,179.7,0,1,1,0,1,1,0,0,0,100,1,1.186,26.0,0.0,-0.006,47.092,66.0,0.0,26.0,26.0,26.0,26.0,-0.22,0.29,-0.25,386.5,-1.95,-2.57,-1.32,-0.95,-732.54,661.01,5.7,0.00,0.00,0.00,0.00,0.02,-7.49,-7.49,-0.99,-1.12,-0.01,9.13,49.91,-0.08,-0.40,2.80,100.0,0,0,142.83,0,0,0.0,0,0,0,0,7619,0,30.00,4,179.7,0,0,0.0,0.0,0.0,0.0,1,0,0.636,0.636,48.829,17.577,0,110.00,435.8,8750,0.0,0.0,110.0,110.0,433.0,0.00,0,0,1,333.3,79.4,79.4,83.5,83.5,34.0,-26.83,0.36,-29.3,-0.5,6,-295.390,2.8,100.0,21.7,13.8,29.1,32.6,0,1,100.0,0.00,0.00,0.00,0.00,4167,927,4548,3911,315.6,322.8,344.1,345.0,27.03,23.47,27.45,25.47,325.0,325.0,355.0,355.0,99.83,100.00,99.87,99.96,-0.28,-0.25,-0.34,-0.16,-0.0,-0.1,1.7,2.0,94.9,72.7,91.3,79.0,102.2,73.8,93.9,80.5,98.6,70.6,92.6,78.1,94.6,68.7,91.1,76.7,0.17,-0.18,0.08,0.07,0.00,153.11,152.75,142.83,142.83,88.0,25.5,0.44158804331639234,176.44983833011946,49.694036107871064,-39.61118835449042,-14.404068544271453
0.650,31.9,44.054340591484682,-78.681887528526190,29.4,180.4,98.0,35.2,10241.7,10242,180.2,0,1,1,0,1,1,0,0,0,100,1,1.186,26.0,0.0,-0.009,47.092,66.0,0.0,26.0,26.0,26.0,26.0,-0.19,0.27,0.05,379.1,-2.55,-2.43,-0.78,-1.55,-731.85,658.56,5.7,0.00,0.00,0.00,0.00,0.02,-7.49,-7.49,-1.06,0.37,0.41,6.90,50.07,-0.09,-0.44,2.62,100.0,0,0,143.39,0,0,0.0,0,0,0,0,7648,0,30.00,4,180.2,1,0,0.0,0.0,0.0,0.0,1,0,0.687,0.687,48.829,17.577,1,110.00,435.8,8750,0.0,0.0,110.0,110.0,433.0,0.00,0,0,1,166.7,67.3,67.3,69.9,69.9,34.0,-32.53,12.85,-21.9,2.0,6,-295.440,1.3,100.0,23.1,22.9,34.0,34.4,0,1,100.0,0.00,0.00,0.00,0.00,4553,5248,4352,3288,313.9,310.8,344.6,346.5,27.03,23.47,27.45,25.47,325.0,325.0,355.0,355.0,99.83,100.00,99.87,99.96,-0.23,-0.12,-0.31,-0.18,-0.1,-0.0,1.8,1.9,94.9,72.7,91.3,79.0,102.1,73.7,93.8,80.4,98.6,70.5,92.6,78.1,94.6,68.6,91.1,76.7,0.10,-0.10,0.06,0.06,0.00,153.66,153.57,143.39,143.39,88.0,25.5,0.33391615714128003,171.76851606745686,48.25362925344392,-36.01017107616656,-14.404068544271453
0.700,34.4,44.054319727223429,-78.681881682935753,4.2,92.7,64.2,88.6,10244.2,10244,180.8,0,1,1,0,1,1,0,0,0,100,1,1.186,26.0,0.0,-0.006,47.092,66.0,0.0,26.0,26.0,26.0,26.0,-0.14,0.38,0.28,374.0,-2.84,-2.57,-1.87,-1.14,-731.20,656.24,5.6,0.00,0.00,0.00,0.00,0.02,-7.49,-7.49,-0.89,4.22,0.49,-4.59,50.24,-0.10,-0.34,1.13,100.0,0,0,142.86,0,0,0.0,0,0,0,0,7620,0,30.00,4,180.8,0,0,0.0,0.0,0.0,0.0,1,0,0.735,0.735,48.829,17.577,0,110.00,435.8,8750,0.0,0.0,110.0,110.0,433.0,0.00,0,0,1,166.7,68.4,68.4,59.6,59.6,34.0,-16.38,12.21,-43.4,15.8,6,-295.480,-0.1,100.0,23.4,27.5,37.2,38.8,0,1,100.0,0.00,0.00,0.00,0.00,3195,3977,6093,7100,317.2,313.7,340.2,337.2,27.03,23.47,27.45,25.48,325.0,325.0,355.0,355.0,99.83,100.00,99.87,99.96,-0.07,-0.08,-0.22,-0.02,-0.0,-0.0,1.3,1.4,94.9,72.7,91.3,79.0,102.1,73.7,93.8,80.4,98.5,70.5,92.5,78.1,94.5,68.6,91.1,76.6,0.01,-0.02,0.06,0.05,0.00,154.20,154.10,142.86,142.86,88.0,25.5,0.49234134500364685,172.8488212225028,48.25362925344392,68.41932544303319,10.803051550459557
0.750,37.0,44.054297424047597,-78.681875477616671,-55.1,-164.4,148.2,125.3,10246.7,10247,181.4,0,1,1,0,1,1,0,0,0,100,1,1.186,26.0,0.0,-0.006,47.092,66.0,0.0,26.0,26.0,26.0,26.0,-0.12,0.37,-0.06,376.3,-2.24,-2.13,-1.58,-1.89,-730.51,653.76,5.6,0.00,0.00,0.00,0.00,0.02,-7.49,-7.49,-0.87,-2.62,0.16,-5.73,50.40,-0.08,-0.34,0.43,100.0,0,0,143.53,0,0,0.0,0,0,0,0,7656,0,30.00,4,181.4,1,0,0.0,0.0,0.0,0.0,1,0,0.786,0.786,48.829,17.577,1,110.00,435.8,8750,0.0,0.0,110.0,110.0,433.0,0.00,0,0,1,166.7,77.6,77.6,59.8,59.8,34.0,-12.20,5.66,-31.2,18.6,6,-295.540,-0.9,100.0,20.6,19.3,44.6,45.1,0,1,100.0,0.00,0.00,0.00,0.00,3203,2114,6043,5178,317.2,320.4,340.5,341.2,27.03,23.47,27.45,25.48,325.0,325.0,355.0,355.0,99.83,100.00,99.87,99.96,-0.03,0.01,-0.13,-0.02,-0.1,-0.0,1.5,1.5,94.9,72.7,91.3,79.0,102.0,73.7,93.8,80.4,98.4,70.5,92.5,78.1,94.4,68.5,91.0,76.6,-0.03,0.04,0.05,0.04,0.00,154.43,154.27,143.53,143.53,88.0,25.5,0.39357337308308854,178.61044861176018,49.333934408489874,61.21729088638574,10.803051550459557
0.800,39.5,44.054275120871772,-78.681869362229747,107.9,14.3,-86.6,-149.6,10249.2,10249,181.9,0,1,1,0,1,1,0,0,0,100,1,1.186,26.0,0.0,-0.009,47.092,66.0,0.0,26.0,26.0,26.0,26.0,-0.10,0.27,0.06,377.0,-2.85,-1.28,-1.60,-1.15,-729.83,651.28,5.6,0.00,0.00,0.00,0.00,0.03,-7.49,-7.49,-1.05,-1.23,0.19,5.21,50.55,-0.06,-0.45,0.52,100.0,0,0,144.75,0,0,0.0,0,0,0,0,7721,0,30.00,4,181.9,0,0,0.0,0.0,0.0,0.0,0,0,0.837,0.837,48.829,17.577,0,110.00,435.8,8750,0.0,0.0,110.0,110.0,433.0,0.00,0,0,1,166.7,68.0,68.0,69.2,69.2,34.0,-29.39,11.40,-21.8,3.8,6,-295.590,-1.8,100.0,26.0,20.0,40.3,37.6,0,1,100.0,0.00,0.00,0.00,0.00,5184,4399,4474,3226,312.3,313.7,344.7,346.3,27.03,23.47,27.45,25.48,325.0,325.0,355.0,355.0,99.83,100.00,99.87,99.96,-0.06,0.04,-0.18,-0.07,-0.1,-0.0,1.9,1.9,95.0,72.7,91.3,79.0,101.9,73.6,93.7,80.4,98.3,70.4,92.4,78.0,94.3,68.5,91.0,76.6,-0.08,0.08,0.06,0.06,0.00,155.04,154.93,144.75,144.75,88.0,25.5,0.29410882339705485,178.97055031114138,49.333934408489874,-43.212205632814005,-10.803051550459557
0.850,42.0,44.054252727763782,-78.681863156910666,-72.1,101.7,15.2,12.4,10251.8,10252,182.6,0,1,1,0,1,1,0,0,0,100,1,1.186,26.0,0.0,-0.009,47.092,66.0,0.0,26.0,26.0,26.0,26.0,-0.06,0.35,0.13,374.2,-2.44,-2.93,-2.42,-1.48,-729.14,648.79,5.6,0.00,0.00,0.00,0.00,0.03,-7.49,-7.49,-0.95,2.00,0.38,1.13,50.72,-0.04,-0.36,-0.80,100.0,0,0,144.22,0,0,0.0,0,0,0,0,7693,0,30.00,4,182.6,1,0,0.0,0.0,0.0,0.0,0,0,0.888,0.888,48.829,17.577,1,110.00,435.8,8750,0.0,0.0,110.0,110.0,433.0,0.00,0,0,1,166.7,70.0,70.0,57.0,57.0,34.0,-14.12,21.91,-46.1,22.0,6,-295.640,-2.8,100.0,22.4,25.1,41.0,38.2,0,1,100.0,0.00,0.00,0.00,0.00,4100,3877,6481,6141,316.0,314.3,339.3,339.3,27.03,23.47,27.45,25.48,325.0,325.0,355.0,355.0,99.83,100.00,99.87,99.95,0.02,0.08,-0.13,0.02,-0.0,-0.0,1.3,1.3,95.0,72.7,91.3,79.0,101.8,73.6,93.7,80.3,98.2,70.4,92.4,78.0,94.2,68.5,90.9,76.6,-0.14,0.16,0.05,0.05,0.00,155.49,155.56,144.22,144.22,88.0,25.5,0.3781534080237807,174.28922804847878,48.25362925344392,-97.22746224706441,-25.20712009473087
0.900,44.6,44.054231593706049,-78.681857311320229,9.6,-52.9,-30.3,141.9,10254.3,10254,183.1,0,1,1,0,1,1,0,0,0,100,1,1.186,26.0,0.0,-0.012,47.092,66.0,0.0,26.0,26.0,26.0,26.0,0.05,0.33,-0.02,375.1,-1.88,-2.27,-1.95,-1.21,-728.49,646.44,5.5,0.00,0.00,0.00,0.00,0.03,-7.49,-7.49,-0.92,0.12,0.45,-1.01,50.86,0.02,-0.37,-1.87,100.0,0,0,145.06,0,0,0.0,0,0,0,0,7737,0,30.00,4,183.1,0,0,0.0,0.0,0.0,0.0,0,0,0.936,0.936,48.829,17.577,0,110.00,435.8,8750,0.0,0.0,110.0,110.0,433.0,0.00,0,0,1,166.7,71.0,71.0,64.5,64.5,34.0,-3.05,26.02,-16.0,23.2,6,-295.690,-4.0,100.0,22.9,22.4,39.5,45.3,0,1,100.0,0.00,0.00,0.00,0.00,3331,4204,4333,5801,316.8,314.0,344.4,340.2,27.03,23.47,27.45,25.48,325.0,325.0,355.0,355.0,99.83,100.00,99.87,99.95,0.15,0.21,0.00,0.11,-0.1,-0.1,1.6,1.5,95.0,72.7,91.3,79.0,101.7,73.5,93.6,80.3,98.1,70.3,92.3,78.0,94.2,68.4,90.9,76.6,-0.21,0.22,0.06,0.03,0.00,155.74,155.98,145.06,145.06,88.0,25.5,0.3343650699460098,169.24780408643494,46.81322239901679,10.803051550459202,3.6010169938120384
0.950,47.1,44.054210459648310,-78.681851465729792,7.2,157.7,85.5,-102.0,10256.9,10257,183.6,0,1,1,0,1,1,0,0,0,100,1,1.186,26.0,0.0,-0.009,47.092,66.0,0.0,26.0,26.0,26.0,26.0,0.15,0.26,0.19,373.3,-3.02,-2.18,-2.27,-1.40,-727.84,644.09,5.5,0.00,0.00,0.00,0.00,0.03,-7.49,-7.49,-0.90,2.14,0.34,-2.03,51.00,0.05,-0.41,-3.01,100.0,0,0,145.83,0,0,0.0,0,0,0,0,7779,0,30.00,4,183.6,1,0,0.0,0.0,0.0,0.0,0,0,0.984,0.984,48.829,17.577,1,110.00,435.8,8750,0.0,0.0,110.0,110.0,433.0,0.00,0,0,1,166.7,64.7,64.7,58.3,58.3,34.0,-3.18,37.94,-7.7,27.0,6,-295.730,-5.8,100.0,23.2,30.3,43.8,40.2,0,1,100.0,0.00,0.00,0.00,0.00,3852,4783,3188,5052,314.6,311.8,346.6,342.5,27.04,23.47,27.45,25.48,325.0,325.0,355.0,355.0,99.83,100.00,99.87,99.95,0.29,0.33,0.14,0.20,-0.1,-0.0,1.7,1.5,95.0,72.7,91.3,79.0,101.6,73.5,93.6,80.3,98.0,70.3,92.3,78.0,94.1,68.4,90.8,76.5,-0.33,0.33,0.05,0.05,0.00,156.42,156.51,145.83,145.83,88.0,25.5,0.3552463933666322,175.3695332035247,48.61373095282512,118.83356506347155,36.01017107616677
1.000,49.7,44.054187796743840,-78.681845170478553,-154.9,-290.7,-24.1,186.7,10259.4,10259,184.2,0,1,1,0,1,1,0,0,0,100,1,1.186,26.0,0.0,-0.012,47.092,66.0,0.3,26.0,26.0,26.0,26.0,0.24,0.31,-0.02,376.9,-2.56,-2.16,-1.74,-1.38,-727.14,641.57,5.5,0.00,0.00,0.00,0.00,0.03,-7.49,-7.49,-0.90,-4.60,0.06,-6.46,51.18,0.10,-0.35,-3.24,100.0,0,0,145.33,0,0,0.0,0,0,0,0,7752,0,30.00,4,184.2,0,0,0.0,0.0,0.0,0.0,0,0,1.035,1.035,48.829,17.577,0,110.00,435.8,8750,0.0,0.0,110.0,110.0,433.0,0.00,0,0,1,333.3,81.5,81.5,56.4,56.4,34.0,3.33,26.62,-11.4,38.0,6,-295.790,-6.7,100.0,15.5,15.8,42.6,49.6,0,1,100.0,0.00,0.00,0.00,0.00,2417,3214,7086,5263,319.3,316.5,338.5,340.9,27.04,23.47,27.46,25.48,325.0,325.0,355.0,355.0,99.83,100.00,99.87,99.95,0.42,0.46,0.16,0.31,-0.0,-0.1,1.3,1.1,95.0,72.7,91.3,79.0,101.5,73.5,93.5,80.3,97.9,70.3,92.2,78.0,94.0,68.4,90.8,76.5,-0.37,0.37,0.06,0.04,0.00,156.58,156.80,145.33,145.33,88.0,25.5,0.39255572852781045,181.1311605927821,50.414239506633464,3.6010169938120384,7.202034556647519
1.050,52.2,44.054165223771527,-78.681838875227314,152.2,47.0,-183.1,-356.6,10262.0,10262,184.7,0,1,1,0,1,1,0,0,0,100,1,1.186,26.0,0.0,-0.012,47.092,66.0,2.6,26.0,26.0,26.0,26.0,0.21,0.35,-0.30,382.3,-2.03,-2.63,-1.73,-1.27,-726.44,639.06,5.5,0.00,0.00,0.00,0.00,0.03,-7.49,-7.49,-1.10,-0.17,0.05,7.53,51.30,0.17,-0.43,-4.32,100.0,0,0,147.08,0,0,0.0,0,0,0,0,7846,0,30.00,4,184.7,1,0,0.0,0.0,0.0,0.0,0,0,1.086,1.086,48.829,17.577,1,110.00,435.8,8750,0.0,0.0,110.0,110.0,433.0,0.00,0,0,1,333.3,73.1,73.1,77.8,77.8,34.0,9.26,23.24,-4.1,26.6,6,-295.840,-7.2,100.0,23.1,18.1,33.4,31.7,0,1,100.0,0.00,0.00,0.00,0.00,4595,2786,3753,4803,313.8,317.8,346.1,343.4,27.04,23.47,27.46,25.48,325.0,325.0,355.0,355.0,99.83,100.00,99.87,99.95,0.39,0.45,0.16,0.30,-0.1,-0.2,2.3,2.1,95.0,72.7,91.3,79.0,101.4,73.4,93.5,80.3,97.9,70.2,92.2,77.9,93.9,68.3,90.7,76.5,-0.40,0.40,0.08,0.06,0.00,156.96,157.08,147.08,147.08,88.0,25.5,0.5065570056765575,175.7296349029059,49.333934408489874,7.202033987624077,14.404069113295108
1.100,54.8,44.054143909849472,-78.681832849772547,147.6,280.1,17.7,201.8,10264.6,10265,185.1,0,1,1,0,1,1,0,0,0,100,1,1.186,26.0,0.0,-0.012,47.092,66.0,6.0,26.0,26.0,26.0,26.0,0.37,0.17,0.49,370.6,-3.15,-2.56,-2.09,-1.35,-725.77,636.69,5.5,0.00,0.00,0.00,0.00,0.03,-7.49,-7.49,-0.97,5.48,0.61,12.07,51.42,0.25,-0.43,-6.15,100.0,0,0,146.59,0,0,0.0,0,0,0,0,7819,0,30.00,4,185.1,0,0,0.0,0.0,0.0,0.0,0,0,1.134,1.134,48.829,17.577,0,110.00,435.8,8750,0.0,0.0,110.0,110.0,433.0,0.00,0,0,1,333.3,57.0,57.0,64.3,64.3,34.0,1.81,68.66,-5.2,35.9,6,-295.880,-6.6,100.0,30.5,32.1,34.3,41.8,0,1,100.0,0.00,0.00,0.00,0.00,4244,6398,5011,4661,313.9,307.4,343.1,342.6,27.04,23.47,27.46,25.48,325.0,325.0,355.0,355.0,99.83,100.00,99.87,99.95,0.40,0.48,0.24,0.38,-0.2,-0.3,1.5,1.2,95.0,72.7,91.4,79.0,101.3,73.4,93.4,80.2,97.8,70.2,92.1,77.9,93.8,68.3,90.7,76.5,-0.38,0.41,0.07,0.05,0.00,157.16,157.95,146.59,146.59,88.0,25.5,0.637102817447859,181.8513639915445,51.854646417962975,61.217290886386024,32.40915351333115
1.150,57.4,44.054119808030428,-78.681825924996176,-105.6,110.3,229.8,302.6,10267.1,10267,185.4,0,1,1,0,1,1,0,0,0,100,1,1.186,26.0,0.0,-0.015,47.092,66.0,9.9,26.0,26.0,26.0,26.0,0.50,0.12,0.74,361.4,-3.24,-1.21,-2.57,-1.13,-725.00,634.01,5.4,0.00,0.00,0.00,0.00,0.04,-7.49,-7.49,-0.63,4.77,1.02,-0.69,51.51,0.33,-0.37,-6.16,100.0,0,0,146.33,0,0,0.0,0,0,0,0,7805,0,30.00,4,185.4,1,0,0.0,0.0,0.0,0.0,0,0,1.188,1.188,48.829,17.577,1,110.00,435.8,8750,0.0,0.0,110.0,110.0,433.0,0.00,0,0,1,166.7,56.1,56.1,45.6,45.6,34.0,4.01,81.75,5.3,95.3,6,-295.940,-5.3,100.0,25.2,37.6,45.8,56.9,0,1,97.3,0.00,0.00,0.00,0.00,4540,8088,4640,8462,314.8,303.7,343.1,333.1,27.04,23.47,27.46,25.48,325.0,325.0,355.0,355.0,99.83,100.00,99.87,99.95,0.45,0.57,0.48,0.56,-0.4,-0.3,1.1,0.8,95.0,72.7,91.4,79.0,101.3,73.4,93.4,80.2,97.7,70.2,92.1,77.9,93.8,68.3,90.6,76.5,-0.30,0.35,0.04,0.01,0.00,157.29,157.93,146.33,146.33,88.0,25.5,0.9011104260855048,181.8513639915445,52.57484975982299,-57.6162738925737,-5.690236548616667e-07
1.200,60.0,44.054098494108374,-78.681819719677108,119.8,107.1,-5.9,-15.6,10269.7,10270,185.5,0,1,1,0,1,1,0,0,0,100,1,1.186,26.0,0.0,-0.012,47.092,66.0,16.2,26.0,26.0,26.0,26.0,0.53,-0.01,0.59,359.3,-3.87,-1.91,-3.24,-0.39,-724.31,631.64,5.4,0.00,0.00,0.00,0.00,0.04,-7.49,-7.49,-0.31,7.67,0.68,-12.68,51.53,0.33,-0.40,-5.96,100.0,0,0,146.18,0,0,0.0,0,0,0,0,7798,0,30.00,4,185.5,0,0,0.0,0.0,0.0,0.0,0,0,1.236,1.236,48.829,17.577,0,110.00,435.8,8750,0.0,0.0,110.0,110.0,433.0,0.00,0,0,1,166.7,50.2,50.2,45.0,45.0,34.0,0.40,79.30,4.6,81.6,6,-295.990,-3.7,100.0,31.2,43.0,45.5,56.2,0,1,86.3,0.00,0.00,0.00,0.00,4985,7149,6304,7928,313.2,305.4,340.5,335.0,27.04,23.48,27.46,25.48,325.0,325.0,355.0,355.0,99.83,100.00,99.87,99.95,0.45,0.57,0.55,0.62,-0.6,-0.5,1.0,0.7,95.0,72.7,91.4,79.0,101.2,73.4,93.3,80.2,97.7,70.3,92.0,77.9,93.7,68.4,90.6,76.5,-0.20,0.28,0.04,0.01,0.00,157.15,157.59,146.18,146.18,88.0,25.5,0.7931582439841371,176.08973660228713,51.85464636106061,-61.21729060187391,3.6010175628356222
1.250,62.5,44.054075831203903,-78.681812974765052,73.8,-93.9,175.3,12.8,10272.3,10272,185.4,0,1,1,0,1,1,0,0,0,100,1,1.186,26.0,0.0,-0.012,47.092,66.0,20.4,26.0,26.0,26.0,26.0,0.41,-0.08,0.46,360.4,-3.40,-2.47,-2.35,-1.27,-723.56,629.12,5.4,0.00,0.00,0.00,0.00,0.04,-7.49,-7.49,0.09,6.67,0.10,-8.06,51.49,0.27,-0.44,-3.25,100.0,0,0,145.81,0,0,0.0,0,0,0,0,7777,0,30.00,4,185.4,1,0,0.0,0.0,0.0,0.0,0,0,1.287,1.287,48.829,17.577,1,110.00,435.8,8750,0.0,0.0,110.0,110.0,433.0,0.00,0,0,1,166.7,55.9,55.9,40.5,40.5,34.0,-2.56,47.09,8.3,74.7,6,-296.040,-1.5,100.0,34.9,38.3,54.3,56.8,0,1,73.0,0.00,0.00,0.00,0.00,3450,5245,7069,7183,316.6,311.2,338.3,336.4,27.04,23.48,27.46,25.49,325.0,325.0,355.0,355.0,99.83,100.00,99.87,99.95,0.33,0.41,0.44,0.48,-0.8,-0.8,0.7,0.6,95.0,72.7,91.4,79.0,101.1,73.5,93.3,80.2,97.6,70.3,92.0,77.9,93.6,68.4,90.5,76.5,-0.05,0.12,0.03,0.02,0.00,156.32,156.69,145.81,145.81,88.0,25.5,0.6213694553162393,175.7296349313571,52.93495151610655,-10.8030509814364,14.404068544271311
1.300,65.1,44.054054607213999,-78.681806499649497,-87.8,-113.4,23.4,-63.4,10274.9,10275,185.0,0,1,1,0,1,1,0,0,0,100,1,1.186,26.0,0.0,-0.012,47.092,66.0,26.0,26.0,26.0,26.0,26.0,0.29,-0.32,0.58,364.2,-2.35,-3.20,-1.56,-1.38,-722.84,626.76,5.5,0.00,0.00,0.00,0.00,0.04,-7.49,-7.49,0.18,-0.47,-0.24,-3.45,51.38,0.19,-0.60,-1.17,100.0,0,0,145.08,0,0,0.0,0,0,0,0,7739,0,30.00,4,185.0,0,0,0.0,0.0,0.0,0.0,1,0,1.335,1.335,48.829,17.577,0,110.00,435.8,8750,0.0,0.0,110.0,110.0,433.0,0.00,0,0,1,333.3,55.5,55.5,45.6,45.6,34.0,-8.49,61.08,4.0,30.1,6,-296.090,-0.1,100.0,30.5,32.6,55.4,53.6,0,1,50.8,0.00,0.00,0.00,0.00,5970,6717,4844,4289,309.9,307.1,341.8,343.7,27.04,23.48,27.46,25.49,325.0,325.0,355.0,355.0,99.83,100.00,99.87,99.95,0.18,0.29,0.29,0.29,-0.8,-0.9,0.5,0.4,95.0,72.7,91.4,79.0,101.1,73.5,93.3,80.2,97.5,70.3,92.0,77.9,93.6,68.4,90.5,76.5,0.01,0.03,0.02,0.02,0.00,156.36,156.25,145.08,145.08,88.0,25.5,0.7231182475916369,175.0094315041435,53.29505321548774,-14.404068828783352,3.6010169938118963
1.350,67.7,44.054032124173851,-78.681799664805283,13.5,-74.0,-292.9,-189.8,10277.4,10277,184.3,0,1,1,0,1,1,0,0,0,100,1,1.186,26.0,0.0,-0.012,47.092,66.0,34.9,26.0,26.0,26.0,26.0,0.11,-0.52,0.21,370.8,-2.60,-3.32,-1.13,-2.08,-722.08,624.26,5.5,0.00,0.00,0.00,0.00,0.04,-7.49,-7.49,0.27,1.63,-0.25,1.89,51.18,0.15,-0.58,-0.45,100.0,0,0,143.74,0,0,0.0,0,0,0,0,7667,0,30.00,4,184.3,1,0,0.0,0.0,0.0,0.0,1,0,1.386,1.386,48.829,17.577,1,110.00,435.8,8750,0.0,0.0,110.0,110.0,433.0,0.00,0,0,1,333.3,60.3,60.3,60.4,60.4,34.0,-20.05,28.64,-10.8,57.1,6,-296.140,0.3,100.0,31.2,28.9,40.8,44.1,0,1,27.8,0.00,0.00,0.00,0.00,5962,4493,7000,6535,311.5,312.8,338.3,338.6,27.04,23.48,27.46,25.49,325.0,325.0,355.0,355.0,99.83,100.00,99.87,99.95,0.05,0.14,0.08,0.24,-1.2,-1.5,0.1,0.0,95.0,72.7,91.4,79.1,101.0,73.5,93.2,80.2,97.5,70.3,91.9,77.9,93.5,68.4,90.4,76.4,0.03,-0.02,0.06,0.04,0.00,155.14,154.58,143.74,143.74,88.0,25.5,0.571489282489182,174.28922804847878,53.29505321548774,-18.005085822594822,-5.690236548616667e-07
1.400,70.2,44.054011080048276,-78.681793189689728,13.6,30.3,-11.0,-62.8,10280.0,10280,183.2,0,1,1,0,1,1,0,0,0,100,1,1.186,26.0,0.0,-0.012,47.092,66.0,43.5,26.0,26.0,26.0,26.0,0.09,-0.79,0.14,374.0,-2.84,-3.04,-1.06,-2.04,-721.36,621.92,5.6,0.00,0.00,0.00,0.00,0.04,-7.49,-7.49,0.33,2.26,-0.06,5.63,50.86,0.10,-0.63,0.16,100.0,0,0,142.39,0,0,0.0,0,0,0,0,7595,0,30.00,4,183.2,0,0,0.0,0.0,0.0,0.0,1,0,1.434,1.434,48.829,17.577,0,110.00,435.8,8750,0.0,0.0,110.0,110.0,433.0,0.00,0,0,1,333.3,59.0,59.0,65.2,65.2,34.0,-16.76,29.44,-9.9,32.6,6,-296.180,-0.4,100.0,31.8,30.4,40.2,41.0,0,1,9.9,0.00,0.00,0.00,0.00,4940,4976,4349,4971,313.1,311.4,344.8,342.4,27.05,23.48,27.46,25.49,325.0,325.0,355.0,355.0,99.83,100.00,99.87,99.95,0.06,0.14,0.00,0.13,-1.6,-1.8,-0.4,-0.4,95.0,72.7,91.4,79.1,101.0,73.5,93.1,80.1,97.4,70.3,91.8,77.8,93.5,68.4,90.4,76.4,-0.00,0.03,0.06,0.04,0.00,153.34,153.16,142.39,142.39,88.0,25.5,0.8073413156775764,173.208922921884,53.295053158585375,28.80813708854305,10.803051550459557
1.450,72.7,44.053988866804609,-78.681786354845528,-321.4,-131.1,12.2,9.1,10282.5,10282,181.7,0,1,1,0,1,1,0,0,0,100,1,1.186,26.0,0.0,-0.015,47.092,66.0,54.6,26.0,26.0,26.0,26.0,0.05,-0.85,-0.24,382.9,-3.01,-2.25,-1.69,-1.07,-720.60,619.45,5.6,0.00,0.00,0.00,0.00,0.04,-7.49,-7.49,0.29,-6.15,-0.07,-5.91,50.43,0.04,-0.62,0.55,100.0,0,0,139.79,0,0,0.0,0,0,0,0,7456,0,30.00,4,181.7,1,0,0.0,0.0,0.0,0.0,1,0,1.485,1.485,48.829,17.577,1,110.00,435.8,8750,0.0,0.0,110.0,110.0,433.0,0.00,0,0,1,333.3,78.1,78.1,57.1,57.1,34.0,-0.13,15.48,-16.1,18.9,6,-296.240,-0.5,100.0,15.8,23.9,40.8,41.5,0,1,0.0,0.00,0.00,0.00,0.00,951,4391,4539,4517,323.1,314.0,344.1,343.9,27.05,23.48,27.46,25.49,325.0,325.0,355.0,355.0,99.83,100.00,99.87,99.95,0.13,0.14,0.00,0.15,-8.0,-3.2,-1.1,-1.1,95.0,72.7,91.4,79.1,100.9,73.5,93.0,80.1,97.4,70.3,91.8,77.8,93.4,68.4,90.3,76.4,-0.03,0.02,0.06,0.05,0.00,140.78,149.63,139.79,139.79,88.0,25.5,0.8846468221838588,177.17004175733308,54.3753583705337,18.00508553808328,3.601018131859419
1.500,75.2,44.053966833425264,-78.681779609933471,93.4,-168.1,-330.8,-255.8,10285.0,10285,179.6,0,1,1,0,1,1,0,0,0,100,1,1.186,26.0,0.0,-0.012,47.092,66.0,72.6,26.0,26.0,26.0,26.0,-0.05,-1.37,-0.64,391.7,-2.48,-3.12,-1.05,-1.19,-719.85,617.00,5.6,0.00,0.00,0.00,0.00,0.05,-7.49,-7.49,-0.17,-9.53,-0.43,-4.00,49.84,0.03,-0.81,-1.15,100.0,0,0,134.97,0,0,0.0,0,0,0,0,7200,0,30.00,4,179.6,0,0,0.0,0.0,0.0,0.0,1,0,1.536,1.536,48.829,17.577,0,110.00,435.8,8750,0.0,0.0,110.0,110.0,433.0,0.00,0,0,1,333.3,72.3,72.3,95.2,95.2,34.0,-17.30,-0.26,-0.9,3.9,6,-296.290,0.3,100.0,20.4,15.5,24.3,28.7,0,1,0.0,0.00,0.00,0.00,0.00,6813,3254,1034,1768,309.4,316.1,352.2,350.9,27.05,23.48,27.46,25.49,325.0,325.0,355.0,355.0,99.83,100.00,99.87,99.95,-0.06,0.03,0.03,0.16,-4.3,-10.4,-3.2,-3.4,95.0,72.7,91.4,79.1,100.9,73.5,93.0,80.1,97.4,70.3,91.7,77.7,93.4,68.4,90.2,76.3,0.01,-0.03,0.09,0.07,0.00,147.79,136.39,134.61,135.34,88.0,25.5,1.512944149663166,175.00943147569234,53.65515497177132,-54.01525661425069,-14.404069113295108
1.550,77.7,44.053945159774564,-78.681772954953587,262.2,211.6,-89.2,-281.3,10287.4,10287,176.9,0,1,1,0,1,1,0,0,0,100,1,1.186,26.0,0.0,-0.012,47.092,66.0,90.9,26.0,26.0,26.0,26.0,-0.10,-1.63,-0.23,387.9,-2.59,-2.55,-1.28,-1.06,-719.11,614.59,5.7,0.00,0.00,0.00,0.00,0.05,-7.49,-7.49,-0.47,-1.22,-0.28,10.16,49.08,0.11,-0.95,-0.65,100.0,0,0,128.86,0,0,0.0,0,0,0,0,6873,0,30.00,4,176.9,1,0,0.0,0.0,0.0,0.0,1,0,1.587,1.587,48.829,17.577,1,110.00,435.8,8750,0.0,0.0,110.0,110.0,433.0,0.00,0,0,1,166.7,56.0,56.0,96.4,96.4,34.0,-30.81,-0.41,-4.1,0.0,6,-296.340,1.3,100.0,33.5,26.1,19.8,14.6,0,1,0.0,0.00,0.00,0.00,0.00,7305,5086,2401,505,306.5,311.2,349.5,353.5,27.05,23.48,27.46,25.49,325.0,325.0,355.0,355.0,99.83,100.00,99.87,99.95,-0.10,0.02,-0.06,0.13,-3.1,-10.6,-3.8,-8.8,95.1,72.7,91.4,79.0,100.9,73.6,92.9,80.0,97.4,70.4,91.6,77.7,93.4,68.5,90.2,76.3,0.09,-0.08,0.11,0.10,0.00,145.72,134.65,132.76,124.95,88.0,25.5,1.6491816152261702,171.768516095908,52.934951459204186,-111.631530222312,-32.40915465137853
1.600,80.1,44.053923935784660,-78.681766389905874,7.2,235.7,66.4,245.2,10289.8,10290,173.1,0,1,1,0,1,1,0,0,0,100,1,1.186,26.0,0.0,-0.012,47.092,66.0,100.0,26.0,26.0,26.0,26.0,0.02,-1.94,0.40,378.8,-2.43,-3.04,-1.28,-0.76,-718.38,612.23,5.7,0.00,0.00,0.00,0.00,0.05,-7.49,-7.49,-0.45,2.03,0.28,5.99,48.03,0.08,-1.03,1.87,100.0,0,0,130.41,0,0,0.0,0,0,0,0,6956,0,30.00,4,173.1,0,0,0.0,0.0,0.0,0.0,1,0,1.638,1.638,48.829,17.577,0,110.00,435.8,8750,0.0,0.0,110.0,110.0,433.0,0.00,0,0,1,166.7,51.1,51.1,81.7,81.7,34.0,-11.60,22.35,-7.3,8.4,6,-296.390,1.3,100.0,33.9,37.9,23.2,26.9,0,1,0.0,0.00,0.00,0.00,0.00,5486,6139,3078,3899,311.3,307.3,348.1,344.8,27.05,23.48,27.46,25.49,325.0,325.0,355.0,355.0,99.83,100.00,99.87,99.95,-0.04,0.08,-0.14,0.12,-4.6,-4.0,-3.8,-3.3,95.1,72.7,91.4,79.0,100.9,73.8,92.9,80.0,97.4,70.6,91.6,77.7,93.4,68.7,90.1,76.3,0.10,-0.03,0.10,0.08,0.00,140.14,140.85,130.10,130.72,88.0,25.5,1.9809088823063012,163.84627845346114,50.414239506633464,-158.4447528489386,-54.015256045226394
1.650,82.4,44.053904240641494,-78.681760364451108,-122.7,-92.6,16.5,102.8,10292.2,10292,170.0,0,1,1,0,1,1,0,0,0,100,1,1.186,26.0,0.0,-0.012,47.092,66.0,100.0,26.0,26.0,26.0,26.0,0.02,-1.92,0.08,379.9,-3.31,-2.88,-1.81,-1.30,-717.71,610.04,5.7,0.00,0.00,0.00,0.00,0.05,-7.49,-7.49,-0.42,-1.43,0.27,-6.04,47.16,-0.02,-0.98,2.75,100.0,0,0,129.13,0,0,0.0,0,0,0,0,6888,0,30.00,4,170.0,1,0,0.0,0.0,0.0,0.0,1,0,1.686,1.686,48.829,17.577,1,110.00,435.8,8750,0.0,0.0,110.0,110.0,433.0,0.00,0,0,1,166.7,58.4,58.4,79.3,79.3,34.0,-4.03,13.27,-13.6,16.9,6,-296.440,1.3,100.0,27.8,33.2,24.0,32.0,0,1,0.0,0.00,0.00,0.00,0.00,5153,6219,3445,4976,312.8,308.8,346.8,342.4,27.05,23.48,27.46,25.49,325.0,325.0,355.0,355.0,99.83,100.00,99.87,99.95,-0.04,0.11,-0.16,0.09,-7.3,-5.7,-2.9,-2.2,95.1,72.7,91.4,79.0,101.0,73.9,92.8,80.0,97.4,70.7,91.5,77.7,93.5,68.8,90.1,76.3,0.08,-0.06,0.09,0.06,0.00,133.93,136.19,128.91,129.37,88.0,25.5,1.9217700174578642,155.92404081101415,47.533425854681546,-61.21729088638631,-21.60610253189546
1.700,84.8,44.053884995159123,-78.681754518860672,5.7,-79.3,-40.3,-185.2,10294.5,10295,167.1,0,1,1,0,1,1,0,0,0,100,1,1.186,26.0,0.0,-0.012,47.092,66.0,100.0,26.0,26.0,26.0,26.0,-0.11,-1.95,-0.19,385.2,-3.06,-2.55,-1.50,-0.96,-717.06,607.90,5.8,0.00,0.00,0.00,0.00,0.05,-7.49,-7.49,-0.52,-1.26,-0.10,-7.00,46.36,-0.09,-0.96,2.15,100.0,0,0,124.32,0,0,0.0,0,0,0,0,6632,0,30.00,4,167.1,0,0,0.0,0.0,0.0,0.0,1,0,1.734,1.734,48.829,17.577,0,110.00,435.8,8750,0.0,0.0,110.0,110.0,433.0,0.00,0,0,1,166.7,60.3,60.3,87.0,87.0,34.0,-12.25,-0.54,-7.8,2.1,6,-296.480,1.8,100.0,28.1,29.3,22.0,22.7,0,1,0.0,0.00,0.00,0.00,0.00,6063,5124,3050,2709,310.5,311.6,347.9,348.2,27.05,23.48,27.46,25.48,325.0,325.0,355.0,355.0,99.83,100.00,99.87,99.95,-0.15,-0.02,-0.25,-0.01,-5.9,-11.1,-4.8,-4.6,95.1,72.7,91.4,79.0,101.0,74.0,92.8,80.0,97.5,70.8,91.5,77.7,93.5,68.8,90.0,76.2,0.11,-0.11,0.11,0.08,0.00,134.08,125.82,124.32,124.32,88.0,25.5,1.9623200554445748,157.7245493648225,48.25362925344392,39.61118806997888,14.404067975247727
1.750,87.0,44.053864850355154,-78.681748313541590,23.4,-29.8,4.3,-79.6,10296.8,10297,163.9,1,1,1,0,1,1,0,0,0,100,1,1.186,26.0,0.0,-0.012,47.092,66.0,100.0,26.0,26.0,26.0,26.0,-0.09,-1.85,-0.13,386.9,-2.42,-2.77,-1.15,-1.67,-716.37,605.66,5.8,0.00,0.00,0.00,0.00,0.05,-7.49,-7.49,-0.56,-0.07,-0.29,-0.39,45.47,-0.09,-0.90,0.70,100.0,0,0,120.92,0,0,0.0,0,0,0,0,6450,0,30.00,4,163.9,1,0,0.0,0.0,0.0,0.0,1,0,1.785,1.785,48.829,17.577,1,110.00,435.8,8750,0.0,0.0,110.0,110.0,433.0,0.00,0,0,1,333.3,62.0,62.0,86.4,86.4,34.0,-8.17,-0.42,-10.5,1.0,6,-296.540,0.9,100.0,29.2,27.8,22.2,18.8,0,1,0.0,0.00,0.00,0.00,0.00,5086,4435,3523,2068,312.5,312.7,346.8,349.8,27.05,23.48,27.46,25.48,325.0,325.0,355.0,355.0,99.83,100.00,99.87,99.95,-0.20,-0.10,-0.27,-0.03,-6.3,-12.4,-4.2,-6.9,95.1,72.7,91.4,79.0,101.1,74.2,92.7,79.9,97.5,70.9,91.4,77.6,93.6,69.0,90.0,76.2,0.07,-0.05,0.10,0.09,0.00,130.42,121.22,122.89,118.96,88.0,25.5,1.8567444627627143,159.88515961801204,48.97383265220632,-54.015256614249836,-18.00508553808335
1.800,89.3,44.053845065279823,-78.681742288086838,-87.1,-69.1,22.0,50.8,10299.0,10299,160.9,1,1,1,0,1,1,0,0,0,100,1,1.186,26.0,0.0,-0.012,47.092,66.0,100.0,26.0,26.0,26.0,26.0,-0.03,-1.55,-0.37,389.3,-3.00,-2.53,-0.96,-2.18,-715.70,603.46,5.8,0.00,0.00,0.00,0.00,0.05,-7.49,-7.49,-0.68,-4.38,-0.21,2.31,44.65,-0.08,-0.86,-0.15,100.0,0,0,119.97,0,0,0.0,0,0,0,0,6400,0,30.00,4,160.9,0,0,0.0,0.0,0.0,0.0,0,0,1.836,1.836,48.829,17.577,0,110.00,435.8,8750,0.0,0.0,110.0,110.0,433.0,0.00,0,0,1,333.3,68.4,68.4,87.5,87.5,34.0,0.42,-0.35,-5.6,4.8,6,-296.590,-2.5,100.0,24.9,24.3,23.3,21.3,0,1,0.0,0.00,0.00,0.00,0.00,4275,3629,2492,2396,315.0,315.2,349.0,348.8,27.05,23.48,27.46,25.48,325.0,325.0,355.0,355.0,99.83,100.00,99.87,99.95,-0.08,0.01,-0.23,-0.01,-10.0,-14.9,-4.2,-4.2,95.1,72.7,91.4,79.0,101.1,74.3,92.7,79.9,97.6,71.0,91.4,77.6,93.6,69.1,89.9,76.2,-0.11,0.10,0.08,0.08,0.00,122.21,119.76,119.97,119.97,88.0,25.5,1.593831860642772,152.32302370339752,46.45312069963558,-108.03051322849996,-36.01017050714319
1.850,91.5,44.053826809051223,-78.681736712292874,61.9,41.4,-82.7,-32.8,10301.2,10301,158.1,0,1,1,0,1,1,0,0,0,100,1,1.186,26.0,0.0,-0.009,47.092,66.0,100.0,26.0,26.0,26.0,26.0,0.03,-1.85,-0.10,387.6,-2.93,-2.45,-1.81,-1.26,-715.08,601.43,5.8,0.00,0.00,0.00,0.00,0.06,-7.49,-7.49,-0.90,-2.92,-0.13,2.29,43.84,-0.07,-0.93,-0.89,100.0,0,0,115.43,0,0,0.0,0,0,0,0,6157,0,30.00,4,158.1,1,0,0.0,0.0,0.0,0.0,0,0,1.884,1.884,48.829,17.577,1,110.00,435.8,8750,0.0,0.0,110.0,110.0,433.0,0.00,0,0,1,333.3,60.0,60.0,94.0,94.0,34.0,-1.72,4.22,-0.9,1.7,6,-296.630,-7.0,100.0,28.0,26.4,19.2,19.7,0,1,0.0,0.00,0.00,0.00,0.00,5932,6315,1049,1959,310.6,308.7,352.4,349.9,27.05,23.48,27.46,25.48,325.0,325.0,355.0,355.0,99.83,100.00,99.87,99.95,0.15,0.31,-0.18,0.03,-7.7,-8.4,-6.5,-5.6,95.1,72.7,91.3,79.0,101.2,74.4,92.6,79.9,97.7,71.1,91.3,77.6,93.7,69.2,89.9,76.2,-0.35,0.36,0.11,0.09,0.00,124.36,123.46,114.62,116.24,88.0,25.5,1.8529436041067198,149.08210829516204,45.372815601492,-18.005085538083563,-3.6010169938118963
1.900,93.6,44.053807833365340,-78.681730956634595,-7.2,178.9,-11.0,-22.0,10303.4,10303,154.7,1,1,1,0,1,1,0,0,0,100,1,1.186,26.0,0.0,-0.009,47.092,66.0,100.0,26.0,26.0,26.0,26.0,0.17,-1.88,-0.08,384.0,-3.26,-2.19,-1.34,-1.98,-714.44,599.32,5.8,0.00,0.00,0.00,0.00,0.06,-7.49,-7.49,-0.86,2.15,-0.24,-7.11,42.91,-0.09,-0.85,-2.40,100.0,0,0,112.84,0,0,0.0,0,0,0,0,6019,0,30.00,4,154.7,0,0,0.0,0.0,0.0,0.0,0,0,1.935,1.935,48.829,17.577,0,110.00,435.8,8750,0.0,0.0,110.0,110.0,433.0,0.00,0,0,1,333.3,57.8,57.8,82.2,82.2,34.0,0.10,26.83,-2.9,4.1,6,-296.690,-10.8,100.0,27.6,35.3,18.6,18.6,0,1,0.0,0.00,0.00,0.00,0.00,5682,5821,4048,3182,312.7,309.8,345.8,347.2,27.06,23.48,27.45,25.48,325.0,325.0,355.0,355.0,99.83,100.00,99.87,99.95,0.33,0.52,-0.16,0.15,-12.9,-4.9,-7.3,-6.6,95.1,72.8,91.3,79.0,101.3,74.5,92.6,79.9,97.7,71.2,91.3,77.6,93.7,69.3,89.9,76.2,-0.59,0.61,0.11,0.10,0.00,114.59,124.51,112.76,112.92,88.0,25.5,1.8893649726826207,150.52251514958917,46.093019000254394,-18.00508525357145,-5.690235838073932e-07
1.950,95.7,44.053789217408095,-78.681725200976317,23.5,-60.0,109.1,185.4,10305.5,10305,151.2,0,1,1,0,1,1,0,0,0,100,1,1.186,26.0,0.0,-0.009,47.092,66.0,100.0,26.0,26.0,26.0,26.0,0.20,-1.73,0.01,382.1,-2.65,-2.45,-1.46,-1.89,-713.80,597.25,5.8,0.00,0.00,0.00,0.00,0.06,-7.49,-7.49,-0.83,-0.79,-0.51,-6.44,41.93,-0.03,-0.86,-4.25,100.0,0,0,113.89,0,0,0.0,0,0,0,0,6075,0,30.00,4,151.2,1,0,0.0,0.0,0.0,0.0,0,0,1.986,1.986,48.829,17.577,1,110.00,435.8,8750,0.0,0.0,110.0,110.0,433.0,0.00,0,0,1,333.3,59.5,59.5,82.5,82.5,34.0,0.84,14.27,-3.1,18.3,6,-296.740,-13.1,100.0,28.8,32.3,24.1,27.8,0,1,0.0,0.00,0.00,0.00,0.00,4861,5407,2375,3354,313.9,310.4,349.2,346.2,27.06,23.48,27.45,25.48,325.0,325.0,355.0,355.0,99.83,100.00,99.87,99.95,0.50,0.65,0.03,0.26,-8.1,-6.8,-3.9,-2.6,95.1,72.8,91.3,79.0,101.3,74.6,92.6,79.9,97.8,71.3,91.3,77.6,93.8,69.3,89.8,76.2,-0.72,0.73,0.10,0.07,0.00,117.61,119.63,113.21,114.58,88.0,25.5,1.7415510328439991,147.2815997698049,45.37281554458964,-108.03051322850024,-25.20712009473094
2.000,97.8,44.053771051111653,-78.681719625182367,-38.9,-91.6,12.8,-102.9,10307.5,10308,148.1,0,1,1,0,1,1,0,0,0,100,1,1.186,26.0,0.0,-0.009,47.092,66.0,100.0,26.0,26.0,26.0,26.0,0.24,-1.91,-0.07,384.0,-2.35,-2.85,-1.27,-2.04,-713.18,595.23,5.9,0.00,0.00,0.00,0.00,0.06,-7.49,-7.49,-0.92,-2.40,-0.72,-0.03,41.08,0.08,-0.85,-6.31,100.0,0,0,110.98,0,0,0.0,0,0,0,0,5920,0,30.00,4,148.1,0,0,0.0,0.0,0.0,0.0,0,0,2.037,2.037,48.829,17.577,0,110.00,435.8,8750,0.0,0.0,110.0,110.0,433.0,0.00,0,0,1,166.7,62.0,62.0,84.3,84.3,34.0,0.23,4.14,0.1,16.8,6,-296.790,-15.6,100.0,26.8,27.7,24.7,22.7,0,1,0.0,0.00,0.00,0.00,0.00,5913,4811,3037,3718,311.0,311.8,347.9,346.1,27.06,23.48,27.45,25.48,325.0,325.0,355.0,355.0,99.83,100.00,99.87,99.95,0.71,0.82,0.20,0.45,-9.3,-8.6,-3.5,-4.6,95.1,72.8,91.3,79.0,101.4,74.7,92.5,79.9,97.8,71.4,91.2,77.6,93.8,69.4,89.8,76.1,-0.88,0.89,0.09,0.08,0.00,114.20,114.76,110.75,111.21,88.0,25.5,1.9262917743685664,139.71946382673914,43.5723069907813,-108.03051351301235,-21.606101962871662
2.050,99.8,44.053754323729784,-78.681714319184891,54.4,72.1,-145.3,-65.8,10309.5,10310,145.0,0,1,1,0,1,1,0,0,0,100,1,1.186,26.0,0.0,-0.009,47.092,66.0,100.0,26.0,26.0,26.0,26.0,0.34,-2.03,-0.14,384.0,-2.81,-2.75,-1.44,-1.12,-712.59,593.37,5.9,0.00,0.00,0.00,0.00,0.06,-7.49,-7.49,-0.97,2.19,-0.64,2.54,40.22,0.20,-0.86,-8.63,100.0,0,0,105.48,0,0,0.0,0,0,0,0,5627,0,30.00,4,145.0,1,0,0.0,0.0,0.0,0.0,0,0,2.085,2.085,48.829,17.577,1,110.00,435.8,8750,0.0,0.0,110.0,110.0,433.0,0.00,0,0,1,166.7,54.1,54.1,90.7,90.7,34.0,3.37,29.76,0.5,4.8,6,-296.830,-18.0,100.0,29.6,31.4,17.4,19.4,0,1,0.0,0.00,0.00,0.00,0.00,7422,7270,2321,2016,308.1,305.9,350.0,349.5,27.06,23.48,27.45,25.48,325.0,325.0,355.0,355.0,99.83,100.00,99.87,99.95,0.85,1.06,0.40,0.63,-8.2,-6.7,-7.6,-6.1,95.1,72.8,91.3,79.0,101.5,74.8,92.5,79.8,97.9,71.6,91.2,77.6,93.9,69.6,89.7,76.1,-1.01,1.01,0.11,0.10,0.00,114.11,116.28,104.68,106.28,88.0,25.5,2.063031749634503,136.47854841850366,43.212205348302476,-61.21729088638574,-10.803050981435831
2.100,101.8,44.053736966822790,-78.681708833323086,15.2,-3.9,2.8,156.9,10311.5,10312,141.6,0,1,1,0,1,1,0,0,0,100,1,1.186,26.0,0.0,-0.009,47.092,66.0,100.0,26.0,26.0,26.0,26.0,0.42,-1.70,-0.06,383.5,-3.45,-3.31,-2.64,-1.20,-711.98,591.44,5.9,0.00,0.00,0.00,0.00,0.06,-7.49,-7.49,-0.82,2.29,-0.39,5.47,39.26,0.34,-0.78,-10.46,100.0,0,0,105.57,0,0,0.0,0,0,0,0,5631,0,30.00,4,141.6,0,0,0.0,0.0,0.0,0.0,0,0,2.136,2.136,48.829,17.577,0,110.00,435.8,8750,0.0,0.0,110.0,110.0,433.0,0.00,0,0,1,333.3,59.6,59.6,91.4,91.4,34.0,3.93,0.24,1.2,42.7,6,-296.890,-19.0,100.0,30.3,31.2,17.6,27.3,0,1,0.0,0.00,0.00,0.00,0.00,4845,4690,2356,4067,313.4,312.2,349.7,344.5,27.06,23.48,27.45,25.48,325.0,325.0,355.0,355.0,99.83,100.00,99.87,99.95,1.09,1.16,0.63,0.88,-7.6,-9.5,-6.5,-2.3,95.1,72.8,91.3,79.0,101.5,74.9,92.5,79.8,97.9,71.6,91.2,77.6,93.9,69.6,89.7,76.1,-1.08,1.09,0.11,0.08,0.00,110.40,108.63,103.28,107.86,88.0,25.5,1.752141546793523,133.59773473810057,42.49200189263772,-57.61627360806216,-7.2020351256712445
2.150,103.7,44.053720958898204,-78.681703707189939,-196.2,-145.7,40.2,66.5,10313.4,10313,139.0,0,1,1,0,1,1,0,0,0,100,1,1.186,26.0,0.0,-0.006,47.092,66.0,92.7,26.0,26.0,26.0,26.0,0.35,-1.20,-0.41,389.4,-2.66,-1.35,-1.94,-1.18,-711.41,589.66,5.9,0.00,0.00,0.00,0.00,0.06,-7.49,-7.49,-0.88,-3.90,-0.08,5.06,38.57,0.46,-0.73,-8.48,100.0,0,0,103.55,0,0,0.0,0,0,0,0,5523,0,30.00,4,139.0,1,0,0.0,0.0,0.0,0.0,0,0,2.184,2.184,48.829,17.577,1,110.00,435.8,8750,0.0,0.0,110.0,110.0,433.0,0.00,0,0,1,333.3,71.5,71.5,92.4,92.4,34.0,-1.32,-2.74,0.4,39.6,6,-296.940,-19.8,100.0,20.5,23.9,19.6,30.6,0,1,0.0,0.00,0.00,0.00,0.00,3390,4184,493,3637,317.2,314.3,354.2,345.9,27.06,23.48,27.45,25.48,325.0,325.0,355.0,355.0,99.83,100.00,99.87,99.95,1.45,1.46,0.83,0.99,-11.4,-11.1,-5.9,-2.3,95.1,72.8,91.3,79.0,101.5,75.0,92.4,79.8,98.0,71.7,91.1,77.5,93.9,69.7,89.7,76.1,-1.14,1.13,0.11,0.06,0.00,107.42,104.49,100.76,106.33,88.0,25.5,1.3155227098001767,130.71692105769745,42.49200183573535,-18.005085538083563,14.404068544271524
2.200,105.6,44.053704321448492,-78.681698221328148,112.3,447.5,-63.0,-128.3,10315.3,10315,136.2,0,1,1,0,1,1,0,0,0,100,1,1.186,26.0,0.0,-0.009,47.092,66.0,68.7,26.0,26.0,26.0,26.0,0.80,-1.44,0.40,384.1,-2.77,-2.71,-1.76,-0.78,-710.80,587.81,5.9,0.00,0.00,0.00,0.00,0.06,-7.49,-7.49,-1.04,1.97,0.05,-1.68,37.78,0.48,-0.86,-13.70,100.0,0,0,100.81,0,0,0.0,0,0,0,0,5377,0,30.00,4,136.2,0,0,0.0,0.0,0.0,0.0,0,0,2.235,2.235,48.829,17.577,0,110.00,435.8,8750,0.0,0.0,110.0,110.0,433.0,0.00,0,0,1,333.3,55.0,55.0,89.7,89.7,34.0,16.59,35.94,0.9,18.9,6,-296.990,-19.3,100.0,26.1,46.3,16.4,24.2,0,1,0.0,0.00,0.00,0.00,0.00,6286,2906,778,2315,310.3,316.9,353.2,348.9,27.06,23.48,27.45,25.47,325.0,325.0,355.0,355.0,99.83,100.00,99.87,99.95,1.20,1.51,1.08,1.23,-6.1,-2.6,-6.7,-3.6,95.1,72.8,91.3,79.0,101.6,75.1,92.4,79.8,98.0,71.8,91.1,77.5,94.0,69.8,89.6,76.1,-1.12,1.17,0.11,0.08,0.00,110.59,111.62,98.34,103.28,88.0,25.5,1.6951696080333674,131.7972261842922,43.93240874706487,-50.414239620438224,10.80305211948314
2.250,107.4,44.053688043727426,-78.681692735466342,16.0,-244.9,-89.6,22.0,10317.2,10317,134.2,0,1,1,0,1,1,0,0,0,100,1,1.186,26.0,0.0,-0.009,47.092,66.0,25.6,26.0,26.0,26.0,26.0,0.96,-1.01,-0.01,383.2,-3.03,-1.40,-2.03,-0.58,-710.19,586.00,5.9,0.00,0.00,0.00,0.00,0.07,-7.49,-7.49,-0.69,9.65,0.24,4.37,37.24,0.66,-0.59,-18.11,100.0,0,0,101.72,0,0,0.0,0,0,0,0,5426,0,30.00,4,134.2,1,0,0.0,0.0,0.0,0.0,0,0,2.286,2.286,48.829,17.577,1,110.00,435.8,8750,0.0,0.0,110.0,110.0,433.0,0.00,0,0,1,166.7,58.7,58.7,86.3,86.3,34.0,22.44,129.66,6.6,109.3,6,-297.040,-16.7,100.0,26.9,34.0,12.0,25.3,0,1,0.0,0.00,0.00,0.00,0.00,3052,7845,2586,6164,317.7,304.7,349.3,339.9,27.06,23.48,27.45,25.47,325.0,325.0,355.0,355.0,99.83,100.00,99.87,99.95,1.27,1.35,1.45,1.72,-1.9,-1.1,-6.3,-1.3,95.1,72.8,91.3,79.0,101.6,75.2,92.3,79.8,98.0,71.9,91.0,77.5,93.9,69.9,89.6,76.1,-1.00,1.00,0.11,0.08,0.00,111.89,114.82,99.15,104.29,88.0,25.5,1.3934848402476434,125.67549709565363,43.572307047683665,-75.62135943065726,10.803050981435831
2.300,109.3,44.053672935124446,-78.681687339536708,-175.4,-19.1,371.2,257.3,10319.1,10319,133.3,0,1,1,0,1,1,0,0,0,100,1,1.186,26.0,0.0,-0.006,47.092,66.0,2.6,26.0,26.0,26.0,26.0,1.00,-0.31,0.02,378.9,-1.86,-1.74,-2.36,-0.47,-709.59,584.32,5.9,0.00,0.00,0.00,0.00,0.07,-7.49,-7.49,-0.35,5.84,0.20,-0.21,37.01,0.69,-0.44,-15.83,100.0,0,0,104.08,0,0,0.0,0,0,0,0,5552,0,30.00,4,133.3,0,0,0.0,0.0,0.0,0.0,1,0,2.334,2.334,48.829,17.577,0,110.00,435.8,8750,0.0,0.0,110.0,110.0,433.0,0.00,0,0,1,166.7,68.6,68.6,58.0,58.0,34.0,1.93,117.66,57.0,112.0,6,-297.080,-13.0,100.0,18.2,33.1,30.5,38.1,0,1,0.0,0.00,0.00,0.00,0.00,247,6955,4726,6202,323.7,306.9,344.4,340.1,27.06,23.48,27.45,25.47,325.0,325.0,355.0,355.0,99.83,100.00,99.87,99.95,1.29,1.33,1.54,1.68,-0.2,-0.2,-0.6,-0.5,95.1,72.8,91.3,79.0,101.5,75.2,92.3,79.8,97.9,71.9,91.0,77.5,93.9,69.9,89.5,76.1,-0.79,0.79,0.08,0.05,0.00,112.65,114.44,103.24,104.93,88.0,25.5,1.0471389592599447,124.23509024122649,45.01271384520845,10.803051265947943,39.61118806997881
2.350,111.1,44.053657017132025,-78.681681493946272,-114.1,-21.1,7.2,101.8,10320.9,10321,133.0,0,1,1,0,1,1,0,0,0,100,1,1.186,26.0,0.0,-0.009,47.092,66.0,0.0,26.0,26.0,26.0,26.0,0.93,-0.14,-0.14,381.1,-3.63,-1.67,-0.96,-1.62,-708.94,582.55,5.9,0.00,0.00,0.00,0.00,0.07,-7.49,-7.49,-0.11,2.83,-0.08,-11.78,36.92,0.63,-0.32,-11.24,100.0,0,0,103.65,0,0,0.0,0,0,0,0,5529,0,30.00,4,133.0,1,0,0.0,0.0,0.0,0.0,1,0,2.385,2.385,48.829,17.577,1,110.00,435.8,8750,0.0,0.0,110.0,110.0,433.0,0.00,0,0,1,333.3,72.8,72.8,60.5,60.5,34.0,5.46,91.88,36.2,99.8,6,-297.130,-10.9,100.0,12.4,32.0,30.9,43.2,0,1,0.0,0.00,0.00,0.00,0.00,1002,5647,2948,5357,322.9,309.8,348.1,341.2,27.06,23.49,27.44,25.47,325.0,325.0,355.0,355.0,99.83,100.00,99.87,99.95,1.25,1.32,1.48,1.57,-0.0,-0.0,-0.2,-0.3,95.1,72.8,91.3,79.0,101.4,75.2,92.2,79.8,97.8,71.9,90.9,77.5,93.8,69.9,89.5,76.1,-0.64,0.65,0.09,0.03,0.00,112.92,113.81,103.27,104.02,88.0,25.5,0.9508417323613851,126.75580222224842,47.533425854681546,-18.00508553808342,25.20712009473094
2.400,113.0,44.053641279003919,-78.681675468491505,35.7,-112.6,43.9,55.6,10322.7,10323,132.7,0,1,1,0,1,1,0,0,0,100,1,1.186,26.0,0.0,-0.009,47.092,66.0,0.1,26.0,26.0,26.0,26.0,0.86,-0.12,0.17,380.3,-2.21,-2.10,-0.27,-1.18,-708.27,580.80,5.9,0.00,0.00,0.00,0.00,0.07,-7.49,-7.49,-0.09,-2.38,-0.64,-10.15,36.85,0.46,-0.33,-6.94,100.0,0,0,103.24,0,0,0.0,0,0,0,0,5507,0,30.00,4,132.7,0,0,0.0,0.0,0.0,0.0,1,0,2.436,2.436,48.829,17.577,0,110.00,435.8,8750,0.0,0.0,110.0,110.0,433.0,0.00,0,0,1,333.3,74.8,74.8,62.7,62.7,34.0,17.97,60.63,51.3,80.7,6,-297.190,-11.2,100.0,14.2,26.4,33.1,46.0,0,1,0.0,0.00,0.00,0.00,0.00,2203,4059,4230,5027,319.8,313.7,344.5,341.9,27.06,23.49,27.44,25.47,325.0,325.0,355.0,355.0,99.83,100.00,99.87,99.95,1.17,1.21,1.06,1.19,-0.0,-0.0,-0.1,-0.3,95.1,72.8,91.3,79.0,101.3,75.2,92.2,79.8,97.7,71.9,90.9,77.5,93.7,69.9,89.4,76.1,-0.63,0.64,0.07,0.03,0.00,112.73,113.24,103.03,103.46,88.0,25.5,0.8848163651289458,122.43458168741815,47.533425854681546,-50.41423962043851,10.80305098143576
2.450,114.8,44.053626440197426,-78.681669622901069,126.3,-80.3,-14.1,-126.8,10324.6,10325,132.4,0,1,1,0,1,1,0,0,0,100,1,1.186,26.0,0.0,-0.012,47.092,66.0,1.1,26.0,26.0,26.0,26.0,0.70,-0.18,0.11,381.1,-2.39,-1.85,-1.50,-1.09,-707.62,579.15,5.9,0.00,0.00,0.00,0.00,0.07,-7.49,-7.49,-0.28,-3.63,-0.87,1.97,36.77,0.33,-0.42,-6.88,100.0,0,0,103.00,0,0,0.0,0,0,0,0,5494,0,30.00,4,132.4,1,0,0.0,0.0,0.0,0.0,1,0,2.484,2.484,48.829,17.577,1,110.00,435.8,8750,0.0,0.0,110.0,110.0,433.0,0.00,0,0,1,166.7,69.8,69.8,73.0,73.0,34.0,29.00,75.18,16.7,52.9,6,-297.230,-13.1,100.0,20.5,22.4,32.4,39.7,0,1,0.0,0.00,0.00,0.00,0.00,3988,5264,2967,4353,315.5,311.2,347.6,344.1,27.06,23.49,27.44,25.47,325.0,325.0,355.0,355.0,99.83,100.00,99.87,99.95,0.93,1.05,0.71,0.82,-0.0,-0.1,-0.2,-0.4,95.1,72.8,91.3,79.0,101.3,75.2,92.1,79.8,97.7,71.9,90.9,77.5,93.7,69.9,89.4,76.1,-0.73,0.73,0.07,0.05,0.00,112.42,112.93,102.85,103.15,88.0,25.5,0.7310950690573695,121.71437826020457,48.61373095282512,21.606102816407287,32.40915351333108
2.500,116.7,44.053610881933643,-78.681663327649829,21.9,87.5,-145.8,-98.2,10326.4,10326,132.1,0,1,1,0,1,1,0,0,0,100,1,1.186,26.0,0.0,-0.015,47.092,66.0,4.8,26.0,26.0,26.0,26.0,0.63,-0.25,-0.15,383.3,-2.38,-2.61,-2.35,-1.14,-706.92,577.42,6.0,0.00,0.00,0.00,0.00,0.07,-7.49,-7.49,-0.34,1.10,-0.72,2.15,36.67,0.28,-0.45,-9.46,100.0,0,0,102.85,0,0,0.0,0,0,0,0,5486,0,30.00,4,132.1,0,0,0.0,0.0,0.0,0.0,1,0,2.535,2.535,48.829,17.577,0,110.00,435.8,8750,0.0,0.0,110.0,110.0,433.0,0.00,0,0,1,166.7,68.6,68.6,75.0,75.0,34.0,15.00,76.55,12.7,51.8,6,-297.280,-15.6,100.0,21.6,26.7,25.1,34.8,0,1,0.0,0.00,0.00,0.00,0.00,2367,5184,3591,4327,319.2,310.4,346.8,344.3,27.06,23.49,27.44,25.47,325.0,325.0,355.0,355.0,99.83,100.00,99.87,99.95,0.92,0.96,0.65,0.82,-0.3,-0.3,-0.2,-0.5,95.1,72.8,91.3,78.9,101.2,75.2,92.1,79.8,97.6,71.9,90.8,77.5,93.6,69.9,89.3,76.1,-0.88,0.87,0.09,0.05,0.00,111.79,112.77,102.58,103.12,88.0,25.5,0.6941901756723442,124.59519196905887,50.774341206014654,-14.404068259759697,18.00508553808342
2.550,118.5,44.053595323669860,-78.681656942466432,-160.5,-56.8,66.7,61.8,10328.2,10328,131.6,0,1,1,0,1,1,0,0,0,100,1,1.186,26.0,0.0,-0.018,47.092,66.0,12.5,26.0,26.0,26.0,26.0,0.62,-0.30,-0.15,385.8,-1.70,-1.52,-0.81,-1.19,-706.21,575.69,6.0,0.00,0.00,0.00,0.00,0.07,-7.49,-7.49,-0.41,-4.58,-0.66,-1.46,36.54,0.27,-0.45,-8.76,100.0,0,0,102.10,0,0,0.0,0,0,0,0,5446,0,30.00,4,131.6,1,0,0.0,0.0,0.0,0.0,1,0,2.586,2.586,48.829,17.577,1,110.00,435.8,8750,0.0,0.0,110.0,110.0,433.0,0.00,0,0,1,166.7,77.3,77.3,70.6,70.6,34.0,7.46,65.61,17.8,60.4,6,-297.330,-19.1,100.0,13.6,23.9,28.4,37.8,0,1,0.0,0.00,0.00,0.00,0.00,1102,4733,2766,4674,322.3,312.9,348.1,342.7,27.06,23.49,27.44,25.47,325.0,325.0,355.0,355.0,99.83,100.00,99.87,99.95,1.15,1.14,0.67,0.84,-1.2,-0.6,-0.3,-0.5,95.1,72.8,91.3,78.9,101.1,75.2,92.0,79.7,97.6,71.9,90.7,77.5,93.6,69.9,89.3,76.0,-1.09,1.06,0.07,0.06,0.00,110.10,111.57,101.84,102.36,88.0,25.5,0.7049113419430844,120.2739714342286,50.414239506633464,-57.6162736080623,3.6010175628356222
2.600,120.3,44.053580844592005,-78.681650737147351,137.2,19.7,-110.0,-83.1,10330.1,10330,130.9,0,1,1,0,1,1,0,0,0,100,1,1.186,26.0,0.0,-0.027,47.092,66.0,23.5,26.0,26.0,26.0,26.0,0.72,-0.54,-0.14,384.7,-3.14,-2.28,-1.03,-1.01,-705.52,574.08,6.0,0.00,0.00,0.00,0.00,0.07,-7.49,-7.49,-0.63,-2.56,-0.67,1.63,36.34,0.26,-0.55,-12.05,100.0,0,0,100.94,0,0,0.0,0,0,0,0,5384,0,30.00,4,130.9,0,0,0.0,0.0,0.0,0.0,1,0,2.634,2.634,48.829,17.577,0,110.00,435.8,8750,0.0,0.0,110.0,110.0,433.0,0.00,0,0,1,166.7,65.6,65.6,86.1,86.1,34.0,39.33,111.52,1.1,47.6,6,-297.380,-23.2,100.0,20.5,24.9,22.9,33.7,0,1,0.0,0.00,0.00,0.00,0.00,4884,6763,302,4031,313.7,307.6,354.1,345.2,27.06,23.49,27.44,25.47,325.0,325.0,355.0,355.0,99.83,100.00,99.87,99.95,1.15,1.30,0.79,0.89,-1.0,-1.1,-1.3,-0.9,95.1,72.8,91.2,78.9,101.1,75.2,92.0,79.7,97.5,71.9,90.7,77.4,93.5,69.9,89.2,76.0,-1.30,1.30,0.10,0.07,0.00,110.02,110.86,99.99,101.88,88.0,25.5,0.910823802938856,118.83356460825264,51.134442962298216,3.6010172783244343,28.808137088542765
2.650,122.1,44.053565646056860,-78.681644172099624,-5.4,78.6,-51.6,-39.2,10331.9,10332,129.7,0,1,1,0,1,1,0,0,0,100,1,1.186,26.0,0.0,-0.030,47.092,66.0,38.0,26.0,26.0,26.0,26.0,0.80,-0.73,0.02,384.6,-3.23,-3.43,-1.84,-0.05,-704.79,572.39,6.0,0.00,0.00,0.00,0.00,0.07,-7.49,-7.49,-0.60,1.39,-0.64,-0.39,36.00,0.33,-0.49,-15.54,100.0,0,0,100.22,0,0,0.0,0,0,0,0,5346,0,30.00,4,129.7,1,0,0.0,0.0,0.0,0.0,1,0,2.685,2.685,48.829,17.577,1,110.00,435.8,8750,0.0,0.0,110.0,110.0,433.0,0.00,0,0,1,333.3,67.5,67.5,77.0,77.0,34.0,18.05,97.57,25.2,49.1,6,-297.440,-28.2,100.0,20.2,28.8,20.3,31.7,0,1,0.0,0.00,0.00,0.00,0.00,2445,5756,3469,4041,318.9,309.1,346.8,345.2,27.06,23.49,27.44,25.47,325.0,325.0,355.0,355.0,99.83,100.00,99.87,99.95,1.50,1.51,0.93,1.15,-2.5,-1.7,-0.6,-1.2,95.1,72.8,91.2,78.9,101.0,75.2,91.9,79.7,97.5,71.9,90.6,77.4,93.5,69.9,89.2,76.0,-1.60,1.57,0.10,0.07,0.00,106.81,109.15,99.74,100.71,88.0,25.5,1.0831897340724754,120.63407316206104,53.29505321548774,-2.845116853222862e-07,32.40915351333122
2.700,123.9,44.053550717318203,-78.681637427187582,-117.4,-104.3,142.0,90.4,10333.6,10334,128.3,0,1,1,0,1,1,0,0,0,100,1,1.186,26.0,0.0,-0.039,47.092,66.0,47.1,26.0,26.0,26.0,26.0,0.64,-0.64,-0.25,388.2,-3.38,-2.19,-2.07,-1.22,-704.04,570.73,6.0,0.00,0.00,0.00,0.00,0.07,-7.49,-7.49,-0.70,-5.72,-0.51,3.04,35.63,0.43,-0.50,-13.74,100.0,0,0,98.38,0,0,0.0,0,0,0,0,5248,0,30.00,4,128.3,0,0,0.0,0.0,0.0,0.0,1,0,2.736,2.736,48.829,17.577,0,110.00,435.8,8750,0.0,0.0,110.0,110.0,433.0,0.00,0,0,1,166.7,78.5,78.5,74.3,74.3,34.0,-0.03,54.76,9.1,51.3,6,-297.490,-34.4,100.0,14.3,23.6,27.4,36.3,0,1,0.0,0.00,0.00,0.00,0.00,99,4295,1427,3660,324.6,313.5,351.2,345.5,27.06,23.49,27.44,25.47,325.0,325.0,355.0,355.0,99.83,100.00,99.87,99.95,2.12,1.98,1.09,1.23,-11.0,-3.2,-1.4,-1.3,95.1,72.8,91.2,78.9,101.0,75.2,91.8,79.7,97.4,71.9,90.6,77.4,93.4,69.9,89.1,76.0,-1.96,1.91,0.09,0.06,0.00,94.41,106.16,97.61,99.15,88.0,25.5,0.9389888178247918,118.83356457980148,54.37535831363134,-68.4193254430339,0.0
2.750,125.6,44.053535968443867,-78.681630592343382,-25.4,-22.5,-165.2,-65.1,10335.4,10335,126.7,0,1,1,0,1,1,0,0,0,100,1,1.186,26.0,0.0,-0.045,47.092,66.0,54.6,26.0,26.0,26.0,26.0,0.80,-1.06,-0.21,389.4,-2.01,-2.99,-1.89,-2.57,-703.28,569.09,6.0,0.00,0.00,0.00,0.00,0.08,-7.49,-7.49,-1.12,-9.04,-0.62,-4.18,35.16,0.46,-0.61,-14.27,100.0,0,0,96.34,0,0,0.0,0,0,0,0,5139,0,30.00,4,126.7,1,0,0.0,0.0,0.0,0.0,1,0,2.787,2.787,48.829,17.577,1,110.00,435.8,8750,0.0,0.0,110.0,110.0,433.0,0.00,0,0,1,166.7,74.2,74.2,84.8,84.8,34.0,-2.76,57.46,13.0,36.3,6,-297.540,-42.0,100.0,13.1,22.5,19.2,33.0,0,1,0.0,0.00,0.00,0.00,0.00,3765,5152,2003,2600,316.5,311.6,350.4,347.8,27.06,23.49,27.43,25.47,325.0,325.0,355.0,355.0,99.83,100.00,99.87,99.95,2.55,2.62,1.21,1.39,-9.9,-3.7,-2.5,-1.9,95.1,72.8,91.2,78.9,100.9,75.3,91.8,79.7,97.4,71.9,90.5,77.4,93.4,69.9,89.0,76.0,-2.40,2.34,0.10,0.08,0.00,97.06,103.80,95.75,96.93,88.0,25.5,1.3445073447177596,113.79214061775765,53.29505321548774,-75.6213591461453,-7.202033987623935
