Time,Distance,GPS Latitude,GPS Longitude,Damper Velocity (Calc) FL,Damper Velocity (Calc) FR,Damper Velocity (Calc) RL,Damper Velocity (Calc) RR,Corr Dist,Corr Dist (Unstretched),Corr Speed,ABS Active,ABS Enabled,AID Allow Tire Blankets,AID Auto Blip,AID Auto Clutch,AID Auto Shift,AID Fuel Rate,AID Ideal Line,AID Mech Damage,AID Stability,AID Tire Wear Rate,Air Density,Air Temp,Ballast,Best Lap Delta,Best Lap Time,Brake Bias,Brake Pos,Brake Temp FL,Brake Temp FR,Brake Temp RL,Brake Temp RR,CG Accel Lateral,CG Accel Longitudinal,CG Accel Vertical,CG Height,Camber FL,Camber FR,Camber RL,Camber RR,Car Coord X,Car Coord Y,Car Coord Z,Car Damage Front,Car Damage Left,Car Damage Rear,Car Damage Right,Car Pos Norm,Caster FL,Caster FR,Chassis Pitch Angle,Chassis Pitch Rate,Chassis Roll Angle,Chassis Roll Rate,Chassis Velocity X,Chassis Velocity Y,Chassis Velocity Z,Chassis Yaw Rate,Clutch Pos,DRS Active,DRS Available,Drive Train Speed,ERS Heat Charging,ERS Is Charging,ERS Max Energy,ERS Power Level,ERS Recovery Level,Engine Brake Setting,Engine Limiter,Engine RPM,Flags,Fuel Level,Gear,Ground Speed,HR Sample Clock,In Pit,KERS Charge,KERS Deployed Energy,KERS Input,KERS Max Energy,LR Sample Clock,Lap Invalidated,Lap Time,Lap Time2,Last Lap Time,Last Sector Time,MR Sample Clock,Max Fuel,Max Power,Max RPM,Max Sus Travel FL,Max Sus Travel FR,Max Sus Travel RL,Max Sus Travel RR,Max Torque,Max Turbo Boost,Num Tires Off Track,Penalties Enabled,Position,Raw Data Sample Rate,Ride Height FL,Ride Height FR,Ride Height RL,Ride Height RR,Road Temp,Self Align Torque FL,Self Align Torque FR,Self Align Torque RL,Self Align Torque RR,Session Lap Count,Session Time Left,Steering Angle,Surface Grip,Suspension Travel FL,Suspension Travel FR,Suspension Travel RL,Suspension Travel RR,TC Active,TC Enabled,Throttle Pos,Tire Dirt Level FL,Tire Dirt Level FR,Tire Dirt Level RL,Tire Dirt Level RR,Tire Load FL,Tire Load FR,Tire Load RL,Tire Load RR,Tire Loaded Radius FL,Tire Loaded Radius FR,Tire Loaded Radius RL,Tire Loaded Radius RR,Tire Pressure FL,Tire Pressure FR,Tire Pressure RL,Tire Pressure RR,Tire Radius FL,Tire Radius FR,Tire Radius RL,Tire Radius RR,Tire Rubber Grip FL,Tire Rubber Grip FR,Tire Rubber Grip RL,Tire Rubber Grip RR,Tire Slip Angle FL,Tire Slip Angle FR,Tire Slip Angle RL,Tire Slip Angle RR,Tire Slip Ratio FL,Tire Slip Ratio FR,Tire Slip Ratio RL,Tire Slip Ratio RR,Tire Temp Core FL,Tire Temp Core FR,Tire Temp Core RL,Tire Temp Core RR,Tire Temp Inner FL,Tire Temp Inner FR,Tire Temp Inner RL,Tire Temp Inner RR,Tire Temp Middle FL,Tire Temp Middle FR,Tire Temp Middle RL,Tire Temp Middle RR,Tire Temp Outer FL,Tire Temp Outer FR,Tire Temp Outer RL,Tire Temp Outer RR,Toe In FL,Toe In FR,Toe In RL,Toe In RR,Turbo Boost,Wheel Angular Speed FL,Wheel Angular Speed FR,Wheel Angular Speed RL,Wheel Angular Speed RR,Wind Direction,Wind Speed,CG Distance,Lateral Velocity,Longitudinal Velocity,Lateral Acceleration,Longitudinal Acceleration
s,m,deg,deg,mm/s,mm/s,mm/s,mm/s,m,m,km/h,,,,,,,,,%,%,,kg/m3,C,kg,s,s,%,%,C,C,C,C,G,G,G,mm,deg,deg,deg,deg,m,m,m,,,,,,deg,deg,deg,deg/s,deg,deg/s,m/s,m/s,m/s,deg/s,%,,,rad/s,,,MJ,,,,,rpm,,l,,km/h,,,%,kJ,%,MJ,,,s,s,s,s,,l,hp,rpm,mm,mm,mm,mm,N.m,,,,,Hz,mm,mm,mm,mm,C,N.m,N.m,N.m,N.m,,s,deg,%,mm,mm,mm,mm,,,%,,,,,N,N,N,N,mm,mm,mm,mm,psi,psi,psi,psi,mm,mm,mm,mm,%,%,%,%,deg,deg,deg,deg,%,%,%,%,C,C,C,C,C,C,C,C,C,C,C,C,C,C,C,C,deg,deg,deg,deg,,rad/s,rad/s,rad/s,rad/s,deg,km/h,G,Km/h,Km/h,Km/h^2,Km/h^2
0.000,0.0,44.054624327451350,-78.681966578895342,-20.4,-23.2,94.3,11.2,6830.1,6830,172.4,0,1,1,0,1,1,0,0,0,100,1,1.186,26.0,0.0,0.000,48.272,66.0,0.0,26.0,26.0,26.0,26.0,0.33,0.30,-0.07,376.7,-2.58,-1.72,-1.83,-1.82,-740.64,690.11,5.7,0.00,0.00,0.00,0.00,0.00,-7.49,-7.49,-0.21,-0.63,0.30,-5.51,47.90,0.18,-0.35,-2.41,100.0,0,0,137.06,0,0,0.0,0,0,0,0,7311,0,30.00,4,172.4,0,0,0.0,0.0,0.0,0.0,0,0,0.018,0.018,48.272,17.725,0,110.00,435.8,8750,0.0,0.0,110.0,110.0,433.0,0.00,0,0,1,166.7,70.9,70.9,59.8,59.8,34.0,3.3,39.90,-0.3,46.2,4,-232.615,-4.1,100.0,18.3,25.5,42.0,44.1,0,1,100.0,0.00,0.00,0.00,0.00,3424,4844,3769,5645,316.5,312.4,346.6,340.4,25.42,22.68,26.48,24.73,325.0,325.0,355.0,355.0,99.99,99.96,99.98,100.00,0.38,0.45,0.27,0.38,-0.1,-0.1,1.9,1.8,84.9,67.8,85.3,74.3,91.6,67.9,91.1,77.2,88.1,65.0,89.3,74.8,85.2,63.6,88.2,73.6,-0.23,0.24,0.06,0.04,0.00,146.74,146.88,137.06,137.06,174.7,27.6,0.4514421336118285
0.050,2.4,44.054605441697625,-78.681961992355156,61.7,-74.7,-67.3,-19.1,6832.5,6833,172.9,0,1,1,0,1,1,0,0,0,100,1,1.186,26.0,0.0,0.000,48.272,66.0,0.0,26.0,26.0,26.0,26.0,0.18,0.33,-0.21,380.5,-3.12,-1.67,-1.93,-1.06,-740.13,688.01,5.7,0.00,0.00,0.00,0.00,0.00,-7.49,-7.49,-0.20,-0.13,0.10,-3.11,48.04,0.15,-0.33,-2.35,100.0,0,0,137.39,0,0,0.0,0,0,0,0,7328,0,30.00,4,172.9,1,0,0.0,0.0,0.0,0.0,0,0,0.063,0.063,48.272,17.725,1,110.00,435.8,8750,0.0,0.0,110.0,110.0,433.0,0.00,0,0,1,333.3,76.8,76.8,66.4,66.4,34.0,1.0,12.45,-4.3,31.3,4,-232.665,-5.0,100.0,21.4,21.8,38.6,43.1,0,1,100.0,0.00,0.00,0.00,0.00,1771,2150,4443,5179,320.3,319.8,344.6,341.5,25.42,22.68,26.48,24.73,325.0,325.0,355.0,355.0,99.99,99.96,99.98,100.00,0.41,0.37,0.21,0.32,-0.0,0.0,1.8,1.7,84.9,67.8,85.3,74.3,91.5,67.9,91.1,77.2,88.0,65.0,89.3,74.8,85.2,63.6,88.1,73.6,-0.27,0.27,0.06,0.04,0.00,147.15,147.24,137.39,137.39,174.7,27.6,0.43058100283221973,161.3255664724392,39.61118818378344
0.100,4.8,44.054584037843405,-78.681956686357680,-110.5,-118.4,66.6,-27.8,6834.9,6835,173.5,0,1,1,0,1,1,0,0,0,100,1,1.186,26.0,0.0,-0.003,48.272,66.0,0.0,26.0,26.0,26.0,26.0,0.18,0.28,-0.22,382.5,-2.12,-2.69,-1.98,-2.44,-739.54,685.63,5.7,0.00,0.00,0.00,0.00,0.00,-7.49,-7.49,-0.40,-6.54,0.05,3.38,48.21,0.15,-0.39,-2.19,100.0,0,0,137.83,0,0,0.0,0,0,0,0,7352,0,30.00,4,173.5,0,0,0.0,0.0,0.0,0.0,1,0,0.114,0.114,48.272,17.725,0,110.00,435.8,8750,0.0,0.0,110.0,110.0,433.0,0.00,0,0,1,333.3,80.1,80.1,66.4,66.4,34.0,7.2,15.98,-6.8,23.1,4,-232.715,-6.3,100.0,15.9,15.9,41.9,41.8,0,1,100.0,0.00,0.00,0.00,0.00,4022,2105,4126,3272,315.2,319.7,344.4,345.6,25.43,22.68,26.49,24.74,325.0,325.0,355.0,355.0,99.99,99.96,99.98,100.00,0.39,0.44,0.17,0.24,-0.1,-0.0,1.8,1.7,84.9,67.8,85.3,74.3,91.5,67.9,91.0,77.1,88.0,65.0,89.2,74.8,85.1,63.5,88.1,73.6,-0.34,0.35,0.05,0.04,0.00,147.53,147.55,137.83,137.83,174.7,27.6,0.3989987468652001,171.76851606745686,42.49200189263772,61.21729088638574,21.606102531895246
0.150,7.2,44.054562544057028,-78.681951380360204,36.1,270.5,-254.3,-137.7,6837.3,6837,174.0,0,1,1,0,1,1,0,0,0,100,1,1.186,26.0,0.0,-0.003,48.272,66.0,0.0,26.0,26.0,26.0,26.0,0.34,0.32,-0.09,381.4,-2.64,-2.50,-1.40,-1.88,-738.95,683.24,5.7,0.00,0.00,0.00,0.00,0.01,-7.49,-7.49,-0.58,0.16,0.19,-3.95,48.35,0.16,-0.44,-4.93,100.0,0,0,138.92,0,0,0.0,0,0,0,0,7410,0,30.00,4,174.0,1,0,0.0,0.0,0.0,0.0,1,0,0.164,0.164,48.272,17.725,1,110.00,435.8,8750,0.0,0.0,110.0,110.0,433.0,0.00,0,0,1,333.3,68.1,68.1,64.3,64.3,34.0,4.9,68.44,1.3,22.2,4,-232.765,-7.6,100.0,17.7,29.4,29.2,34.9,0,1,100.0,0.00,0.00,0.00,0.00,2490,6062,4499,3165,318.7,308.1,344.5,346.4,25.43,22.68,26.49,24.74,325.0,325.0,355.0,355.0,99.99,99.96,99.98,100.00,0.48,0.55,0.24,0.40,-0.1,-0.0,2.4,2.1,84.9,67.8,85.3,74.4,91.4,67.8,91.0,77.1,87.9,65.0,89.2,74.7,85.0,63.5,88.0,73.6,-0.43,0.43,0.08,0.05,0.00,147.99,148.49,138.92,138.92,174.7,27.6,0.47549973711874965,167.44729556107777,41.771798436972965,-39.61118778546705,0.0
0.200,9.7,44.054542219388729,-78.681946254227057,33.7,-20.9,111.0,161.4,6839.8,6840,174.6,0,1,1,0,1,1,0,0,0,100,1,1.186,26.0,0.0,-0.003,48.272,66.0,0.0,26.0,26.0,26.0,26.0,0.46,0.29,0.10,375.6,-2.39,-2.39,-1.82,-1.44,-738.38,680.98,5.7,0.00,0.00,0.00,0.00,0.01,-7.49,-7.49,-0.49,1.64,-0.02,-6.23,48.52,0.19,-0.38,-5.70,100.0,0,0,138.39,0,0,0.0,0,0,0,0,7382,0,30.00,4,174.6,0,0,0.0,0.0,0.0,0.0,1,0,0.213,0.213,48.272,17.725,0,110.00,435.8,8750,0.0,0.0,110.0,110.0,433.0,0.00,0,0,1,333.3,68.1,68.1,62.6,62.6,34.0,9.1,57.09,3.6,67.9,4,-232.815,-7.5,100.0,19.4,28.4,34.8,42.9,0,1,100.0,0.00,0.00,0.00,0.00,3509,5200,4305,6789,316.6,310.9,344.5,337.1,25.43,22.68,26.49,24.74,325.0,325.0,355.0,355.0,99.99,99.96,99.98,100.00,0.50,0.59,0.35,0.52,-0.0,-0.1,1.6,1.5,84.9,67.8,85.3,74.4,91.3,67.8,90.9,77.1,87.8,65.0,89.1,74.7,85.0,63.5,88.0,73.6,-0.45,0.44,0.08,0.03,0.00,148.58,148.99,138.39,138.39,174.7,27.6,0.5529014378711634,167.80739728891015,42.49200189263772,54.015256614250404,28.808137088542836
0.250,12.1,44.054520635670187,-78.681940768365251,20.2,-71.1,91.9,15.7,6842.2,6842,175.2,0,1,1,0,1,1,0,0,0,100,1,1.186,26.0,0.0,0.000,48.272,66.0,0.0,26.0,26.0,26.0,26.0,0.42,0.30,-0.04,376.5,-1.86,-2.61,-1.18,-2.12,-737.77,678.58,5.7,0.00,0.00,0.00,0.00,0.01,-7.49,-7.49,-0.41,0.82,-0.37,-3.92,48.67,0.23,-0.34,-5.16,100.0,0,0,139.00,0,0,0.0,0,0,0,0,7415,0,30.00,4,175.2,1,0,0.0,0.0,0.0,0.0,1,0,0.264,0.264,48.272,17.725,1,110.00,435.8,8750,0.0,0.0,110.0,110.0,433.0,0.00,0,0,1,333.3,71.6,71.6,58.8,58.8,34.0,9.9,42.14,12.2,51.6,4,-232.865,-6.2,100.0,20.4,24.8,39.4,43.7,0,1,100.0,0.00,0.00,0.00,0.00,2885,4093,5438,5133,317.7,313.7,341.6,342.0,25.43,22.68,26.49,24.74,325.0,325.0,355.0,355.0,99.99,99.96,99.98,100.00,0.52,0.55,0.37,0.50,-0.1,-0.1,1.9,1.5,84.9,67.8,85.3,74.4,91.3,67.8,90.9,77.1,87.8,65.0,89.1,74.7,84.9,63.5,88.0,73.6,-0.37,0.36,0.07,0.03,0.00,148.95,149.44,139.00,139.00,174.7,27.6,0.5176871642217914,172.8488212225028,44.65261214582725,54.01525632973858,32.40915351333122
0.300,14.5,44.054499051951645,-78.681935102639144,48.0,-8.3,-2.1,-1.0,6844.6,6845,175.7,0,1,1,0,1,1,0,0,0,100,1,1.186,26.0,0.0,0.000,48.272,66.0,0.0,26.0,26.0,26.0,26.0,0.28,0.34,-0.07,377.2,-2.25,-1.96,-1.35,-1.39,-737.14,676.18,5.7,0.00,0.00,0.00,0.00,0.01,-7.49,-7.49,-0.39,0.93,-0.30,3.47,48.82,0.24,-0.36,-4.66,100.0,0,0,139.81,0,0,0.0,0,0,0,0,7458,0,30.00,4,175.7,0,0,0.0,0.0,0.0,0.0,1,0,0.314,0.314,48.272,17.725,0,110.00,435.8,8750,0.0,0.0,110.0,110.0,433.0,0.00,0,0,1,333.3,70.8,70.8,66.2,66.2,34.0,4.6,25.71,4.3,46.4,4,-232.915,-4.8,100.0,22.8,24.4,39.3,43.7,0,1,100.0,0.00,0.00,0.00,0.00,3007,3332,3704,5817,317.3,315.4,346.6,340.1,25.43,22.68,26.49,24.74,325.0,325.0,355.0,355.0,99.99,99.96,99.98,100.00,0.39,0.40,0.32,0.42,-0.0,-0.0,2.0,1.8,84.9,67.8,85.3,74.4,91.2,67.8,90.9,77.1,87.7,65.0,89.1,74.7,84.9,63.5,87.9,73.6,-0.29,0.28,0.06,0.04,0.00,149.47,149.86,139.81,139.81,174.7,27.6,0.4459820624195552,173.208922921884,45.73291724397084,-39.61118835449071,3.6010175628356933
0.350,17.0,44.054477378300945,-78.681929346980866,-7.1,-17.6,2.6,54.3,6847.1,6847,176.3,0,1,1,0,1,1,0,0,0,100,1,1.186,26.0,0.0,0.000,48.272,66.0,0.0,26.0,26.0,26.0,26.0,0.33,0.28,0.10,374.7,-2.83,-2.67,-1.56,-1.23,-736.50,673.77,5.7,0.00,0.00,0.00,0.00,0.01,-7.49,-7.49,-0.40,-0.89,-0.05,5.62,48.99,0.25,-0.39,-3.92,100.0,0,0,139.82,0,0,0.0,0,0,0,0,7458,0,30.00,4,176.3,1,0,0.0,0.0,0.0,0.0,1,0,0.366,0.366,48.272,17.725,1,110.00,435.8,8750,0.0,0.0,110.0,110.0,433.0,0.00,0,0,1,166.7,68.6,68.6,61.5,61.5,34.0,1.0,57.12,2.8,47.7,4,-232.965,-3.9,100.0,22.5,23.5,39.4,46.4,0,1,100.0,0.00,0.00,0.00,0.00,2923,5900,4159,6090,317.4,309.4,344.6,339.2,25.43,22.68,26.50,24.74,325.0,325.0,355.0,355.0,99.99,99.96,99.98,100.00,0.36,0.42,0.30,0.40,-0.0,-0.1,1.7,1.4,84.9,67.8,85.3,74.4,91.1,67.8,90.8,77.1,87.6,64.9,89.0,74.7,84.8,63.5,87.9,73.6,-0.22,0.23,0.05,0.03,0.00,149.95,150.36,139.82,139.82,174.7,27.6,0.4441846462902562,168.88770238705374,45.01271390211082,-39.61118806997888,5.690236548616667e-07
0.400,19.4,44.054456873768331,-78.681923861119060,-29.2,-13.6,-17.0,-65.8,6849.6,6850,176.9,0,1,1,0,1,1,0,0,0,100,1,1.186,26.0,0.0,0.000,48.272,66.0,0.0,26.0,26.0,26.0,26.0,0.28,0.34,-0.18,378.0,-2.82,-2.38,-1.29,-1.55,-735.89,671.49,5.7,0.00,0.00,0.00,0.00,0.01,-7.49,-7.49,-0.38,0.07,0.05,3.23,49.14,0.26,-0.36,-3.21,100.0,0,0,140.26,0,0,0.0,0,0,0,0,7482,0,30.00,4,176.9,0,0,0.0,0.0,0.0,0.0,1,0,0.414,0.414,48.272,17.725,0,110.00,435.8,8750,0.0,0.0,110.0,110.0,433.0,0.00,0,0,1,333.3,74.0,74.0,63.2,63.2,34.0,1.6,28.01,6.9,53.4,4,-233.015,-3.3,100.0,21.0,22.8,38.5,43.1,0,1,100.0,0.00,0.00,0.00,0.00,2443,3662,4773,6051,318.9,316.1,343.1,339.7,25.43,22.68,26.50,24.74,325.0,325.0,355.0,355.0,99.99,99.96,99.98,100.00,0.38,0.39,0.32,0.44,-0.0,-0.0,1.7,1.5,84.9,67.8,85.4,74.4,91.1,67.8,90.8,77.1,87.6,64.9,89.0,74.7,84.7,63.5,87.9,73.6,-0.21,0.19,0.06,0.04,0.00,150.46,150.59,140.27,140.27,174.7,27.6,0.4758150901348128,169.24780411488612,45.732917300873204,7.202034556648016,14.404067975247656
0.450,21.9,44.054435110185466,-78.681917925596466,-59.7,40.1,-3.4,18.6,6852.0,6852,177.4,0,1,1,0,1,1,0,0,0,100,1,1.186,26.0,0.0,0.000,48.272,66.0,0.0,26.0,26.0,26.0,26.0,0.23,0.25,-0.20,379.9,-2.64,-3.84,-1.80,-1.54,-735.23,669.07,5.7,0.00,0.00,0.00,0.00,0.01,-7.49,-7.49,-0.44,-2.06,-0.09,-6.43,49.28,0.24,-0.41,-3.19,100.0,0,0,141.11,0,0,0.0,0,0,0,0,7527,0,30.00,4,177.4,1,0,0.0,0.0,0.0,0.0,1,0,0.466,0.466,48.272,17.725,1,110.00,435.8,8750,0.0,0.0,110.0,110.0,433.0,0.00,0,0,1,333.3,74.5,74.5,59.8,59.8,34.0,1.5,35.34,4.1,18.3,4,-233.065,-2.4,100.0,18.0,24.9,38.4,44.0,0,1,97.3,0.00,0.00,0.00,0.00,2160,3559,4751,2728,319.5,315.0,342.7,347.9,25.43,22.68,26.50,24.74,325.0,325.0,355.0,355.0,99.99,99.96,99.98,100.00,0.37,0.40,0.35,0.42,-0.0,-0.1,1.9,1.6,84.9,67.8,85.4,74.4,91.0,67.8,90.7,77.1,87.5,64.9,89.0,74.7,84.7,63.5,87.8,73.5,-0.15,0.16,0.07,0.04,0.00,150.82,151.13,141.10,141.10,174.7,27.6,0.3942080668885405,169.60790584271854,46.45312069963558,7.20203427213562,10.803050981435831
0.500,24.4,44.054414515720687,-78.681912259870344,-9.9,-189.4,-33.0,-54.4,6854.5,6854,177.9,0,1,1,0,1,1,0,0,0,100,1,1.186,26.0,0.0,0.000,48.272,66.0,0.0,26.0,26.0,26.0,26.0,0.19,0.25,-0.13,383.4,-2.10,-2.94,-1.56,-3.02,-734.60,666.78,5.7,0.00,0.00,0.00,0.00,0.02,-7.49,-7.49,-0.62,-5.23,-0.28,-1.68,49.43,0.21,-0.43,-1.46,100.0,0,0,141.13,0,0,0.0,0,0,0,0,7528,0,30.00,4,177.9,0,0,0.0,0.0,0.0,0.0,1,0,0.513,0.513,48.272,17.725,0,110.00,435.8,8750,0.0,0.0,110.0,110.0,433.0,0.00,0,0,1,333.3,80.7,80.7,70.3,70.3,34.0,-0.2,15.01,0.7,37.9,4,-233.115,-0.2,100.0,17.5,15.4,36.7,41.3,0,1,96.5,0.00,0.00,0.00,0.00,2331,2232,4408,4048,318.2,318.8,344.0,344.4,25.43,22.68,26.50,24.75,325.0,325.0,355.0,355.0,99.99,99.96,99.98,100.00,0.23,0.27,0.25,0.36,0.0,-0.0,1.7,1.6,84.9,67.8,85.4,74.4,90.9,67.7,90.7,77.1,87.4,64.9,88.9,74.7,84.6,63.4,87.8,73.5,-0.02,0.02,0.07,0.03,0.00,151.31,151.38,141.13,141.13,174.7,27.6,0.33985290935932855,169.96800754209968,46.81322239901679,57.61627332354976,21.606102531895388
0.550,26.8,44.054392662205665,-78.681906234415592,-14.9,14.6,-89.6,-221.5,6857.0,6857,178.4,0,1,1,0,1,1,0,0,0,100,1,1.186,26.0,0.0,0.000,48.272,66.0,0.0,26.0,26.0,26.0,26.0,0.10,0.42,-0.12,384.9,-2.07,-2.54,-1.89,-1.74,-733.93,664.35,5.7,0.00,0.00,0.00,0.00,0.02,-7.49,-7.49,-0.87,-3.33,-0.25,4.38,49.57,0.18,-0.44,-0.02,100.0,0,0,141.62,0,0,0.0,0,0,0,0,7554,0,30.00,4,178.4,1,0,0.0,0.0,0.0,0.0,1,0,0.564,0.564,48.272,17.725,1,110.00,435.8,8750,0.0,0.0,110.0,110.0,433.0,0.00,0,0,1,333.3,77.7,77.7,70.8,70.8,34.0,-8.2,22.62,-12.1,25.2,4,-233.165,2.1,100.0,16.8,16.1,32.3,30.2,0,1,97.7,0.00,0.00,0.00,0.00,3110,4132,4650,4207,317.4,313.8,343.1,343.6,25.43,22.68,26.50,24.75,325.0,325.0,355.0,355.0,99.99,99.96,99.98,100.00,0.04,0.12,0.07,0.25,-0.1,-0.1,2.0,2.0,84.9,67.7,85.4,74.4,90.8,67.7,90.7,77.1,87.3,64.8,88.9,74.7,84.5,63.4,87.7,73.5,0.10,-0.12,0.07,0.07,0.00,151.83,151.91,141.62,141.62,174.7,27.6,0.44810713004816155,175.3695331750735,48.61373095282512,7.202033987624077,7.20203455664759
0.600,29.3,44.054370718758484,-78.681900119028668,49.4,41.1,-43.9,30.0,6859.4,6859,179.0,0,1,1,0,1,1,0,0,0,100,1,1.186,26.0,0.0,0.000,48.272,66.0,0.0,26.0,26.0,26.0,26.0,0.01,0.35,-0.17,383.0,-2.46,-1.78,-1.98,-1.14,-733.25,661.91,5.7,0.00,0.00,0.00,0.00,0.02,-7.49,-7.49,-0.95,-0.62,-0.06,4.12,49.73,0.13,-0.40,0.88,100.0,0,0,141.91,0,0,0.0,0,0,0,0,7570,0,30.00,4,179.0,0,0,0.0,0.0,0.0,0.0,0,0,0.616,0.616,48.272,17.725,0,110.00,435.8,8750,0.0,0.0,110.0,110.0,433.0,0.00,0,0,1,166.7,75.0,75.0,77.3,77.3,34.0,-19.8,9.01,-14.8,29.7,4,-233.215,1.8,100.0,19.2,18.2,30.1,31.7,0,1,97.3,0.00,0.00,0.00,0.00,4621,2822,4235,6159,314.1,317.3,344.5,339.6,25.43,22.68,26.50,24.75,325.0,325.0,355.0,355.0,99.99,99.96,99.98,100.00,-0.03,0.05,0.02,0.20,-0.1,-0.1,1.7,1.8,85.0,67.7,85.4,74.4,90.7,67.7,90.6,77.0,87.3,64.8,88.8,74.7,84.4,63.4,87.7,73.5,0.11,-0.12,0.08,0.06,0.00,152.44,152.36,141.91,141.91,174.7,27.6,0.38923000912057126,170.6882109408621,47.533425854681546,-39.611187785466484,-10.80305098143576
0.650,31.8,44.054350034361548,-78.681894363370390,-1.1,-23.8,69.4,102.5,6861.9,6862,179.5,0,1,1,0,1,1,0,0,0,100,1,1.186,26.0,0.0,0.000,48.272,66.0,0.0,26.0,26.0,26.0,26.0,0.03,0.25,-0.10,381.7,-1.14,-1.77,-1.87,-0.59,-732.61,659.61,5.7,0.00,0.00,0.00,0.00,0.02,-7.49,-7.49,-1.06,-2.65,0.13,4.84,49.87,0.08,-0.40,0.86,100.0,0,0,142.43,0,0,0.0,0,0,0,0,7597,0,30.00,4,179.5,1,0,0.0,0.0,0.0,0.0,0,0,0.663,0.663,48.272,17.725,1,110.00,435.8,8750,0.0,0.0,110.0,110.0,433.0,0.00,0,0,1,333.3,75.6,75.6,73.7,73.7,34.0,-5.3,14.82,-17.3,10.9,4,-233.265,-0.3,100.0,19.2,17.0,33.5,36.9,0,1,96.1,0.00,0.00,0.00,0.00,3980,3853,4161,4742,315.2,315.7,344.8,342.9,25.43,22.68,26.50,24.75,325.0,325.0,355.0,355.0,99.99,99.96,99.98,100.00,0.04,0.11,-0.06,0.10,-0.1,-0.0,1.7,1.7,85.0,67.7,85.4,74.4,90.7,67.6,90.6,77.0,87.2,64.8,88.8,74.6,84.4,63.3,87.6,73.5,0.01,-0.01,0.07,0.05,0.00,152.82,152.71,142.43,142.43,174.7,27.6,0.2709243436828813,171.40841439652687,47.533425854681546,61.21729117089757,18.005084969059624
0.700,34.3,44.054327911050038,-78.681888247983466,159.0,219.4,-2.7,-14.7,6864.4,6864,180.0,0,1,1,0,1,1,0,0,0,100,1,1.186,26.0,0.0,0.000,48.272,66.0,0.0,26.0,26.0,26.0,26.0,0.04,0.29,0.14,374.1,-2.92,-2.02,-0.44,-1.44,-731.93,657.15,5.6,0.00,0.00,0.00,0.00,0.02,-7.49,-7.49,-1.00,4.83,0.38,4.51,50.00,0.05,-0.39,-0.24,100.0,0,0,142.44,0,0,0.0,0,0,0,0,7598,0,30.00,4,180.0,0,0,0.0,0.0,0.0,0.0,0,0,0.714,0.714,48.272,17.725,0,110.00,435.8,8750,0.0,0.0,110.0,110.0,433.0,0.00,0,0,1,333.3,62.0,62.0,68.4,68.4,34.0,-18.3,27.87,-7.6,24.2,4,-233.315,-1.4,100.0,27.1,28.0,33.4,36.1,0,1,80.9,0.00,0.00,0.00,0.00,4582,5298,4952,5561,312.6,311.0,343.1,340.2,25.43,22.68,26.51,24.75,325.0,325.0,355.0,355.0,99.99,99.96,99.98,100.00,0.07,0.14,-0.05,0.10,-0.0,-0.0,1.4,1.5,85.0,67.7,85.4,74.4,90.6,67.6,90.5,77.0,87.1,64.7,88.7,74.6,84.3,63.3,87.6,73.5,-0.07,0.09,0.07,0.06,0.00,153.44,153.40,142.44,142.44,174.7,27.6,0.32449961479175904,176.80994005795185,49.33393435158751,3.601016709299927,3.6010164247881704
0.750,36.8,44.054305877670693,-78.681882042664398,-117.0,-23.7,244.9,262.0,6866.9,6867,180.4,0,1,1,0,1,1,0,0,0,100,1,1.186,26.0,0.0,0.000,48.272,66.0,0.0,26.0,26.0,26.0,26.0,0.04,0.15,0.11,371.6,-2.16,-1.81,-1.70,-1.01,-731.24,654.70,5.6,0.00,0.00,0.00,0.00,0.02,-7.49,-7.49,-0.82,0.38,0.38,-3.74,50.11,0.03,-0.33,-0.16,100.0,0,0,141.96,0,0,0.0,0,0,0,0,7572,0,30.00,4,180.4,1,0,0.0,0.0,0.0,0.0,0,0,0.764,0.764,48.272,17.725,1,110.00,435.8,8750,0.0,0.0,110.0,110.0,433.0,0.00,0,0,1,333.3,72.3,72.3,51.0,51.0,34.0,-4.7,10.94,-25.3,23.2,4,-233.365,-0.1,100.0,21.3,26.8,45.6,49.2,0,1,51.2,0.00,0.00,0.00,0.00,2202,2933,6477,5988,318.8,316.2,339.6,339.4,25.44,22.68,26.51,24.75,325.0,325.0,355.0,355.0,99.99,99.96,99.98,100.00,0.08,0.08,0.00,0.10,-0.1,0.0,0.9,0.8,85.0,67.7,85.4,74.4,90.5,67.6,90.5,77.0,87.1,64.7,88.7,74.6,84.3,63.3,87.5,73.5,-0.01,0.02,0.05,0.02,0.00,153.59,153.66,141.96,141.96,174.7,27.6,0.19026297590440447,171.76851606745686,47.89352749716036,-43.21220563281429,-14.404067975247798
0.800,39.3,44.054285013409441,-78.681876287006119,-52.9,-171.2,-29.0,-80.2,6869.5,6869,180.6,0,1,1,0,1,1,0,0,0,100,1,1.186,26.0,0.0,0.000,48.272,66.0,0.0,26.0,26.0,26.0,26.0,0.01,-0.01,-0.33,376.7,-2.00,-2.59,-1.52,-1.06,-730.60,652.38,5.6,0.00,0.00,0.00,0.00,0.02,-7.49,-7.49,-0.98,-5.96,0.14,-4.16,50.16,0.04,-0.39,0.15,100.0,0,0,141.25,0,0,0.0,0,0,0,0,7534,0,30.00,4,180.6,0,0,0.0,0.0,0.0,0.0,0,0,0.813,0.813,48.272,17.725,0,110.00,435.8,8750,0.0,0.0,110.0,110.0,433.0,0.00,0,0,1,333.3,75.3,75.3,65.6,65.6,34.0,-23.2,8.74,-12.4,21.7,4,-233.415,2.1,100.0,18.6,18.2,44.2,45.2,0,1,13.5,0.00,0.00,0.00,0.00,5307,2393,4233,4937,312.4,318.5,344.9,341.7,25.44,22.68,26.51,24.75,325.0,325.0,355.0,355.0,99.99,99.96,99.98,100.00,-0.07,0.01,0.02,0.13,-0.1,-0.0,0.4,0.4,85.0,67.7,85.4,74.4,90.5,67.5,90.4,77.0,87.0,64.7,88.6,74.6,84.2,63.2,87.5,73.4,0.12,-0.11,0.05,0.04,0.00,153.60,153.59,141.25,141.25,174.7,27.6,0.3303028912982749,172.48871949467042,47.89352755406273,54.01525689876223,18.005086107107005
0.850,41.8,44.054262800165773,-78.681870081687038,189.7,176.1,-161.3,-224.2,6872.0,6872,180.3,0,1,1,0,1,1,0,0,0,100,1,1.186,26.0,0.0,0.000,48.272,66.0,0.0,26.0,26.0,26.0,26.0,-0.07,-0.20,-0.15,376.4,-2.68,-2.40,-1.87,-1.09,-729.91,649.91,5.6,0.00,0.00,0.00,0.00,0.03,-7.49,-7.49,-1.14,0.48,0.16,1.42,50.07,0.03,-0.49,1.16,100.0,0,0,140.22,0,0,0.0,0,0,0,0,7480,0,30.00,4,180.3,1,0,0.0,0.0,0.0,0.0,0,0,0.864,0.864,48.272,17.725,1,110.00,435.8,8750,0.0,0.0,110.0,110.0,433.0,0.00,0,0,1,333.3,62.6,62.6,68.4,68.4,34.0,-24.4,18.54,-22.8,11.7,4,-233.465,2.9,100.0,28.1,27.0,36.1,34.0,0,1,0.0,0.00,0.00,0.00,0.00,4078,5584,4471,3709,315.6,309.4,346.5,345.4,25.44,22.68,26.51,24.75,325.0,325.0,355.0,355.0,99.99,99.96,99.98,100.00,-0.16,-0.05,-0.11,0.06,0.0,-0.0,-0.4,-0.3,85.0,67.7,85.4,74.4,90.4,67.5,90.3,76.9,86.9,64.7,88.6,74.5,84.1,63.2,87.4,73.4,0.18,-0.17,0.07,0.07,0.00,153.53,153.58,140.22,140.22,174.7,27.6,0.2596150997149434,177.17004175733308,49.694036107871064,-10.803050981435547,-3.6010169938118253
0.900,44.3,44.054240766786428,-78.681863876367956,16.6,-7.6,147.3,170.3,6874.5,6874,179.9,0,1,1,0,1,1,0,0,0,100,1,1.186,26.0,0.0,0.000,48.272,66.0,0.0,26.0,26.0,26.0,26.0,-0.13,-0.23,0.24,370.8,-2.66,-2.32,-1.84,-0.45,-729.22,647.46,5.5,0.00,0.00,0.00,0.00,0.03,-7.49,-7.49,-1.13,-0.91,0.31,4.16,49.96,0.01,-0.54,2.12,100.0,0,0,139.86,0,0,0.0,0,0,0,0,7460,0,30.00,4,179.9,0,0,0.0,0.0,0.0,0.0,0,0,0.914,0.914,48.272,17.725,0,110.00,435.8,8750,0.0,0.0,110.0,110.0,433.0,0.00,0,0,1,333.3,62.5,62.5,66.1,66.1,34.0,-35.7,10.03,-17.4,7.0,4,-233.515,2.3,100.0,28.9,26.6,43.5,42.5,0,1,0.0,0.00,0.00,0.00,0.00,5228,4008,3174,6413,311.5,313.4,346.4,338.7,25.44,22.68,26.51,24.75,325.0,325.0,355.0,355.0,99.99,99.96,99.98,100.00,-0.17,-0.09,-0.12,-0.00,0.0,-0.0,-0.4,-0.2,85.0,67.7,85.5,74.5,90.3,67.5,90.3,76.9,86.9,64.6,88.5,74.5,84.1,63.2,87.4,73.3,0.17,-0.14,0.05,0.04,0.00,153.30,153.09,139.86,139.86,174.7,27.6,0.35693136595149494,171.40841439652687,47.533425854681546,-57.61627360806216,-25.207119525707142
0.950,46.8,44.054219992457327,-78.681858210641835,-14.8,85.9,-73.6,-62.3,6877.0,6877,179.5,0,1,1,0,1,1,0,0,0,100,1,1.186,26.0,0.0,0.000,48.272,66.0,0.0,26.0,26.0,26.0,26.0,-0.11,-0.24,0.21,369.8,-3.11,-2.91,-1.43,-1.91,-728.59,645.15,5.5,0.00,0.00,0.00,0.00,0.03,-7.49,-7.49,-1.15,1.32,0.24,-3.80,49.85,-0.04,-0.58,1.61,100.0,0,0,139.76,0,0,0.0,0,0,0,0,7455,0,30.00,4,179.5,1,0,0.0,0.0,0.0,0.0,0,0,0.963,0.963,48.272,17.725,1,110.00,435.8,8750,0.0,0.0,110.0,110.0,433.0,0.00,0,0,1,333.3,58.7,58.7,58.9,58.9,34.0,-36.0,30.41,-37.8,20.0,4,-233.565,0.5,100.0,28.2,30.9,39.8,39.4,0,1,0.0,0.00,0.00,0.00,0.00,5638,5629,6453,4671,310.6,309.6,339.6,342.6,25.44,22.68,26.51,24.75,325.0,325.0,355.0,355.0,99.99,99.96,99.98,100.00,-0.07,0.04,-0.15,-0.01,-0.0,0.0,-0.3,-0.3,85.0,67.7,85.5,74.5,90.3,67.5,90.2,76.8,86.8,64.6,88.4,74.5,84.0,63.2,87.3,73.3,0.07,-0.03,0.07,0.04,0.00,153.11,152.90,139.76,139.76,174.7,27.6,0.33734255586865997,171.40841439652687,47.17332415530035,46.81322205760267,14.404068544271453
1.000,49.3,44.054197959077982,-78.681852095254911,-76.5,-69.5,14.4,31.0,6879.4,6879,179.1,0,1,1,0,1,1,0,0,0,100,1,1.186,26.0,0.0,0.000,48.272,66.0,0.0,26.0,26.0,26.0,26.0,-0.01,-0.16,-0.07,375.1,-3.01,-2.61,-2.02,-1.91,-727.91,642.70,5.5,0.00,0.00,0.00,0.00,0.03,-7.49,-7.49,-0.98,2.60,0.07,-6.79,49.74,-0.06,-0.48,0.62,100.0,0,0,139.49,0,0,0.0,0,0,0,0,7441,0,30.00,4,179.1,0,0,0.0,0.0,0.0,0.0,0,0,1.014,1.014,48.272,17.725,0,110.00,435.8,8750,0.0,0.0,110.0,110.0,433.0,0.00,0,0,1,333.3,72.4,72.4,57.2,57.2,34.0,-4.8,8.88,-48.1,26.3,4,-233.615,-1.8,100.0,24.4,27.5,40.5,40.9,0,1,0.0,0.00,0.00,0.00,0.00,1814,2169,6753,5288,320.3,318.2,339.0,340.8,25.44,22.68,26.52,24.75,325.0,325.0,355.0,355.0,99.99,99.96,99.98,100.00,0.12,0.03,-0.14,0.02,0.1,0.0,-0.2,-0.1,85.0,67.7,85.5,74.5,90.2,67.4,90.1,76.8,86.8,64.6,88.4,74.4,84.0,63.2,87.2,73.3,-0.08,0.08,0.06,0.05,0.00,152.56,152.49,139.49,139.49,174.7,27.6,0.17492855684535902,176.08973660228713,48.97383270910869,-7.202034556647732,-5.690237259159403e-07
1.050,51.8,44.054176015630802,-78.681845979867987,-78.9,-165.7,42.0,-4.5,6881.9,6882,178.7,0,1,1,0,1,1,0,0,0,100,1,1.186,26.0,0.0,0.000,48.272,66.0,0.0,26.0,26.0,26.0,26.0,0.01,-0.20,-0.26,379.9,-2.24,-1.70,-1.89,-1.80,-727.23,640.26,5.5,0.00,0.00,0.00,0.00,0.03,-7.49,-7.49,-1.12,-5.08,-0.17,-2.73,49.64,-0.06,-0.55,-0.48,100.0,0,0,138.80,0,0,0.0,0,0,0,0,7404,0,30.00,4,178.7,1,0,0.0,0.0,0.0,0.0,0,0,1.064,1.064,48.272,17.725,1,110.00,435.8,8750,0.0,0.0,110.0,110.0,433.0,0.00,0,0,1,166.7,73.6,73.6,68.6,68.6,34.0,-11.6,15.89,-11.9,8.1,4,-233.665,-3.0,100.0,20.4,19.2,42.6,40.7,0,1,0.0,0.00,0.00,0.00,0.00,4289,3702,2644,2374,314.4,315.4,348.3,348.7,25.44,22.68,26.52,24.75,325.0,325.0,355.0,355.0,99.99,99.96,99.98,100.00,0.07,0.14,-0.07,0.00,-0.0,-0.0,-0.4,-0.4,85.0,67.7,85.5,74.5,90.1,67.4,90.1,76.7,86.7,64.6,88.3,74.4,83.9,63.1,87.2,73.2,-0.16,0.16,0.07,0.06,0.00,152.03,152.06,138.80,138.80,174.7,27.6,0.32817678162843883,170.6882109408621,47.17332409839798,-57.61627360806244,-21.606103100919043
1.100,54.3,44.054155331233865,-78.681840314141880,163.8,44.7,-195.8,-196.8,6884.4,6884,178.4,0,1,1,0,1,1,0,0,0,100,1,1.186,26.0,0.0,0.003,48.272,66.0,0.0,26.0,26.0,26.0,26.0,0.03,-0.25,0.01,376.8,-1.98,-2.56,-1.13,-1.04,-726.60,637.96,5.5,0.00,0.00,0.00,0.00,0.03,-7.49,-7.49,-1.23,0.19,-0.06,6.96,49.54,-0.02,-0.53,-1.23,100.0,0,0,138.74,0,0,0.0,0,0,0,0,7401,0,30.00,4,178.4,0,0,0.0,0.0,0.0,0.0,1,0,1.113,1.113,48.272,17.725,0,110.00,435.8,8750,0.0,0.0,110.0,110.0,433.0,0.00,0,0,1,166.7,61.5,61.5,77.6,77.6,34.0,-26.6,29.93,-18.2,12.6,4,-233.710,-3.5,100.0,28.6,21.4,32.8,30.9,0,1,0.0,0.00,0.00,0.00,0.00,7014,4884,4138,4406,307.5,310.7,344.7,344.0,25.44,22.68,26.52,24.75,325.0,325.0,355.0,355.0,99.99,99.96,99.98,100.00,-0.01,0.13,-0.13,0.04,-0.0,-0.1,-0.3,-0.4,85.0,67.7,85.5,74.5,90.1,67.4,90.0,76.7,86.6,64.5,88.2,74.3,83.8,63.1,87.1,73.2,-0.17,0.19,0.08,0.05,0.00,152.12,152.05,138.74,138.74,174.7,27.6,0.2519920633670831,170.3281092414809,46.81322239901679,39.61118835449014,10.803051550459415
1.150,56.8,44.054133477718842,-78.681834288687114,235.4,232.8,46.9,119.2,6886.9,6887,177.9,0,1,1,0,1,1,0,0,0,100,1,1.186,26.0,0.0,0.000,48.272,66.0,0.0,26.0,26.0,26.0,26.0,-0.04,-0.28,0.60,364.5,-3.09,-2.50,-0.87,-0.61,-725.93,635.53,5.4,0.00,0.00,0.00,0.00,0.03,-7.49,-7.49,-1.02,8.45,0.41,11.74,49.42,0.05,-0.50,-2.29,100.0,0,0,138.72,0,0,0.0,0,0,0,0,7400,0,30.00,4,177.9,1,0,0.0,0.0,0.0,0.0,1,0,1.164,1.164,48.272,17.725,1,110.00,435.8,8750,0.0,0.0,110.0,110.0,433.0,0.00,0,0,1,333.3,47.3,47.3,68.1,68.1,34.0,-40.8,40.74,-22.6,26.1,4,-233.765,-3.6,100.0,40.4,33.0,35.2,36.8,0,1,0.0,0.00,0.00,0.00,0.00,7591,5939,6544,7535,305.3,308.6,338.3,336.8,25.45,22.68,26.52,24.76,325.0,325.0,355.0,355.0,99.99,99.96,99.98,100.00,0.03,0.19,-0.07,0.12,-0.0,-0.0,-0.2,-0.3,85.0,67.7,85.5,74.5,90.0,67.4,89.9,76.6,86.6,64.5,88.2,74.3,83.8,63.1,87.0,73.1,-0.15,0.23,0.07,0.04,0.00,152.10,151.95,138.72,138.72,174.7,27.6,0.6633249580710799,174.6493297763111,48.25362925344392,-10.803051265947659,3.6010169938118963
1.200,59.2,44.054111714135978,-78.681828263232362,-157.9,190.8,262.4,314.3,6889.3,6889,177.5,0,1,1,0,1,1,0,0,0,100,1,1.186,26.0,0.0,0.000,48.272,66.0,0.0,26.0,26.0,26.0,26.0,0.23,-0.25,0.76,355.7,-3.26,-2.23,-2.15,-1.14,-725.26,633.11,5.4,0.00,0.00,0.00,0.00,0.04,-7.49,-7.49,-0.60,8.12,0.67,-2.95,49.30,0.10,-0.45,-3.09,100.0,0,0,138.46,0,0,0.0,0,0,0,0,7386,0,30.00,4,177.5,0,0,0.0,0.0,0.0,0.0,1,0,1.216,1.216,48.272,17.725,0,110.00,435.8,8750,0.0,0.0,110.0,110.0,433.0,0.00,0,0,1,333.3,47.5,47.5,35.6,35.6,34.0,-21.3,66.98,-34.2,46.3,4,-233.815,-3.3,100.0,32.5,42.6,48.3,52.6,0,1,0.0,0.00,0.00,0.00,0.00,6240,7783,9293,7015,309.7,303.3,331.9,336.7,25.45,22.68,26.52,24.76,325.0,325.0,355.0,355.0,99.99,99.96,99.98,100.00,0.15,0.31,0.13,0.23,-0.0,-0.0,-0.1,-0.3,85.0,67.7,85.5,74.5,90.0,67.4,89.9,76.6,86.5,64.5,88.1,74.3,83.7,63.1,87.0,73.1,-0.18,0.25,0.02,0.00,0.00,151.40,151.54,138.46,138.46,174.7,27.6,0.8324662155306966,169.24780411488612,47.17332409839798,-57.61627360806159,-7.202033987623722
1.250,61.7,44.054091209603364,-78.681822507574083,28.1,13.5,10.9,120.5,6891.8,6892,177.1,0,1,1,0,1,1,0,0,0,100,1,1.186,26.0,0.0,0.000,48.272,66.0,0.0,26.0,26.0,26.0,26.0,0.31,-0.26,0.79,354.5,-2.70,-2.86,-2.06,-1.00,-724.62,630.83,5.4,0.00,0.00,0.00,0.00,0.04,-7.49,-7.49,-0.21,7.87,0.34,-15.92,49.19,0.09,-0.44,-3.20,100.0,0,0,138.17,0,0,0.0,0,0,0,0,7370,0,30.00,4,177.1,1,0,0.0,0.0,0.0,0.0,1,0,1.263,1.263,48.272,17.725,1,110.00,435.8,8750,0.0,0.0,110.0,110.0,433.0,0.00,0,0,1,333.3,45.1,45.1,39.0,39.0,34.0,-9.5,93.75,-11.0,59.3,4,-233.865,-3.2,100.0,33.9,43.3,48.8,58.6,0,1,0.0,0.00,0.00,0.00,0.00,6298,8558,7763,7816,309.6,301.5,336.7,334.5,25.45,22.68,26.52,24.76,325.0,325.0,355.0,355.0,99.99,99.96,99.98,100.00,0.21,0.41,0.23,0.30,-0.0,-0.0,-0.1,-0.3,85.1,67.8,85.5,74.5,89.9,67.4,89.8,76.6,86.5,64.6,88.1,74.3,83.7,63.1,86.9,73.1,-0.15,0.25,0.03,-0.01,0.00,151.01,151.26,138.17,138.17,174.7,27.6,0.8875809822207774,168.88770241550495,47.533425854681546,43.212205348302746,21.606103100918972
1.300,64.1,44.054069535952657,-78.681816392187159,-87.7,-249.5,129.2,-91.4,6894.2,6894,176.7,0,1,1,0,1,1,0,0,0,100,1,1.186,26.0,0.0,0.000,48.272,66.0,0.0,26.0,26.0,26.0,26.0,0.26,-0.20,0.21,364.5,-2.16,-3.24,-1.70,-1.77,-723.94,628.42,5.5,0.00,0.00,0.00,0.00,0.04,-7.49,-7.49,0.18,4.16,-0.24,-7.06,49.08,0.08,-0.40,-2.16,100.0,0,0,137.75,0,0,0.0,0,0,0,0,7348,0,30.00,4,176.7,0,0,0.0,0.0,0.0,0.0,1,0,1.314,1.314,48.272,17.725,0,110.00,435.8,8750,0.0,0.0,110.0,110.0,433.0,0.00,0,0,1,333.3,64.1,64.1,40.2,40.2,34.0,-1.4,35.41,-7.8,65.6,4,-233.915,-1.5,100.0,29.5,30.8,55.3,54.0,0,1,0.0,0.00,0.00,0.00,0.00,2439,4649,7083,7768,318.2,312.2,337.8,335.6,25.45,22.68,26.53,24.76,325.0,325.0,355.0,355.0,99.99,99.96,99.98,100.00,0.20,0.20,0.20,0.25,0.0,-0.0,-0.1,-0.3,85.1,67.8,85.5,74.5,89.9,67.4,89.8,76.6,86.4,64.6,88.0,74.2,83.6,63.1,86.9,73.1,-0.07,0.10,0.02,0.02,0.00,150.41,150.62,137.75,137.75,174.7,27.6,0.3894868418830089,173.5690246497164,49.333934408489874,-10.80305155045977,3.6010169938118253
1.350,66.6,44.054047862301957,-78.681810186868077,38.7,-4.5,-129.7,-163.8,6896.7,6897,176.3,0,1,1,0,1,1,0,0,0,100,1,1.186,26.0,0.0,0.000,48.272,66.0,0.0,26.0,26.0,26.0,26.0,0.13,-0.25,0.04,371.0,-2.48,-1.78,-0.95,-2.31,-723.25,626.01,5.5,0.00,0.00,0.00,0.00,0.04,-7.49,-7.49,0.20,1.12,-0.38,1.55,48.96,0.06,-0.58,-0.99,100.0,0,0,137.29,0,0,0.0,0,0,0,0,7323,0,30.00,4,176.3,1,0,0.0,0.0,0.0,0.0,1,0,1.366,1.366,48.272,17.725,1,110.00,435.8,8750,0.0,0.0,110.0,110.0,433.0,0.00,0,0,1,333.3,59.6,59.6,58.0,58.0,34.0,-17.5,18.36,-4.5,26.4,4,-233.965,-1.1,100.0,31.5,30.6,48.8,45.8,0,1,0.0,0.00,0.00,0.00,0.00,4964,4146,3950,4153,312.4,312.3,345.3,344.5,25.45,22.68,26.53,24.76,325.0,325.0,355.0,355.0,99.99,99.96,99.98,100.00,0.05,0.11,0.06,0.11,0.0,-0.0,-0.3,-0.4,85.1,67.8,85.5,74.5,89.8,67.4,89.7,76.6,86.4,64.5,88.0,74.2,83.6,63.1,86.8,73.1,-0.04,0.06,0.05,0.04,0.00,150.12,150.22,137.28,137.28,174.7,27.6,0.28460498941515416,167.80739726045897,47.89352755406273,-64.8183081647096,-14.404068544271453
1.400,69.0,44.054027627565823,-78.681804431209798,-23.5,-56.4,-112.4,-25.3,6899.1,6899,175.9,0,1,1,0,1,1,0,0,0,100,1,1.186,26.0,0.0,0.000,48.272,66.0,0.8,26.0,26.0,26.0,26.0,0.00,-0.26,0.40,371.6,-3.64,-3.30,-2.06,-1.97,-722.61,623.76,5.5,0.00,0.00,0.00,0.00,0.04,-7.49,-7.49,0.29,1.23,-0.23,4.47,48.85,0.05,-0.53,-0.61,100.0,0,0,136.86,0,0,0.0,0,0,0,0,7300,0,30.00,4,175.9,0,0,0.0,0.0,0.0,0.0,1,0,1.413,1.413,48.272,17.725,0,110.00,435.8,8750,0.0,0.0,110.0,110.0,433.0,0.00,0,0,1,333.3,60.3,60.3,64.6,64.6,34.0,-34.5,28.36,-24.1,40.5,4,-234.015,-1.8,100.0,30.3,27.7,43.2,44.6,0,1,0.0,0.00,0.00,0.00,0.00,6083,4216,4706,6047,309.6,313.2,343.8,339.2,25.45,22.68,26.53,24.76,325.0,325.0,355.0,355.0,99.99,99.96,99.98,100.00,0.05,0.12,-0.03,0.12,-0.1,-0.0,-0.2,-0.3,85.1,67.8,85.6,74.5,89.7,67.4,89.7,76.5,86.3,64.5,87.9,74.2,83.5,63.1,86.8,73.0,-0.08,0.10,0.06,0.04,0.00,149.84,149.81,136.86,136.86,174.7,27.6,0.47707441767506253,167.08719383324544,47.89352755406273,43.212205348302746,14.404068544271453
1.450,71.5,44.054006133779446,-78.681798225890716,0.1,27.0,-90.5,-19.4,6901.6,6902,175.4,0,1,1,0,1,1,0,0,0,100,1,1.186,26.0,0.0,0.000,48.272,66.0,1.1,26.0,26.0,26.0,26.0,0.06,-0.26,0.18,372.0,-2.91,-1.88,-2.43,-1.94,-721.92,621.37,5.6,0.00,0.00,0.00,0.00,0.04,-7.49,-7.49,0.42,3.37,0.08,3.77,48.72,0.06,-0.49,-1.13,100.0,0,0,136.64,0,0,0.0,0,0,0,0,7288,0,30.00,4,175.4,1,0,0.0,0.0,0.0,0.0,1,0,1.464,1.464,48.272,17.725,1,110.00,435.8,8750,0.0,0.0,110.0,110.0,433.0,0.00,0,0,1,333.3,59.6,59.6,60.3,60.3,34.0,-11.0,40.06,-37.4,36.5,4,-234.065,-2.8,100.0,30.3,29.1,38.7,43.6,0,1,0.0,0.00,0.00,0.00,0.00,3777,6411,5944,5740,314.6,307.9,341.0,339.5,25.45,22.68,26.53,24.76,325.0,325.0,355.0,355.0,99.99,99.96,99.98,100.00,0.13,0.21,-0.04,0.10,-0.0,-0.1,-0.2,-0.2,85.1,67.8,85.6,74.5,89.7,67.3,89.6,76.5,86.3,64.5,87.8,74.1,83.5,63.1,86.7,73.0,-0.12,0.16,0.06,0.04,0.00,149.39,149.57,136.64,136.64,174.7,27.6,0.3218695387886216,172.12861779528924,49.333934408489874,43.21220563281429,14.404067975247798
1.500,73.9,44.053984639993061,-78.681792110503793,-245.9,-50.7,93.8,-4.0,6904.0,6904,175.0,0,1,1,0,1,1,0,0,0,100,1,1.186,26.0,0.0,0.000,48.272,66.0,5.6,26.0,26.0,26.0,26.0,0.15,-0.28,-0.06,378.4,-3.00,-2.29,-1.73,-1.29,-721.24,618.98,5.6,0.00,0.00,0.00,0.00,0.04,-7.49,-7.49,0.44,-2.85,0.06,-3.71,48.59,0.07,-0.47,-1.92,100.0,0,0,135.99,0,0,0.0,0,0,0,0,7254,0,30.00,4,175.0,0,0,0.0,0.0,0.0,0.0,1,0,1.514,1.514,48.272,17.725,0,110.00,435.8,8750,0.0,0.0,110.0,110.0,433.0,0.00,0,0,1,333.3,74.0,74.0,53.5,53.5,34.0,-2.3,25.32,-15.9,36.9,4,-234.115,-2.8,100.0,18.0,26.6,43.4,43.4,0,1,0.0,0.00,0.00,0.00,0.00,1572,4012,5340,5845,320.5,313.9,342.7,340.6,25.45,22.68,26.53,24.77,325.0,325.0,355.0,355.0,99.99,99.96,99.98,100.00,0.22,0.22,0.07,0.23,-0.2,-0.2,-0.3,-0.4,85.1,67.8,85.6,74.5,89.6,67.3,89.5,76.5,86.2,64.5,87.8,74.1,83.4,63.0,86.6,73.0,-0.15,0.15,0.05,0.04,0.00,148.33,148.59,135.98,135.98,174.7,27.6,0.3232645975048923,171.40841439652687,49.33393435158751,-18.005085538083563,3.6010164247882415
1.550,76.3,44.053963326070999,-78.681785905184725,-17.2,-204.2,-228.9,-112.6,6906.4,6906,174.3,0,1,1,0,1,1,0,0,0,100,1,1.186,26.0,0.0,-0.003,48.272,66.0,18.9,26.0,26.0,26.0,26.0,0.10,-0.50,-0.42,387.6,-1.97,-2.70,-1.65,-1.73,-720.55,616.61,5.6,0.00,0.00,0.00,0.00,0.05,-7.49,-7.49,0.14,-7.51,-0.27,-6.24,48.39,0.07,-0.53,-1.35,100.0,0,0,134.91,0,0,0.0,0,0,0,0,7196,0,30.00,4,174.3,1,0,0.0,0.0,0.0,0.0,1,0,1.566,1.566,48.272,17.725,1,110.00,435.8,8750,0.0,0.0,110.0,110.0,433.0,0.00,0,0,1,166.7,80.6,80.6,76.3,76.3,34.0,-1.5,6.74,-11.7,24.8,4,-234.165,-2.6,100.0,17.1,16.3,31.9,37.8,0,1,0.0,0.00,0.00,0.00,0.00,3464,1371,4611,3703,316.9,321.1,343.9,345.4,25.45,22.68,26.53,24.77,325.0,325.0,355.0,355.0,99.99,99.96,99.98,100.00,0.19,0.23,0.08,0.24,-1.0,-1.5,-0.5,-0.7,85.1,67.7,85.6,74.5,89.5,67.3,89.5,76.4,86.1,64.4,87.7,74.1,83.3,63.0,86.6,72.9,-0.15,0.14,0.08,0.07,0.00,146.78,145.66,134.91,134.91,174.7,27.6,0.6606057825965498,170.3281092414809,49.6940360509687,-21.60610281640743,5.690236548616667e-07
1.600,78.7,44.053942102081102,-78.681779699865643,161.8,150.3,-78.8,-250.7,6908.8,6909,173.1,0,1,1,0,1,1,0,0,0,100,1,1.186,26.0,0.0,0.000,48.272,66.0,36.4,26.0,26.0,26.0,26.0,0.12,-0.78,-0.23,386.3,-2.11,-2.44,-1.88,-1.71,-719.86,614.25,5.7,0.00,0.00,0.00,0.00,0.05,-7.49,-7.49,-0.18,-3.03,-0.28,3.96,48.06,0.10,-0.68,-2.23,100.0,0,0,132.81,0,0,0.0,0,0,0,0,7084,0,30.00,4,173.1,0,0,0.0,0.0,0.0,0.0,0,0,1.617,1.617,48.272,17.725,0,110.00,435.8,8750,0.0,0.0,110.0,110.0,433.0,0.00,0,0,1,166.7,64.3,64.3,82.2,82.2,34.0,-8.2,36.15,-5.5,8.5,4,-234.215,-2.6,100.0,25.2,23.9,28.0,25.2,0,1,0.0,0.00,0.00,0.00,0.00,4571,5694,2249,1830,312.6,309.9,350.0,350.1,25.45,22.68,26.53,24.76,325.0,325.0,355.0,355.0,99.99,99.96,99.98,100.00,0.11,0.23,0.05,0.21,-1.2,-1.6,-1.5,-1.6,85.1,67.7,85.6,74.5,89.5,67.3,89.4,76.4,86.1,64.4,87.6,74.0,83.3,63.0,86.5,72.9,-0.14,0.14,0.08,0.08,0.00,145.20,145.29,132.81,132.81,174.7,27.6,0.8220097323024831,169.24780411488612,49.333934408489874,-122.43458148825994,-36.010170507143044
1.650,81.1,44.053921057955520,-78.681773584478719,192.2,168.7,-8.8,163.2,6911.2,6911,171.3,0,1,1,0,1,1,0,0,0,100,1,1.186,26.0,0.0,0.000,48.272,66.0,52.7,26.0,26.0,26.0,26.0,0.18,-1.02,0.23,376.6,-3.46,-3.20,-1.18,-1.31,-719.18,611.91,5.7,0.00,0.00,0.00,0.00,0.05,-7.49,-7.49,-0.15,2.73,-0.00,5.78,47.56,0.14,-0.70,-2.60,100.0,0,0,132.02,0,0,0.0,0,0,0,0,7042,0,30.00,4,171.3,1,0,0.0,0.0,0.0,0.0,0,0,1.668,1.668,48.272,17.725,1,110.00,435.8,8750,0.0,0.0,110.0,110.0,433.0,0.00,0,0,1,166.7,54.5,54.5,76.1,76.1,34.0,-12.6,45.72,-6.1,26.4,4,-234.265,-3.0,100.0,34.8,32.3,27.5,33.4,0,1,0.0,0.00,0.00,0.00,0.00,4512,6022,4310,4176,313.4,308.1,344.7,344.1,25.46,22.68,26.53,24.77,325.0,325.0,355.0,355.0,99.99,99.96,99.98,100.00,0.16,0.25,0.07,0.29,-2.0,-1.8,-1.1,-1.2,85.1,67.7,85.6,74.5,89.5,67.3,89.3,76.3,86.1,64.5,87.6,74.0,83.3,63.0,86.4,72.8,-0.14,0.17,0.08,0.06,0.00,142.40,143.10,132.02,132.02,174.7,27.6,1.0609901036296239,158.0846510926549,46.093019000254394,-86.42441069660492,-21.606102531895246
1.700,83.4,44.053902621862598,-78.681768188549086,-133.5,-46.0,186.4,116.9,6913.6,6914,169.4,0,1,1,0,1,1,0,0,0,100,1,1.186,26.0,0.0,-0.003,48.272,66.0,65.0,26.0,26.0,26.0,26.0,0.14,-1.20,0.19,375.3,-2.96,-2.42,-2.05,-1.80,-718.58,609.86,5.7,0.00,0.00,0.00,0.00,0.05,-7.49,-7.49,-0.11,-1.82,0.08,1.91,47.03,0.14,-0.71,-2.62,100.0,0,0,130.41,0,0,0.0,0,0,0,0,6956,0,30.00,4,169.4,0,0,0.0,0.0,0.0,0.0,0,0,1.713,1.713,48.272,17.725,0,110.00,435.8,8750,0.0,0.0,110.0,110.0,433.0,0.00,0,0,1,333.3,62.4,62.4,66.7,66.7,34.0,-8.1,15.94,-16.9,39.2,4,-234.315,-3.5,100.0,28.2,30.0,36.9,39.2,0,1,0.0,0.00,0.00,0.00,0.00,5653,3718,5282,5003,311.7,314.8,341.5,342.2,25.46,22.68,26.53,24.77,325.0,325.0,355.0,355.0,99.99,99.96,99.98,100.00,0.20,0.29,0.10,0.32,-2.8,-3.7,-1.0,-1.3,85.1,67.7,85.6,74.5,89.5,67.3,89.3,76.3,86.0,64.5,87.5,74.0,83.3,63.0,86.4,72.8,-0.19,0.20,0.08,0.04,0.00,140.42,138.34,130.40,130.40,174.7,27.6,1.2229881438509533,160.60536304522563,47.17332415530035,97.22746167804075,36.0101710761667
1.750,85.8,44.053880948211898,-78.681761803365674,-48.0,13.9,-187.2,-97.7,6915.9,6916,166.9,0,1,1,0,1,1,0,0,0,100,1,1.186,26.0,0.0,-0.003,48.272,66.0,68.0,26.0,26.0,26.0,26.0,0.23,-1.39,-0.08,380.5,-3.08,-2.56,-2.03,-1.66,-717.87,607.45,5.8,0.00,0.00,0.00,0.00,0.05,-7.49,-7.49,-0.31,-2.93,0.15,-3.66,46.33,0.13,-0.84,-2.75,100.0,0,0,127.28,0,0,0.0,0,0,0,0,6789,0,30.00,4,166.9,1,0,0.0,0.0,0.0,0.0,0,0,1.767,1.767,48.272,17.725,1,110.00,435.8,8750,0.0,0.0,110.0,110.0,433.0,0.00,0,0,1,166.7,60.2,60.2,75.3,75.3,34.0,-1.5,45.55,-6.5,13.5,4,-234.365,-4.8,100.0,25.8,30.7,27.5,34.3,0,1,0.0,0.00,0.00,0.00,0.00,4776,6058,3657,2454,312.8,308.0,346.5,347.9,25.46,22.68,26.53,24.77,325.0,325.0,355.0,355.0,99.99,99.96,99.98,100.00,0.32,0.41,0.15,0.31,-3.6,-2.7,-2.1,-2.3,85.1,67.8,85.6,74.5,89.4,67.4,89.2,76.3,86.0,64.5,87.5,73.9,83.2,63.1,86.3,72.8,-0.24,0.26,0.09,0.06,0.00,137.09,138.05,127.52,127.04,174.7,27.6,1.411169727566461,167.80739726045897,49.694036107871064,-46.813222342114784,-3.6010175628356222
1.800,88.1,44.053860713475764,-78.681755777910922,6.5,-62.7,-65.2,-122.7,6918.2,6918,164.5,0,1,1,0,1,1,0,0,0,100,1,1.186,26.0,0.0,-0.003,48.272,66.0,67.3,26.0,26.0,26.0,26.0,0.22,-1.27,-0.21,384.9,-2.46,-2.14,-2.32,-1.13,-717.20,605.20,5.8,0.00,0.00,0.00,0.00,0.05,-7.49,-7.49,-0.42,-2.11,0.12,0.16,45.66,0.17,-0.82,-3.41,100.0,0,0,125.83,0,0,0.0,0,0,0,0,6712,0,30.00,4,164.5,0,0,0.0,0.0,0.0,0.0,0,0,1.818,1.818,48.272,17.725,0,110.00,435.8,8750,0.0,0.0,110.0,110.0,433.0,0.00,0,0,1,166.7,66.1,66.1,85.3,85.3,34.0,2.9,16.05,-2.7,38.6,4,-234.415,-6.0,100.0,26.1,27.6,24.2,28.2,0,1,0.0,0.00,0.00,0.00,0.00,3779,3588,2142,5126,315.3,314.9,349.4,341.9,25.46,22.68,26.53,24.77,325.0,325.0,355.0,355.0,99.99,99.96,99.98,100.00,0.39,0.44,0.23,0.45,-3.5,-4.3,-2.1,-1.8,85.1,67.7,85.6,74.5,89.4,67.4,89.2,76.3,86.0,64.6,87.4,73.9,83.2,63.1,86.3,72.8,-0.32,0.33,0.10,0.08,0.00,134.42,133.59,125.20,126.46,174.7,27.6,1.3059096446538712,155.92404081101415,46.81322239901679,-187.25288965296926,-46.813222626626114
1.850,90.3,44.053842007586361,-78.681750112184801,-78.3,-62.3,-20.1,-33.2,6920.4,6920,162.3,0,1,1,0,1,1,0,0,0,100,1,1.186,26.0,0.0,-0.006,48.272,66.0,71.0,26.0,26.0,26.0,26.0,0.25,-1.38,-0.29,388.1,-3.48,-2.99,-1.68,-1.91,-716.57,603.12,5.8,0.00,0.00,0.00,0.00,0.05,-7.49,-7.49,-0.61,-4.92,0.08,-0.76,45.04,0.20,-0.82,-3.91,100.0,0,0,123.51,0,0,0.0,0,0,0,0,6588,0,30.00,4,162.3,1,0,0.0,0.0,0.0,0.0,0,0,1.866,1.866,48.272,17.725,1,110.00,435.8,8750,0.0,0.0,110.0,110.0,433.0,0.00,0,0,1,166.7,70.6,70.6,82.2,82.2,34.0,1.1,21.67,-0.2,20.6,4,-234.465,-7.8,100.0,22.2,24.4,23.2,26.5,0,1,0.0,0.00,0.00,0.00,0.00,2981,3992,3224,2840,317.8,313.5,347.2,347.1,25.46,22.68,26.53,24.77,325.0,325.0,355.0,355.0,99.99,99.96,99.98,100.00,0.52,0.59,0.25,0.46,-5.9,-4.7,-2.3,-2.4,85.1,67.7,85.6,74.5,89.4,67.5,89.1,76.2,86.0,64.6,87.4,73.9,83.2,63.2,86.2,72.8,-0.43,0.43,0.10,0.08,0.00,129.28,131.41,123.50,123.50,174.7,27.6,1.4321312788986909,149.08210829516204,45.01271384520845,-46.813222342114216,-7.202033987623935
1.900,92.5,44.053823481561281,-78.681744536390852,96.0,71.7,-91.8,-97.2,6922.6,6923,159.9,0,1,1,0,1,1,0,0,0,100,1,1.186,26.0,0.0,-0.006,48.272,66.0,75.7,26.0,26.0,26.0,26.0,0.39,-1.47,-0.08,385.3,-2.54,-2.38,-1.89,-2.22,-715.95,601.06,5.8,0.00,0.00,0.00,0.00,0.06,-7.49,-7.49,-0.82,-1.96,0.11,1.88,44.36,0.26,-0.86,-6.12,100.0,0,0,120.05,0,0,0.0,0,0,0,0,6404,0,30.00,4,159.9,0,0,0.0,0.0,0.0,0.0,0,0,1.914,1.914,48.272,17.725,0,110.00,435.8,8750,0.0,0.0,110.0,110.0,433.0,0.00,0,0,1,166.7,58.1,58.1,90.1,90.1,34.0,16.2,61.14,1.0,18.2,4,-234.510,-9.8,100.0,27.0,28.0,18.6,21.7,0,1,0.0,0.00,0.00,0.00,0.00,6012,6573,1887,2639,309.6,306.6,350.3,348.4,25.46,22.68,26.53,24.76,325.0,325.0,355.0,355.0,99.99,99.96,99.98,100.00,0.58,0.72,0.38,0.61,-2.8,-3.1,-4.0,-3.3,85.1,67.7,85.6,74.5,89.5,67.5,89.1,76.2,86.0,64.7,87.3,73.9,83.3,63.2,86.2,72.7,-0.54,0.54,0.11,0.09,0.00,132.13,132.09,119.55,120.56,174.7,27.6,1.522957648787385,151.24271857680273,46.093019000254394,-7.202033987623793,10.803051550459415
1.950,94.7,44.053804236078911,-78.681738600868243,63.2,177.5,21.8,61.6,6924.8,6925,157.1,0,1,1,0,1,1,0,0,0,100,1,1.186,26.0,0.0,-0.009,48.272,66.0,83.1,26.0,26.0,26.0,26.0,0.51,-1.64,0.08,379.9,-2.83,-2.42,-1.90,-1.15,-715.29,598.92,5.8,0.00,0.00,0.00,0.00,0.06,-7.49,-7.49,-0.67,5.39,0.19,-0.55,43.58,0.33,-0.77,-8.98,100.0,0,0,119.61,0,0,0.0,0,0,0,0,6380,0,30.00,4,157.1,1,0,0.0,0.0,0.0,0.0,0,0,1.966,1.966,48.272,17.725,1,110.00,435.8,8750,0.0,0.0,110.0,110.0,433.0,0.00,0,0,1,166.7,53.8,53.8,79.3,79.3,34.0,9.3,72.23,7.3,44.0,4,-234.565,-11.2,100.0,30.1,36.9,19.7,24.8,0,1,0.0,0.00,0.00,0.00,0.00,4306,7194,3207,4625,314.1,305.2,347.1,343.5,25.46,22.68,26.53,24.76,325.0,325.0,355.0,355.0,99.99,99.96,99.98,100.00,0.72,0.84,0.55,0.83,-4.6,-3.3,-2.7,-2.7,85.1,67.8,85.6,74.5,89.5,67.6,89.0,76.2,86.0,64.8,87.3,73.8,83.3,63.3,86.1,72.7,-0.63,0.65,0.09,0.07,0.00,126.88,129.59,119.20,120.01,174.7,27.6,1.7193312653470825,148.36190489639966,46.093019000254394,-57.61627389257313,0.0
2.000,96.9,44.053786429511113,-78.681733025074294,-138.0,-95.1,199.2,241.5,6927.0,6927,154.4,0,1,1,0,1,1,0,0,0,100,1,1.186,26.0,0.0,-0.012,48.272,66.0,93.6,26.0,26.0,26.0,26.0,0.48,-1.43,-0.00,379.6,-3.33,-2.11,-1.93,-0.96,-714.67,596.94,5.9,0.00,0.00,0.00,0.00,0.06,-7.49,-7.49,-0.51,-0.31,0.18,-1.91,42.83,0.39,-0.71,-6.61,100.0,0,0,117.59,0,0,0.0,0,0,0,0,6272,0,30.00,4,154.4,0,0,0.0,0.0,0.0,0.0,0,0,2.013,2.013,48.272,17.725,0,110.00,435.8,8750,0.0,0.0,110.0,110.0,433.0,0.00,0,0,1,166.7,64.5,64.5,70.3,70.3,34.0,-0.4,20.58,6.7,63.2,4,-234.610,-11.9,100.0,23.2,32.1,29.7,36.8,0,1,0.0,0.00,0.00,0.00,0.00,2138,6172,1959,5281,319.6,308.1,349.5,340.9,25.46,22.68,26.53,24.76,325.0,325.0,355.0,355.0,99.99,99.97,99.98,100.00,0.99,1.01,0.69,0.88,-11.9,-6.8,-2.3,-1.8,85.1,67.8,85.6,74.5,89.5,67.7,89.0,76.2,86.1,64.8,87.2,73.9,83.3,63.4,86.1,72.7,-0.67,0.69,0.09,0.06,0.00,117.70,122.78,116.72,118.46,174.7,27.6,1.508409758653132,145.48109118754542,46.093019000254394,25.207119525706503,25.20712009473101
2.050,99.0,44.053767903486033,-78.681727089551686,-57.9,-44.5,-17.3,-68.4,6929.1,6929,151.5,1,1,1,0,1,1,0,0,0,100,1,1.186,26.0,0.0,-0.012,48.272,66.0,100.0,26.0,26.0,26.0,26.0,0.33,-1.57,-0.17,383.5,-2.85,-3.89,-2.22,-1.53,-714.01,594.88,5.9,0.00,0.00,0.00,0.00,0.06,-7.49,-7.49,-0.71,-5.88,-0.22,-9.20,42.04,0.36,-0.80,-4.18,100.0,0,0,113.64,0,0,0.0,0,0,0,0,6062,0,30.00,4,151.5,1,0,0.0,0.0,0.0,0.0,0,0,2.064,2.064,48.272,17.725,1,110.00,435.8,8750,0.0,0.0,110.0,110.0,433.0,0.00,0,0,1,333.3,64.9,64.9,76.1,76.1,34.0,-0.5,-0.68,3.5,10.4,4,-234.665,-13.9,100.0,20.3,29.9,28.8,33.4,0,1,0.0,0.00,0.00,0.00,0.00,4521,5395,1764,1550,313.8,310.1,350.3,350.1,25.46,22.68,26.53,24.76,325.0,325.0,355.0,355.0,99.99,99.97,99.98,100.00,1.16,1.25,0.63,0.76,-10.0,-9.7,-3.2,-3.4,85.1,67.8,85.6,74.5,89.6,67.8,88.9,76.2,86.1,65.0,87.2,73.8,83.3,63.5,86.0,72.7,-0.79,0.77,0.08,0.07,0.00,119.83,115.83,113.64,113.64,174.7,27.6,1.6132885668720276,150.88261684897032,48.613731009727495,-61.217290886386024,-3.601017562835551
2.100,101.0,44.053748747935828,-78.681720884232604,190.3,8.8,-192.7,-190.5,6931.1,6931,148.2,0,1,1,0,1,1,0,0,0,100,1,1.186,26.0,0.0,-0.012,48.272,66.0,100.0,26.0,26.0,26.0,26.0,0.48,-1.96,0.01,382.4,-2.63,-4.14,-1.77,-1.35,-713.32,592.75,5.9,0.00,0.00,0.00,0.00,0.06,-7.49,-7.49,-0.91,-1.71,-0.48,-0.20,41.11,0.39,-0.86,-7.57,100.0,0,0,108.93,0,0,0.0,0,0,0,0,5811,0,30.00,4,148.2,0,0,0.0,0.0,0.0,0.0,1,0,2.118,2.118,48.272,17.725,0,110.00,435.8,8750,0.0,0.0,110.0,110.0,433.0,0.00,0,0,1,166.7,53.8,53.8,90.7,90.7,34.0,25.4,-2.69,1.2,15.4,4,-234.715,-20.7,100.0,29.9,30.4,19.2,23.9,0,1,0.0,0.00,0.00,0.00,0.00,6598,7580,1107,3292,308.8,304.5,351.9,347.0,25.46,22.68,26.53,24.76,325.0,325.0,355.0,355.0,99.99,99.97,99.98,100.00,1.30,1.50,0.68,0.90,-5.7,-9.9,-6.0,-5.3,85.1,67.8,85.6,74.5,89.6,68.0,88.9,76.2,86.2,65.1,87.1,73.8,83.4,63.6,86.0,72.7,-1.13,1.13,0.11,0.09,0.00,118.97,114.48,107.61,110.25,174.7,27.6,2.0179444987412314,139.35936209890681,45.73291724397084,-187.25288965296897,-43.212206201838086
2.150,103.0,44.053733099739887,-78.681715668167300,-12.2,-30.2,-5.2,-27.8,6933.2,6933,145.4,0,1,1,0,1,1,0,0,0,100,1,1.186,26.0,0.0,-0.012,48.272,66.0,100.0,26.0,26.0,26.0,26.0,0.39,-1.61,-0.24,386.5,-2.59,-2.41,-1.95,-1.24,-712.74,591.01,5.9,0.00,0.00,0.00,0.00,0.06,-7.49,-7.49,-0.91,0.05,-0.28,9.70,40.34,0.50,-0.80,-11.17,100.0,0,0,107.48,0,0,0.0,0,0,0,0,5733,0,30.00,4,145.4,1,0,0.0,0.0,0.0,0.0,1,0,2.163,2.163,48.272,17.725,1,110.00,435.8,8750,0.0,0.0,110.0,110.0,433.0,0.00,0,0,1,166.7,63.3,63.3,88.1,88.1,34.0,-0.9,-4.14,6.7,11.9,4,-234.760,-26.6,100.0,29.2,28.8,18.9,22.5,0,1,0.0,0.00,0.00,0.00,0.00,3286,4774,2630,2770,316.6,312.5,348.2,347.9,25.46,22.68,26.53,24.76,325.0,325.0,355.0,355.0,99.99,99.97,99.98,100.00,1.68,1.74,0.86,1.09,-10.0,-11.1,-5.0,-5.8,85.1,67.8,85.6,74.5,89.7,68.2,88.9,76.2,86.2,65.2,87.1,73.8,83.4,63.8,86.0,72.7,-1.48,1.47,0.10,0.10,0.00,109.21,109.42,107.48,107.48,174.7,27.6,1.6738578195294844,132.15732788367342,44.292510389543686,-18.00508525357202,7.2020345566474475
2.200,105.0,44.053715742832892,-78.681709822576863,-176.5,7.9,1.9,149.5,6935.1,6935,142.6,1,1,1,0,1,1,0,0,0,100,1,1.186,26.0,0.0,-0.012,48.272,66.0,100.0,26.0,26.0,26.0,26.0,0.48,-1.74,-0.21,384.9,-3.21,-3.46,-1.35,-1.70,-712.09,589.08,5.9,0.00,0.00,0.00,0.00,0.06,-7.49,-7.49,-1.07,-4.69,0.07,1.29,39.53,0.56,-0.84,-8.48,100.0,0,0,105.61,0,0,0.0,0,0,0,0,5633,0,30.00,4,142.6,0,0,0.0,0.0,0.0,0.0,1,0,2.214,2.214,48.272,17.725,0,110.00,435.8,8750,0.0,0.0,110.0,110.0,433.0,0.00,0,0,1,333.3,63.6,63.6,82.3,82.3,34.0,-2.4,-8.22,7.0,18.8,4,-234.815,-28.8,100.0,20.4,29.2,19.0,30.0,0,1,0.0,0.00,0.00,0.00,0.00,4758,6642,2636,2459,314.0,306.7,348.6,348.5,25.46,22.68,26.53,24.76,325.0,325.0,355.0,355.0,99.99,99.97,99.98,100.00,2.06,2.20,0.94,1.14,-13.7,-11.3,-5.6,-4.1,85.1,67.8,85.6,74.5,89.7,68.3,88.8,76.2,86.3,65.4,87.1,73.8,83.5,63.9,85.9,72.7,-1.68,1.64,0.11,0.08,0.00,108.27,107.72,105.03,106.19,174.7,27.6,1.817168126508937,137.5588535735496,46.45312069963558,21.606102816407144,21.606103100918972
2.250,107.0,44.053698745654536,-78.681704066918584,161.7,116.8,-200.0,-129.2,6937.1,6937,139.5,1,1,1,0,1,1,0,0,0,100,1,1.186,26.0,0.0,-0.009,48.272,66.0,100.0,26.0,26.0,26.0,26.0,0.74,-1.83,0.06,383.4,-3.77,-2.28,-1.62,-1.05,-711.45,587.19,5.9,0.00,0.00,0.00,0.00,0.06,-7.49,-7.49,-1.11,4.16,0.04,-3.44,38.69,0.58,-0.83,-10.15,100.0,0,0,99.41,0,0,0.0,0,0,0,0,5303,0,30.00,4,139.5,1,0,0.0,0.0,0.0,0.0,1,0,2.264,2.264,48.272,17.725,1,110.00,435.8,8750,0.0,0.0,110.0,110.0,433.0,0.00,0,0,1,333.3,50.4,50.4,94.8,94.8,34.0,29.1,26.47,-0.2,17.7,4,-234.865,-26.2,100.0,28.5,35.1,9.0,23.5,0,1,0.0,0.00,0.00,0.00,0.00,6052,9264,1174,2872,309.7,299.8,352.8,347.9,25.46,22.68,26.53,24.76,325.0,325.0,355.0,355.0,99.99,99.97,99.98,100.00,2.02,2.20,1.11,1.33,-5.8,-7.6,-12.4,-5.0,85.1,67.8,85.6,74.5,89.8,68.6,88.8,76.2,86.4,65.6,87.0,73.8,83.5,64.1,85.9,72.7,-1.53,1.54,0.13,0.08,0.00,111.32,111.25,94.64,104.19,174.7,27.6,1.9748670841350313,134.31793816531413,46.45312069963558,-104.42949651920017,-7.202033987623793
2.300,108.8,44.053682198136990,-78.681698221328148,-13.1,80.1,239.1,57.6,6939.0,6939,136.2,0,1,1,0,1,1,0,0,0,100,1,1.186,26.0,0.0,-0.009,48.272,66.0,66.5,26.0,26.0,26.0,26.0,0.89,-1.52,0.08,379.5,-3.52,-1.98,-1.97,-1.35,-710.80,585.35,5.9,0.00,0.00,0.00,0.00,0.07,-7.49,-7.49,-0.74,7.23,-0.17,-2.79,37.78,0.60,-0.67,-14.82,100.0,0,0,103.37,0,0,0.0,0,0,0,0,5514,0,30.00,4,136.2,0,0,0.0,0.0,0.0,0.0,1,0,2.316,2.316,48.272,17.725,0,110.00,435.8,8750,0.0,0.0,110.0,110.0,433.0,0.00,0,0,1,166.7,55.6,55.6,73.6,73.6,34.0,0.8,102.12,18.3,61.5,4,-234.915,-21.5,100.0,27.9,39.1,21.0,26.4,0,1,0.0,0.00,0.00,0.00,0.00,3165,7563,3464,4405,317.3,304.6,347.0,343.6,25.46,22.68,26.53,24.76,325.0,325.0,355.0,355.0,99.99,99.97,99.98,100.00,1.63,1.77,1.33,1.57,-9.0,-3.5,-4.4,-2.6,85.1,67.8,85.6,74.5,89.9,68.7,88.8,76.2,86.4,65.7,87.0,73.8,83.6,64.2,85.9,72.7,-1.27,1.29,0.09,0.07,0.00,105.05,113.43,102.37,104.36,174.7,27.6,1.7632073048850496,127.1159039216296,45.732917300873204,-100.82847924087645,3.6010175628356933
2.350,110.7,44.053666999601852,-78.681692645534184,-46.9,-21.4,111.5,273.7,6940.8,6941,134.2,0,1,1,0,1,1,0,0,0,100,1,1.186,26.0,0.0,-0.006,48.272,66.0,38.0,26.0,26.0,26.0,26.0,1.01,-0.86,0.20,375.2,-3.09,-2.43,-1.21,-0.63,-710.18,583.66,5.9,0.00,0.00,0.00,0.00,0.07,-7.49,-7.49,-0.47,5.16,-0.17,-1.14,37.23,0.58,-0.60,-15.56,100.0,0,0,103.55,0,0,0.0,0,0,0,0,5524,0,30.00,4,134.2,1,0,0.0,0.0,0.0,0.0,1,0,2.364,2.364,48.272,17.725,1,110.00,435.8,8750,0.0,0.0,110.0,110.0,433.0,0.00,0,0,1,166.7,57.1,57.1,66.0,66.0,34.0,19.4,138.58,42.1,80.1,4,-234.960,-18.1,100.0,25.5,38.0,26.6,40.1,0,1,0.0,0.00,0.00,0.00,0.00,2727,7939,3755,5095,317.9,303.3,346.4,342.4,25.46,22.68,26.53,24.76,325.0,325.0,355.0,355.0,99.99,99.97,99.98,100.00,1.37,1.47,1.36,1.52,-2.6,-1.6,-1.3,-1.4,85.1,67.8,85.6,74.5,89.9,68.8,88.7,76.2,86.4,65.8,87.0,73.8,83.6,64.3,85.8,72.7,-1.06,1.09,0.08,0.05,0.00,110.59,113.62,103.17,103.94,174.7,27.6,1.3415289784421356,124.23509024122649,46.81322245591915,-10.803050981435831,36.0101710761667
2.400,112.6,44.053651171541588,-78.681686530147260,-138.5,-33.7,10.0,23.7,6942.7,6943,132.8,0,1,1,0,1,1,0,0,0,100,1,1.186,26.0,0.0,-0.003,48.272,66.0,25.6,26.0,26.0,26.0,26.0,1.05,-0.70,0.02,377.4,-3.68,-2.17,-1.75,-1.28,-709.50,581.90,5.9,0.00,0.00,0.00,0.00,0.07,-7.49,-7.49,-0.18,4.60,-0.37,-8.19,36.87,0.57,-0.50,-14.55,100.0,0,0,103.18,0,0,0.0,0,0,0,0,5503,0,30.00,4,132.8,0,0,0.0,0.0,0.0,0.0,1,0,2.414,2.414,48.272,17.725,0,110.00,435.8,8750,0.0,0.0,110.0,110.0,433.0,0.00,0,0,1,166.7,64.2,64.2,64.3,64.3,34.0,18.2,99.98,46.8,108.9,4,-235.015,-16.0,100.0,18.6,36.3,27.1,41.3,0,1,0.0,0.00,0.00,0.00,0.00,2942,6028,3971,5891,317.9,308.3,345.4,339.6,25.46,22.69,26.53,24.76,325.0,325.0,355.0,355.0,99.99,99.97,99.98,100.00,1.32,1.38,1.41,1.57,-2.6,-1.1,-0.6,-0.8,85.1,67.8,85.6,74.5,89.9,68.8,88.7,76.2,86.4,65.8,86.9,73.9,83.6,64.3,85.8,72.7,-0.95,0.95,0.08,0.06,0.00,110.72,112.59,102.59,103.76,174.7,27.6,1.2621014222319853,126.03559882348601,49.333934408489874,3.601017278323866,36.010170507143116
2.450,114.4,44.053635523345640,-78.681680324828179,-91.1,-310.0,114.8,46.8,6944.5,6945,131.8,0,1,1,0,1,1,0,0,0,100,1,1.186,26.0,0.0,-0.003,48.272,66.0,23.9,26.0,26.0,26.0,26.0,0.70,-0.49,-0.14,385.5,-1.84,-2.18,-1.51,-1.25,-708.81,580.16,6.0,0.00,0.00,0.00,0.00,0.07,-7.49,-7.49,-0.13,-4.08,-0.64,-3.52,36.60,0.53,-0.45,-9.43,100.0,0,0,101.94,0,0,0.0,0,0,0,0,5438,0,30.00,4,131.8,1,0,0.0,0.0,0.0,0.0,1,0,2.466,2.466,48.272,17.725,1,110.00,435.8,8750,0.0,0.0,110.0,110.0,433.0,0.00,0,0,1,166.7,80.3,80.3,71.6,71.6,34.0,4.8,43.20,15.3,79.0,4,-235.065,-13.8,100.0,14.0,20.8,32.8,43.6,0,1,0.0,0.00,0.00,0.00,0.00,927,3309,1716,4861,322.4,316.0,350.0,342.2,25.46,22.68,26.53,24.76,325.0,325.0,355.0,355.0,99.99,99.97,99.98,100.00,1.34,1.27,1.18,1.30,-3.5,-1.6,-0.7,-0.7,85.1,67.8,85.6,74.5,89.8,68.8,88.7,76.2,86.3,65.8,86.9,73.9,83.5,64.3,85.8,72.7,-0.81,0.79,0.08,0.04,0.00,107.52,110.71,101.54,102.35,174.7,27.6,0.8658521813797087,124.59519196905887,50.414239506633464,-28.808137088542765,18.005084969059766
2.500,116.2,44.053620055014022,-78.681673939644782,39.5,45.7,-130.3,-176.5,6946.3,6946,130.8,0,1,1,0,1,1,0,0,0,100,1,1.186,26.0,0.0,0.003,48.272,66.0,24.3,26.0,26.0,26.0,26.0,0.69,-0.54,-0.12,386.9,-2.23,-2.33,-2.00,-1.78,-708.10,578.44,6.0,0.00,0.00,0.00,0.00,0.07,-7.49,-7.49,-0.44,-5.62,-0.87,-2.27,36.31,0.46,-0.54,-10.12,100.0,0,0,100.88,0,0,0.0,0,0,0,0,5381,0,30.00,4,130.8,0,0,0.0,0.0,0.0,0.0,1,0,2.517,2.517,48.272,17.725,0,110.00,435.8,8750,0.0,0.0,110.0,110.0,433.0,0.00,0,0,1,166.7,72.3,72.3,77.5,77.5,34.0,23.9,83.24,13.2,31.2,4,-235.115,-13.7,100.0,16.0,23.1,26.3,34.8,0,1,0.0,0.00,0.00,0.00,0.00,2995,5454,1910,2401,317.5,310.1,350.1,348.4,25.46,22.68,26.53,24.76,325.0,325.0,355.0,355.0,99.99,99.97,99.98,100.00,1.13,1.22,1.04,1.15,-1.4,-1.2,-0.8,-1.1,85.1,67.8,85.6,74.5,89.8,68.8,88.6,76.2,86.3,65.9,86.8,73.9,83.5,64.3,85.7,72.7,-0.79,0.79,0.09,0.07,0.00,109.19,110.47,100.64,101.11,174.7,27.6,0.8843641783790205,123.15478511463174,51.13444290539585,-100.82847895636448,-18.00508553808342
2.550,118.0,44.053604766546719,-78.681667554461384,44.9,55.5,-145.6,-198.8,6948.1,6948,129.8,0,1,1,0,1,1,0,0,0,100,1,1.186,26.0,0.0,0.006,48.272,66.0,26.0,26.0,26.0,26.0,26.0,0.73,-0.62,-0.25,388.9,-3.19,-1.44,-1.37,-1.14,-707.39,576.74,6.0,0.00,0.00,0.00,0.00,0.07,-7.49,-7.49,-0.54,-0.11,-0.87,0.37,36.03,0.52,-0.46,-12.09,100.0,0,0,100.36,0,0,0.0,0,0,0,0,5353,0,30.00,4,129.8,1,0,0.0,0.0,0.0,0.0,1,0,2.568,2.568,48.272,17.725,1,110.00,435.8,8750,0.0,0.0,110.0,110.0,433.0,0.00,0,0,1,166.7,72.3,72.3,82.8,82.8,34.0,11.6,58.70,23.0,80.5,4,-235.165,-13.9,100.0,18.3,25.9,19.0,24.8,0,1,0.0,0.00,0.00,0.00,0.00,2074,4477,2613,4984,319.7,313.1,348.9,342.5,25.46,22.68,26.53,24.76,325.0,325.0,355.0,355.0,99.99,99.97,99.98,100.00,1.11,1.16,1.17,1.39,-2.0,-1.3,-1.2,-1.0,85.1,67.8,85.6,74.5,89.7,68.8,88.5,76.2,86.2,65.9,86.8,73.8,83.4,64.4,85.7,72.7,-0.80,0.79,0.11,0.09,0.00,107.78,109.59,99.80,100.92,174.7,27.6,0.9898484732523458,114.51234407342243,48.61373095282512,-64.81830788019778,5.690236548616667e-07
2.600,119.8,44.053591456586950,-78.681661798803106,0.2,-13.9,69.2,185.1,6949.9,6950,128.8,0,1,1,0,1,1,0,0,0,100,1,1.186,26.0,0.0,0.009,48.272,66.0,26.0,26.0,26.0,26.0,26.0,0.91,-0.61,0.06,383.3,-2.80,-2.52,-1.39,-1.34,-706.75,575.26,6.0,0.00,0.00,0.00,0.00,0.07,-7.49,-7.49,-0.65,-3.30,-0.80,2.46,35.76,0.46,-0.50,-10.36,100.0,0,0,99.70,0,0,0.0,0,0,0,0,5318,0,30.00,4,128.8,0,0,0.0,0.0,0.0,0.0,0,0,2.613,2.613,48.272,17.725,0,110.00,435.8,8750,0.0,0.0,110.0,110.0,433.0,0.00,0,0,1,333.3,69.3,69.3,77.9,77.9,34.0,28.5,83.98,32.7,88.5,4,-235.215,-15.8,100.0,18.3,25.2,22.5,34.1,0,1,0.0,0.00,0.00,0.00,0.00,3693,5521,3611,5335,315.9,310.3,346.2,340.8,25.46,22.68,26.53,24.76,325.0,325.0,355.0,355.0,99.99,99.97,99.98,100.00,1.14,1.24,1.02,1.24,-1.4,-1.3,-0.6,-0.7,85.1,67.8,85.6,74.5,89.7,68.8,88.5,76.2,86.2,65.9,86.7,73.8,83.4,64.4,85.6,72.7,-0.88,0.87,0.09,0.05,0.00,107.90,108.75,99.34,100.06,174.7,27.6,1.0971781988355402,116.67295432661196,51.134442962298216,43.21220506379049,50.414239620438224
2.650,121.6,44.053575628526687,-78.681654784094576,136.5,47.2,-84.3,-5.7,6951.7,6952,127.7,0,1,1,0,1,1,0,0,0,100,1,1.186,26.0,0.0,0.012,48.272,66.0,26.4,26.0,26.0,26.0,26.0,0.79,-0.63,0.03,382.5,-3.10,-1.92,-2.52,-0.50,-705.97,573.50,6.0,0.00,0.00,0.00,0.00,0.07,-7.49,-7.49,-0.75,1.23,-0.54,6.54,35.44,0.44,-0.56,-13.28,100.0,0,0,98.57,0,0,0.0,0,0,0,0,5258,0,30.00,4,127.7,1,0,0.0,0.0,0.0,0.0,0,0,2.667,2.667,48.272,17.725,1,110.00,435.8,8750,0.0,0.0,110.0,110.0,433.0,0.00,0,0,1,166.7,61.9,61.9,90.6,90.6,34.0,42.0,89.81,6.7,73.6,4,-235.265,-20.4,100.0,25.1,27.6,18.2,33.8,0,1,0.0,0.00,0.00,0.00,0.00,4776,5717,1340,5147,312.3,309.1,351.7,342.3,25.46,22.68,26.53,24.76,325.0,325.0,355.0,355.0,99.99,99.97,99.98,100.00,1.18,1.30,1.03,1.20,-1.0,-1.2,-1.4,-0.9,85.1,67.8,85.6,74.5,89.6,68.9,88.4,76.1,86.2,65.9,86.7,73.8,83.4,64.4,85.6,72.7,-1.14,1.13,0.11,0.06,0.00,107.16,108.08,97.72,99.42,174.7,27.6,1.0108906963663282,118.83356457980148,53.655154914868945,-64.81830816470989,3.6010169938118963
2.700,123.3,44.053561778973958,-78.681648398911179,-92.7,19.5,15.8,19.4,6953.4,6953,126.7,0,1,1,0,1,1,0,0,0,100,1,1.186,26.0,0.0,0.018,48.272,66.0,26.0,26.0,26.0,26.0,26.0,0.90,-0.57,-0.02,383.7,-3.26,-2.49,-2.27,-0.25,-705.26,571.96,6.0,0.00,0.00,0.00,0.00,0.07,-7.49,-7.49,-0.63,2.19,-0.25,4.05,35.16,0.45,-0.49,-14.52,100.0,0,0,98.22,0,0,0.0,0,0,0,0,5239,0,30.00,4,126.7,0,0,0.0,0.0,0.0,0.0,0,0,2.716,2.716,48.272,17.725,0,110.00,435.8,8750,0.0,0.0,110.0,110.0,433.0,0.00,0,0,1,333.3,68.3,68.3,79.5,79.5,34.0,14.4,96.20,21.8,88.3,4,-235.315,-25.9,100.0,20.4,28.5,19.0,34.8,0,1,0.0,0.00,0.00,0.00,0.00,1816,5666,2809,5692,320.2,309.4,348.2,340.6,25.46,22.68,26.53,24.76,325.0,325.0,355.0,355.0,99.99,99.97,99.98,100.00,1.55,1.56,1.12,1.32,-2.0,-1.3,-0.8,-0.8,85.1,67.8,85.6,74.5,89.6,68.9,88.4,76.1,86.1,65.9,86.6,73.8,83.3,64.4,85.5,72.7,-1.46,1.45,0.11,0.07,0.00,104.84,107.24,97.53,98.89,174.7,27.6,1.0655045753069294,110.19112351014097,51.494544661679406,-64.81830788019778,0.0
2.750,125.1,44.053548109285551,-78.681641923795610,-150.0,-50.5,161.5,36.1,6955.2,6955,125.8,0,1,1,0,1,1,0,0,0,100,1,1.186,26.0,0.0,0.021,48.272,66.0,23.9,26.0,26.0,26.0,26.0,0.73,-0.45,-0.21,386.8,-2.68,-1.76,-2.21,-0.41,-704.54,570.44,6.0,0.00,0.00,0.00,0.00,0.07,-7.49,-7.49,-0.65,-3.34,-0.22,-0.98,34.91,0.46,-0.47,-13.36,100.0,0,0,97.27,0,0,0.0,0,0,0,0,5188,0,30.00,4,125.8,1,0,0.0,0.0,0.0,0.0,0,0,2.763,2.763,48.272,17.725,1,110.00,435.8,8750,0.0,0.0,110.0,110.0,433.0,0.00,0,0,1,333.3,78.4,78.4,70.9,70.9,34.0,0.4,59.56,17.8,74.1,4,-235.365,-33.3,100.0,12.9,26.0,27.1,36.6,0,1,0.0,0.00,0.00,0.00,0.00,200,3797,2077,4876,324.3,314.2,349.1,342.6,25.46,22.68,26.53,24.76,325.0,325.0,355.0,355.0,99.99,99.97,99.98,100.00,2.09,2.00,1.22,1.35,-6.0,-1.6,-0.7,-0.8,85.1,67.8,85.5,74.5,89.5,68.9,88.3,76.1,86.1,65.9,86.6,73.8,83.3,64.4,85.5,72.7,-1.88,1.84,0.09,0.06,0.00,99.16,105.70,96.65,97.89,174.7,27.6,0.8828929719960398,112.3517337917817,53.655154914868945,39.61118835449085,46.81322205760267
