Time,Distance,GPS Latitude,GPS Longitude,Damper Velocity (Calc) FL,Damper Velocity (Calc) FR,Damper Velocity (Calc) RL,Damper Velocity (Calc) RR,Corr Dist,Corr Dist (Unstretched),Corr Speed,ABS Active,ABS Enabled,AID Allow Tire Blankets,AID Auto Blip,AID Auto Clutch,AID Auto Shift,AID Fuel Rate,AID Ideal Line,AID Mech Damage,AID Stability,AID Tire Wear Rate,Air Density,Air Temp,Ballast,Best Lap Delta,Best Lap Time,Brake Bias,Brake Pos,Brake Temp FL,Brake Temp FR,Brake Temp RL,Brake Temp RR,CG Accel Lateral,CG Accel Longitudinal,CG Accel Vertical,CG Height,Camber FL,Camber FR,Camber RL,Camber RR,Car Coord X,Car Coord Y,Car Coord Z,Car Damage Front,Car Damage Left,Car Damage Rear,Car Damage Right,Car Pos Norm,Caster FL,Caster FR,Chassis Pitch Angle,Chassis Pitch Rate,Chassis Roll Angle,Chassis Roll Rate,Chassis Velocity X,Chassis Velocity Y,Chassis Velocity Z,Chassis Yaw Rate,Clutch Pos,DRS Active,DRS Available,Drive Train Speed,ERS Heat Charging,ERS Is Charging,ERS Max Energy,ERS Power Level,ERS Recovery Level,Engine Brake Setting,Engine Limiter,Engine RPM,Flags,Fuel Level,Gear,Ground Speed,HR Sample Clock,In Pit,KERS Charge,KERS Deployed Energy,KERS Input,KERS Max Energy,LR Sample Clock,Lap Invalidated,Lap Time,Lap Time2,Last Lap Time,Last Sector Time,MR Sample Clock,Max Fuel,Max Power,Max RPM,Max Sus Travel FL,Max Sus Travel FR,Max Sus Travel RL,Max Sus Travel RR,Max Torque,Max Turbo Boost,Num Tires Off Track,Penalties Enabled,Position,Raw Data Sample Rate,Ride Height FL,Ride Height FR,Ride Height RL,Ride Height RR,Road Temp,Self Align Torque FL,Self Align Torque FR,Self Align Torque RL,Self Align Torque RR,Session Lap Count,Session Time Left,Steering Angle,Surface Grip,Suspension Travel FL,Suspension Travel FR,Suspension Travel RL,Suspension Travel RR,TC Active,TC Enabled,Throttle Pos,Tire Dirt Level FL,Tire Dirt Level FR,Tire Dirt Level RL,Tire Dirt Level RR,Tire Load FL,Tire Load FR,Tire Load RL,Tire Load RR,Tire Loaded Radius FL,Tire Loaded Radius FR,Tire Loaded Radius RL,Tire Loaded Radius RR,Tire Pressure FL,Tire Pressure FR,Tire Pressure RL,Tire Pressure RR,Tire Radius FL,Tire Radius FR,Tire Radius RL,Tire Radius RR,Tire Rubber Grip FL,Tire Rubber Grip FR,Tire Rubber Grip RL,Tire Rubber Grip RR,Tire Slip Angle FL,Tire Slip Angle FR,Tire Slip Angle RL,Tire Slip Angle RR,Tire Slip Ratio FL,Tire Slip Ratio FR,Tire Slip Ratio RL,Tire Slip Ratio RR,Tire Temp Core FL,Tire Temp Core FR,Tire Temp Core RL,Tire Temp Core RR,Tire Temp Inner FL,Tire Temp Inner FR,Tire Temp Inner RL,Tire Temp Inner RR,Tire Temp Middle FL,Tire Temp Middle FR,Tire Temp Middle RL,Tire Temp Middle RR,Tire Temp Outer FL,Tire Temp Outer FR,Tire Temp Outer RL,Tire Temp Outer RR,Toe In FL,Toe In FR,Toe In RL,Toe In RR,Turbo Boost,Wheel Angular Speed FL,Wheel Angular Speed FR,Wheel Angular Speed RL,Wheel Angular Speed RR,Wind Direction,Wind Speed,CG Distance,Lateral Velocity,Longitudinal Velocity,Lateral Acceleration,Longitudinal Acceleration
s,m,deg,deg,mm/s,mm/s,mm/s,mm/s,m,m,km/h,,,,,,,,,%,%,,kg/m3,C,kg,s,s,%,%,C,C,C,C,G,G,G,mm,deg,deg,deg,deg,m,m,m,,,,,,deg,deg,deg,deg/s,deg,deg/s,m/s,m/s,m/s,deg/s,%,,,rad/s,,,MJ,,,,,rpm,,l,,km/h,,,%,kJ,%,MJ,,,s,s,s,s,,l,hp,rpm,mm,mm,mm,mm,N.m,,,,,Hz,mm,mm,mm,mm,C,N.m,N.m,N.m,N.m,,s,deg,%,mm,mm,mm,mm,,,%,,,,,N,N,N,N,mm,mm,mm,mm,psi,psi,psi,psi,mm,mm,mm,mm,%,%,%,%,deg,deg,deg,deg,%,%,%,%,C,C,C,C,C,C,C,C,C,C,C,C,C,C,C,C,deg,deg,deg,deg,,rad/s,rad/s,rad/s,rad/s,deg,km/h,G,Km/h,Km/h,Km/h^2,Km/h^2
0.000,0.0,44.054625316705120,-78.681965139980775,-52.7,-56.5,96.0,6.2,5029.5,5030,170.5,0,1,1,0,1,1,0,0,0,100,1,1.186,26.0,0.0,0.000,47.643,66.0,0.0,26.0,26.0,26.0,26.0,0.12,0.33,-0.13,378.5,-2.80,-1.67,-1.01,-1.13,-740.48,690.22,5.7,0.00,0.00,0.00,0.00,0.00,-7.49,-7.49,-0.24,-1.57,0.24,-5.64,47.37,0.14,-0.36,-0.68,100.0,0,0,135.57,0,0,0.0,0,0,0,0,7231,0,30.00,4,170.5,0,0,0.0,0.0,0.0,0.0,1,0,0.018,0.018,47.643,17.721,0,110.00,435.8,8750,0.0,0.0,110.0,110.0,433.0,0.00,0,0,1,333.3,74.0,74.0,60.1,60.1,34.0,-8.67,19.35,2.5,29.2,3,-150.290,0.1,100.0,17.6,23.3,41.6,42.3,0,1,100.0,0.00,0.00,0.00,0.00,3435,3843,3768,5166,316.9,314.9,344.4,341.9,26.37,23.35,26.67,25.15,325.0,325.0,355.0,355.0,100.00,99.85,100.00,99.93,0.13,0.19,0.21,0.29,-0.1,-0.1,1.9,1.8,90.8,72.0,86.4,76.9,97.3,72.8,90.7,78.9,93.8,69.6,89.0,76.6,90.2,67.7,87.7,75.3,0.01,-0.02,0.06,0.03,0.00,145.16,145.16,135.57,135.57,88.0,25.5,0.37443290453698114
0.050,2.4,44.054604272579539,-78.681959564186826,49.1,-55.9,-83.5,-58.9,5031.9,5032,171.1,0,1,1,0,1,1,0,0,0,100,1,1.186,26.0,0.0,0.000,47.643,66.0,0.0,26.0,26.0,26.0,26.0,0.07,0.33,-0.28,383.8,-3.01,-2.60,-1.81,-1.13,-739.86,687.88,5.7,0.00,0.00,0.00,0.00,0.00,-7.49,-7.49,-0.26,-0.36,-0.02,-3.87,47.54,0.10,-0.34,0.11,100.0,0,0,136.20,0,0,0.0,0,0,0,0,7265,0,30.00,4,171.1,1,0,0.0,0.0,0.0,0.0,1,0,0.069,0.069,47.643,17.721,1,110.00,435.8,8750,0.0,0.0,110.0,110.0,433.0,0.00,0,0,1,166.7,79.7,79.7,68.1,68.1,34.0,-3.54,5.21,-9.9,18.0,3,-150.340,0.4,100.0,20.0,20.5,37.5,39.4,0,1,100.0,0.00,0.00,0.00,0.00,1496,1305,4509,4195,321.3,321.6,344.5,344.2,26.37,23.35,26.67,25.15,325.0,325.0,355.0,355.0,100.00,99.85,100.00,99.93,0.13,0.10,0.09,0.20,-0.0,-0.0,1.9,2.0,90.8,72.0,86.4,76.9,97.3,72.7,90.6,78.9,93.7,69.6,89.0,76.6,90.2,67.7,87.7,75.2,0.03,-0.03,0.06,0.06,0.00,145.65,145.61,136.20,136.20,88.0,25.5,0.4384062043356595,164.20638018129347,43.21220529140011
0.100,4.8,44.054584307639885,-78.681954348121508,-51.1,-111.4,59.6,-16.3,5034.3,5034,171.7,0,1,1,0,1,1,0,0,0,100,1,1.186,26.0,0.0,0.003,47.643,66.0,0.0,26.0,26.0,26.0,26.0,-0.03,0.34,-0.21,382.6,-2.10,-2.33,-1.81,-2.28,-739.28,685.66,5.7,0.00,0.00,0.00,0.00,0.00,-7.49,-7.49,-0.43,-5.69,-0.08,2.98,47.70,0.06,-0.41,0.83,100.0,0,0,136.37,0,0,0.0,0,0,0,0,7274,0,30.00,4,171.7,0,0,0.0,0.0,0.0,0.0,1,0,0.117,0.117,47.643,17.721,0,110.00,435.8,8750,0.0,0.0,110.0,110.0,433.0,0.00,0,0,1,333.3,78.9,78.9,69.6,69.6,34.0,-18.78,7.65,-15.0,22.4,3,-150.390,0.9,100.0,17.5,14.9,40.5,38.5,0,1,100.0,0.00,0.00,0.00,0.00,4728,2199,4263,4123,313.8,319.6,344.1,343.6,26.38,23.35,26.67,25.15,325.0,325.0,355.0,355.0,100.00,99.85,100.00,99.93,-0.04,0.04,-0.01,0.10,-0.1,-0.0,1.8,1.8,90.8,72.0,86.4,76.9,97.2,72.7,90.6,78.9,93.6,69.5,88.9,76.5,90.1,67.6,87.6,75.2,0.06,-0.07,0.06,0.04,0.00,146.17,145.95,136.37,136.37,88.0,25.5,0.4007492981902776,164.5664818806747,43.212205348302476,7.202033987623793,0.0
0.150,7.2,44.054563173582146,-78.681948772327544,-8.3,285.5,-195.2,-126.5,5036.7,5037,172.3,0,1,1,0,1,1,0,0,0,100,1,1.186,26.0,0.0,0.003,47.643,66.0,0.0,26.0,26.0,26.0,26.0,0.02,0.36,-0.25,382.9,-2.72,-2.46,-1.25,-1.53,-738.66,683.31,5.7,0.00,0.00,0.00,0.00,0.01,-7.49,-7.49,-0.54,0.75,0.01,-6.23,47.86,0.03,-0.42,0.16,100.0,0,0,137.30,0,0,0.0,0,0,0,0,7324,0,30.00,4,172.3,1,0,0.0,0.0,0.0,0.0,1,0,0.168,0.168,47.643,17.721,1,110.00,435.8,8750,0.0,0.0,110.0,110.0,433.0,0.00,0,0,1,333.3,71.5,71.5,63.8,63.8,34.0,-10.42,20.33,-13.2,12.7,3,-150.440,1.1,100.0,17.0,29.2,30.7,32.2,0,1,100.0,0.00,0.00,0.00,0.00,2727,4413,5252,3259,318.7,313.5,342.7,346.7,26.38,23.35,26.67,25.15,325.0,325.0,355.0,355.0,100.00,99.85,100.00,99.93,-0.00,0.05,-0.03,0.14,-0.1,0.1,2.2,2.1,90.8,72.0,86.5,76.9,97.1,72.7,90.5,78.9,93.6,69.5,88.9,76.5,90.0,67.6,87.6,75.2,0.05,-0.05,0.08,0.07,0.00,146.63,146.61,137.30,137.30,88.0,25.5,0.4387482193696061,164.92658358005585,43.21220529140011,10.803051265947659,3.6010164247882415
0.200,9.6,44.054543118710335,-78.681943556262240,42.6,-112.9,131.3,192.7,5039.1,5039,172.9,0,1,1,0,1,1,0,0,0,100,1,1.186,26.0,0.0,0.006,47.643,66.0,0.0,26.0,26.0,26.0,26.0,0.06,0.32,0.08,377.3,-2.24,-2.18,-1.66,-1.56,-738.08,681.08,5.7,0.00,0.00,0.00,0.00,0.01,-7.49,-7.49,-0.50,-0.04,-0.23,-6.98,48.03,-0.01,-0.38,0.63,100.0,0,0,136.85,0,0,0.0,0,0,0,0,7300,0,30.00,4,172.9,0,0,0.0,0.0,0.0,0.0,1,0,0.216,0.216,47.643,17.721,0,110.00,435.8,8750,0.0,0.0,110.0,110.0,433.0,0.00,0,0,1,333.3,71.0,71.0,67.5,67.5,34.0,-18.45,15.37,-10.9,40.4,3,-150.490,1.6,100.0,19.2,23.5,37.3,41.9,0,1,100.0,0.00,0.00,0.00,0.00,4184,4673,3314,6992,315.1,313.3,347.2,336.0,26.38,23.35,26.67,25.15,325.0,325.0,355.0,355.0,100.00,99.85,100.00,99.93,-0.07,-0.01,-0.02,0.15,-0.1,-0.1,1.3,1.6,90.9,72.0,86.5,76.9,97.0,72.6,90.5,78.9,93.5,69.5,88.9,76.5,89.9,67.6,87.6,75.2,0.09,-0.10,0.06,0.04,0.00,147.37,147.21,136.85,136.85,88.0,25.5,0.3352610922848042,165.64678700726947,43.5723069907813,61.21729088638631,18.005086107107076
0.250,12.0,44.054521804788273,-78.681937890536119,50.6,-42.2,57.0,-95.6,5041.5,5042,173.5,0,1,1,0,1,1,0,0,0,100,1,1.186,26.0,0.0,0.006,47.643,66.0,0.0,26.0,26.0,26.0,26.0,-0.05,0.30,-0.09,379.1,-1.92,-2.98,-1.56,-1.66,-737.45,678.71,5.7,0.00,0.00,0.00,0.00,0.01,-7.49,-7.49,-0.46,0.80,-0.71,-5.27,48.19,-0.05,-0.35,1.63,100.0,0,0,137.87,0,0,0.0,0,0,0,0,7354,0,30.00,4,173.5,1,0,0.0,0.0,0.0,0.0,1,0,0.267,0.267,47.643,17.721,1,110.00,435.8,8750,0.0,0.0,110.0,110.0,433.0,0.00,0,0,1,333.3,72.3,72.3,63.6,63.6,34.0,-23.10,9.92,-28.0,11.4,3,-150.540,2.3,100.0,21.7,21.4,40.1,37.1,0,1,100.0,0.00,0.00,0.00,0.00,4774,2973,6213,3731,313.9,317.2,340.9,345.9,26.38,23.35,26.67,25.15,325.0,325.0,355.0,355.0,100.00,99.85,100.00,99.93,-0.13,-0.08,-0.12,0.02,-0.1,-0.1,1.8,1.8,90.9,72.0,86.5,76.9,96.9,72.6,90.5,78.8,93.4,69.4,88.8,76.5,89.9,67.5,87.5,75.2,0.13,-0.13,0.05,0.06,0.00,147.85,147.65,137.87,137.87,88.0,25.5,0.3171750305430741,171.04831266869448,45.01271390211082,64.81830788019778,10.803051550459486
0.300,14.4,44.054500400934053,-78.681932314742156,105.4,-20.3,21.9,36.4,5043.9,5044,174.1,0,1,1,0,1,1,0,0,0,100,1,1.186,26.0,0.0,0.009,47.643,66.0,0.0,26.0,26.0,26.0,26.0,-0.10,0.29,-0.18,379.1,-2.05,-2.25,-0.79,-2.02,-736.83,676.33,5.7,0.00,0.00,0.00,0.00,0.01,-7.49,-7.49,-0.42,1.26,-0.66,4.80,48.36,-0.08,-0.37,2.80,100.0,0,0,138.51,0,0,0.0,0,0,0,0,7388,0,30.00,4,174.1,0,0,0.0,0.0,0.0,0.0,0,0,0.318,0.318,47.643,17.721,0,110.00,435.8,8750,0.0,0.0,110.0,110.0,433.0,0.00,0,0,1,333.3,72.3,72.3,69.8,69.8,34.0,-23.03,0.62,-19.7,8.7,3,-150.590,2.8,100.0,27.0,20.4,41.2,38.9,0,1,100.0,0.00,0.00,0.00,0.00,3770,1581,4523,4441,315.7,320.2,344.5,343.9,26.38,23.35,26.68,25.15,325.0,325.0,355.0,355.0,100.00,99.85,100.00,99.93,-0.23,-0.23,-0.25,-0.14,-0.0,-0.0,1.7,1.9,90.9,71.9,86.5,76.9,96.8,72.5,90.4,78.8,93.3,69.4,88.8,76.5,89.8,67.5,87.5,75.1,0.17,-0.18,0.06,0.06,0.00,148.36,148.13,138.51,138.51,88.0,25.5,0.3556683848755748,172.12861779528924,44.65261214582725,-32.40915408235509,-18.005086107107076
0.350,16.8,44.054478817215511,-78.681926738948206,-56.2,19.0,37.1,59.2,5046.4,5046,174.7,0,1,1,0,1,1,0,0,0,100,1,1.186,26.0,0.0,0.012,47.643,66.0,0.0,26.0,26.0,26.0,26.0,-0.16,0.29,0.21,375.7,-2.96,-2.82,-1.28,-1.04,-736.21,673.93,5.7,0.00,0.00,0.00,0.00,0.01,-7.49,-7.49,-0.39,-0.47,-0.31,5.44,48.53,-0.09,-0.39,2.40,100.0,0,0,138.44,0,0,0.0,0,0,0,0,7384,0,30.00,4,174.7,1,0,0.0,0.0,0.0,0.0,0,0,0.369,0.369,47.643,17.721,1,110.00,435.8,8750,0.0,0.0,110.0,110.0,433.0,0.00,0,0,1,166.7,70.0,70.0,60.2,60.2,34.0,-22.86,12.27,-28.3,-2.0,3,-150.640,2.7,100.0,24.2,21.3,43.1,41.9,0,1,100.0,0.00,0.00,0.00,0.00,3185,5251,4515,5130,317.2,311.4,343.6,341.3,26.38,23.35,26.68,25.15,325.0,325.0,355.0,355.0,100.00,99.85,100.00,99.93,-0.24,-0.17,-0.29,-0.19,-0.0,-0.0,1.4,1.5,90.9,71.9,86.5,77.0,96.8,72.5,90.4,78.8,93.3,69.4,88.8,76.5,89.7,67.4,87.5,75.1,0.17,-0.16,0.05,0.04,0.00,148.80,148.74,138.44,138.44,88.0,25.5,0.39217343102255153,167.80739726045897,43.21220529140011,-43.212205348302746,-14.404068544271382
0.400,19.2,44.054458492547219,-78.681921522882888,-36.2,7.9,-20.7,-57.6,5048.8,5049,175.2,0,1,1,0,1,1,0,0,0,100,1,1.186,26.0,0.0,0.012,47.643,66.0,0.0,26.0,26.0,26.0,26.0,-0.13,0.32,-0.07,378.9,-2.53,-3.15,-0.96,-1.64,-735.63,671.67,5.7,0.00,0.00,0.00,0.00,0.01,-7.49,-7.49,-0.35,0.11,-0.22,0.88,48.69,-0.09,-0.35,1.77,100.0,0,0,138.91,0,0,0.0,0,0,0,0,7410,0,30.00,4,175.2,0,0,0.0,0.0,0.0,0.0,0,0,0.417,0.417,47.643,17.721,0,110.00,435.8,8750,0.0,0.0,110.0,110.0,433.0,0.00,0,0,1,333.3,74.8,74.8,63.4,63.4,34.0,-17.19,4.81,-20.6,12.5,3,-150.690,2.0,100.0,22.4,21.7,42.0,39.0,0,1,100.0,0.00,0.00,0.00,0.00,2844,2479,4382,5946,318.1,318.6,343.7,340.3,26.38,23.35,26.68,25.15,325.0,325.0,355.0,355.0,100.00,99.85,100.00,99.93,-0.21,-0.20,-0.22,-0.09,-0.0,-0.0,1.4,1.6,90.9,71.9,86.5,77.0,96.7,72.5,90.4,78.8,93.2,69.3,88.7,76.4,89.7,67.4,87.4,75.1,0.12,-0.13,0.05,0.06,0.00,149.31,149.07,138.91,138.91,88.0,25.5,0.3524202037341219,167.80739726045897,43.21220529140011,7.20203427213562,3.6010169938118963
0.450,21.7,44.054436908828677,-78.681915947088939,-70.0,-0.1,-12.9,26.6,5051.2,5051,175.8,0,1,1,0,1,1,0,0,0,100,1,1.186,26.0,0.0,0.012,47.643,66.0,0.0,26.0,26.0,26.0,26.0,-0.11,0.21,-0.25,380.7,-2.60,-2.31,-1.39,-1.98,-735.01,669.27,5.7,0.00,0.00,0.00,0.00,0.01,-7.49,-7.49,-0.44,-2.71,-0.47,-7.64,48.84,-0.11,-0.42,1.43,100.0,0,0,139.89,0,0,0.0,0,0,0,0,7462,0,30.00,4,175.8,1,0,0.0,0.0,0.0,0.0,0,0,0.468,0.468,47.643,17.721,1,110.00,435.8,8750,0.0,0.0,110.0,110.0,433.0,0.00,0,0,1,333.3,75.3,75.3,61.3,61.3,34.0,-15.06,8.65,-23.4,6.9,3,-150.740,0.1,100.0,18.9,21.7,41.4,40.3,0,1,100.0,0.00,0.00,0.00,0.00,3021,3150,4941,2891,317.2,316.5,343.0,348.3,26.38,23.35,26.68,25.15,325.0,325.0,355.0,355.0,100.00,99.85,100.00,99.93,-0.08,-0.06,-0.17,-0.06,-0.1,-0.0,1.8,1.9,90.9,71.9,86.5,77.0,96.6,72.4,90.3,78.8,93.1,69.3,88.7,76.4,89.6,67.4,87.4,75.1,0.02,-0.03,0.05,0.06,0.00,149.67,149.57,139.89,139.89,88.0,25.5,0.3445286635390443,168.52760068767253,43.5723069907813,18.005085538083563,5.690236548616667e-07
0.500,24.1,44.054416404296063,-78.681910641091463,3.8,-186.5,-63.8,-94.5,5053.7,5054,176.4,0,1,1,0,1,1,0,0,0,100,1,1.186,26.0,0.0,0.015,47.643,66.0,0.0,26.0,26.0,26.0,26.0,-0.01,0.26,-0.08,385.1,-2.51,-3.18,-1.43,-2.09,-734.42,666.99,5.7,0.00,0.00,0.00,0.00,0.02,-7.49,-7.49,-0.60,-4.78,-0.62,0.32,49.00,-0.13,-0.43,0.88,100.0,0,0,140.06,0,0,0.0,0,0,0,0,7471,0,30.00,4,176.4,0,0,0.0,0.0,0.0,0.0,0,0,0.516,0.516,47.643,17.721,0,110.00,435.8,8750,0.0,0.0,110.0,110.0,433.0,0.00,0,0,1,333.3,81.7,81.7,75.2,75.2,34.0,-12.19,6.65,-17.8,15.3,3,-150.790,-3.1,100.0,19.0,12.4,38.2,35.6,0,1,100.0,0.00,0.00,0.00,0.00,2990,1588,3613,5403,317.6,320.3,347.0,341.5,26.38,23.35,26.68,25.15,325.0,325.0,355.0,355.0,100.00,99.85,100.00,99.93,-0.03,0.00,-0.24,-0.09,-0.0,-0.1,1.7,1.9,90.9,71.9,86.5,77.0,96.5,72.4,90.3,78.7,93.0,69.2,88.6,76.4,89.5,67.3,87.3,75.1,-0.13,0.13,0.06,0.06,0.00,150.13,149.99,140.06,140.06,88.0,25.5,0.272213151776324,169.60790581426733,43.212205348302476,64.81830788019806,10.803051550459486
0.550,26.6,44.054394550781041,-78.681905155229657,-38.0,-1.9,-106.5,-178.2,5056.1,5056,176.9,0,1,1,0,1,1,0,0,0,100,1,1.186,26.0,0.0,0.015,47.643,66.0,0.0,26.0,26.0,26.0,26.0,-0.04,0.50,-0.33,387.2,-1.79,-2.41,-1.06,-2.18,-733.81,664.56,5.7,0.00,0.00,0.00,0.00,0.02,-7.49,-7.49,-0.87,-4.16,-0.48,8.66,49.16,-0.12,-0.46,-0.13,100.0,0,0,141.01,0,0,0.0,0,0,0,0,7522,0,30.00,4,176.9,1,0,0.0,0.0,0.0,0.0,0,0,0.567,0.567,47.643,17.721,1,110.00,435.8,8750,0.0,0.0,110.0,110.0,433.0,0.00,0,0,1,333.3,80.6,80.6,73.9,73.9,34.0,-4.85,18.49,-24.2,8.7,3,-150.840,-6.7,100.0,17.1,12.3,32.9,26.7,0,1,100.0,0.00,0.00,0.00,0.00,3588,3220,4776,4183,316.4,317.0,342.4,344.2,26.38,23.35,26.68,25.15,325.0,325.0,355.0,355.0,100.00,99.85,100.00,99.93,0.11,0.20,-0.30,-0.14,-0.1,-0.1,2.5,2.5,90.9,71.9,86.5,77.0,96.4,72.3,90.2,78.7,92.9,69.2,88.6,76.4,89.4,67.3,87.3,75.0,-0.36,0.36,0.07,0.07,0.00,150.55,150.50,141.01,141.01,88.0,25.5,0.600416522091123,175.00943147569234,44.65261214582725,7.20203427213562,3.6010164247882415
0.600,29.1,44.054372697266018,-78.681899489503550,30.8,78.8,-111.2,47.4,5058.6,5059,177.5,0,1,1,0,1,1,0,0,0,100,1,1.186,26.0,0.0,0.018,47.643,66.0,0.0,26.0,26.0,26.0,26.0,0.03,0.39,-0.27,387.0,-2.54,-1.66,-1.25,-1.82,-733.18,662.13,5.7,0.00,0.00,0.00,0.00,0.02,-7.49,-7.49,-0.98,-0.67,-0.07,7.32,49.32,-0.07,-0.42,-2.83,100.0,0,0,141.30,0,0,0.0,0,0,0,0,7537,0,30.00,4,177.5,0,0,0.0,0.0,0.0,0.0,0,0,0.618,0.618,47.643,17.721,0,110.00,435.8,8750,0.0,0.0,110.0,110.0,433.0,0.00,0,0,1,166.7,77.9,77.9,81.0,81.0,34.0,-1.92,16.11,-15.4,15.5,3,-150.890,-9.5,100.0,18.7,16.3,27.3,29.0,0,1,100.0,0.00,0.00,0.00,0.00,3610,2711,3772,4620,316.7,317.7,345.9,342.8,26.38,23.35,26.68,25.15,325.0,325.0,355.0,355.0,100.00,99.85,100.00,99.93,0.25,0.31,-0.19,0.00,-0.1,-0.1,2.1,2.0,90.9,71.9,86.5,77.0,96.4,72.3,90.2,78.7,92.9,69.1,88.5,76.4,89.4,67.2,87.2,75.0,-0.53,0.52,0.09,0.07,0.00,151.08,151.27,141.30,141.30,88.0,25.5,0.4752893855326458,170.3281092414809,43.5723069907813,-43.212205063790634,-10.803050981435831
0.650,31.5,44.054352012869082,-78.681894273438232,-14.8,8.6,65.3,136.0,5061.1,5061,178.1,0,1,1,0,1,1,0,0,0,100,1,1.186,26.0,0.0,0.018,47.643,66.0,0.0,26.0,26.0,26.0,26.0,0.21,0.34,-0.06,383.2,-1.17,-2.01,-0.87,-1.05,-732.60,659.83,5.7,0.00,0.00,0.00,0.00,0.02,-7.49,-7.49,-1.06,-2.33,0.26,6.60,49.48,0.04,-0.40,-5.29,100.0,0,0,141.45,0,0,0.0,0,0,0,0,7545,0,30.00,4,178.1,1,0,0.0,0.0,0.0,0.0,0,0,0.666,0.666,47.643,17.721,1,110.00,435.8,8750,0.0,0.0,110.0,110.0,433.0,0.00,0,0,1,333.3,76.7,76.7,76.0,76.0,34.0,13.24,33.80,-3.5,23.2,3,-150.940,-11.4,100.0,18.0,16.7,30.6,35.8,0,1,100.0,0.00,0.00,0.00,0.00,3525,3740,3288,5031,316.6,315.0,345.8,341.5,26.38,23.34,26.68,25.15,325.0,325.0,355.0,355.0,100.00,99.85,100.00,99.93,0.44,0.52,0.04,0.20,-0.0,-0.1,2.0,1.6,90.9,71.9,86.5,77.0,96.3,72.2,90.2,78.7,92.8,69.1,88.5,76.3,89.3,67.2,87.2,75.0,-0.63,0.63,0.08,0.06,0.00,151.39,151.87,141.45,141.45,88.0,25.5,0.404103947023535,170.68821096931327,43.572307047683665,61.21729088638574,25.20712009473094
0.700,34.0,44.054330069421894,-78.681888607712111,124.8,240.5,-7.1,9.1,5063.6,5064,178.7,0,1,1,0,1,1,0,0,0,100,1,1.186,26.0,0.0,0.018,47.643,66.0,0.0,26.0,26.0,26.0,26.0,0.41,0.36,0.11,376.2,-2.74,-1.87,-1.53,-0.70,-731.97,657.39,5.6,0.00,0.00,0.00,0.00,0.02,-7.49,-7.49,-1.02,4.48,0.61,6.19,49.64,0.21,-0.40,-9.14,100.0,0,0,142.10,0,0,0.0,0,0,0,0,7580,0,30.00,4,178.7,0,0,0.0,0.0,0.0,0.0,0,0,0.717,0.717,47.643,17.721,0,110.00,435.8,8750,0.0,0.0,110.0,110.0,433.0,0.00,0,0,1,333.3,63.9,63.9,70.8,70.8,34.0,12.87,58.34,3.3,46.3,3,-150.990,-11.8,100.0,24.2,28.7,30.2,36.3,0,1,100.0,0.00,0.00,0.00,0.00,4424,5374,3887,6237,314.5,310.7,345.6,339.2,26.38,23.35,26.68,25.16,325.0,325.0,355.0,355.0,100.00,99.85,100.00,99.93,0.55,0.63,0.32,0.47,-0.0,-0.1,2.2,1.7,90.9,71.9,86.5,77.0,96.2,72.2,90.1,78.7,92.7,69.1,88.5,76.3,89.2,67.2,87.2,75.0,-0.68,0.68,0.09,0.05,0.00,151.94,152.70,142.10,142.10,88.0,25.5,0.5565968020030299,176.44983833011946,46.093019000254394,10.803051265947374,21.606101962871733
0.750,36.5,44.054307946110391,-78.681882762121674,-121.6,-3.1,203.8,299.2,5066.0,5066,179.3,0,1,1,0,1,1,0,0,0,100,1,1.186,26.0,0.0,0.021,47.643,66.0,0.0,26.0,26.0,26.0,26.0,0.58,0.29,0.25,372.8,-2.84,-1.56,-2.02,-0.94,-731.32,654.93,5.6,0.00,0.00,0.00,0.00,0.02,-7.49,-7.49,-0.81,1.25,0.75,-1.07,49.81,0.35,-0.32,-8.33,100.0,0,0,141.96,0,0,0.0,0,0,0,0,7572,0,30.00,4,179.3,1,0,0.0,0.0,0.0,0.0,0,0,0.768,0.768,47.643,17.721,1,110.00,435.8,8750,0.0,0.0,110.0,110.0,433.0,0.00,0,0,1,333.3,72.4,72.4,53.5,53.5,34.0,6.12,52.30,14.2,76.6,3,-151.040,-9.6,100.0,18.1,28.5,40.4,51.3,0,1,100.0,0.00,0.00,0.00,0.00,1602,4544,4746,6769,321.5,312.3,343.0,337.1,26.38,23.35,26.69,25.16,325.0,325.0,355.0,355.0,100.00,99.85,100.00,99.93,0.77,0.76,0.56,0.67,-0.0,-0.1,1.6,1.2,90.9,71.9,86.5,77.0,96.1,72.2,90.1,78.7,92.6,69.1,88.4,76.3,89.2,67.2,87.1,75.0,-0.59,0.58,0.06,0.02,0.00,152.24,153.10,141.96,141.96,88.0,25.5,0.6949820141557621,171.768516095908,45.73291724397084,-46.8132223421145,3.6010169938118963
0.800,39.0,44.054287171781290,-78.681877186327725,-87.2,-178.6,-17.7,-56.3,5068.5,5069,179.8,0,1,1,0,1,1,0,0,0,100,1,1.186,26.0,0.0,0.021,47.643,66.0,0.0,26.0,26.0,26.0,26.0,0.44,0.29,-0.16,379.6,-3.02,-1.72,-2.81,-0.71,-730.70,652.62,5.6,0.00,0.00,0.00,0.00,0.02,-7.49,-7.49,-0.92,-5.27,0.55,-4.14,49.96,0.44,-0.36,-6.38,100.0,0,0,142.60,0,0,0.0,0,0,0,0,7606,0,30.00,4,179.8,0,0,0.0,0.0,0.0,0.0,1,0,0.816,0.816,47.643,17.721,0,110.00,435.8,8750,0.0,0.0,110.0,110.0,433.0,0.00,0,0,1,333.3,81.4,81.4,63.1,63.1,34.0,6.86,32.30,7.8,68.0,3,-151.090,-7.8,100.0,13.8,19.6,39.5,48.4,0,1,100.0,0.00,0.00,0.00,0.00,2410,2936,3258,6379,321.6,317.0,346.4,339.4,26.38,23.34,26.69,25.16,325.0,325.0,355.0,355.0,100.00,99.85,100.00,99.93,0.71,0.83,0.67,0.74,-0.0,-0.1,1.9,1.4,90.9,71.9,86.5,77.0,96.0,72.2,90.0,78.7,92.6,69.1,88.4,76.3,89.1,67.2,87.1,75.0,-0.45,0.46,0.06,0.03,0.00,152.59,153.18,142.60,142.60,88.0,25.5,0.5507267925205745,171.768516095908,46.45312069963558,57.61627360806216,32.40915465137853
0.850,41.5,44.054265048469787,-78.681871160872959,186.9,132.4,-162.3,-217.8,5071.0,5071,180.3,0,1,1,0,1,1,0,0,0,100,1,1.186,26.0,0.0,0.024,47.643,66.0,0.0,26.0,26.0,26.0,26.0,0.46,0.34,-0.04,378.1,-2.98,-1.25,-2.05,-0.66,-730.03,650.16,5.6,0.00,0.00,0.00,0.00,0.03,-7.49,-7.49,-1.07,1.25,0.57,3.33,50.10,0.50,-0.44,-7.97,100.0,0,0,143.87,0,0,0.0,0,0,0,0,7674,0,30.00,4,180.3,1,0,0.0,0.0,0.0,0.0,1,0,0.867,0.867,47.643,17.721,1,110.00,435.8,8750,0.0,0.0,110.0,110.0,433.0,0.00,0,0,1,333.3,66.4,66.4,69.5,69.5,34.0,8.39,74.55,9.6,46.6,3,-151.140,-5.9,100.0,23.1,26.2,31.4,37.5,0,1,100.0,0.00,0.00,0.00,0.00,2410,6504,2982,4766,318.3,307.9,347.5,342.9,26.38,23.34,26.69,25.16,325.0,325.0,355.0,355.0,100.00,99.85,100.00,99.93,0.66,0.73,0.68,0.80,-0.0,-0.1,2.4,1.9,90.9,71.9,86.5,77.0,96.0,72.2,90.0,78.6,92.5,69.1,88.3,76.3,89.0,67.2,87.0,75.0,-0.34,0.36,0.07,0.06,0.00,153.19,153.98,143.87,143.87,88.0,25.5,0.5734108474732581,177.53014345671423,48.97383270910869,7.2020342721361885,21.606102531895388
0.900,44.0,44.054242835226120,-78.681864955553877,-48.8,1.1,154.1,170.3,5073.6,5074,180.9,0,1,1,0,1,1,0,0,0,100,1,1.186,26.0,0.0,0.027,47.643,66.0,0.0,26.0,26.0,26.0,26.0,0.59,0.28,0.26,372.5,-2.85,-2.52,-2.04,0.30,-729.34,647.69,5.6,0.00,0.00,0.00,0.00,0.03,-7.49,-7.49,-0.96,0.39,0.77,6.35,50.27,0.53,-0.39,-5.73,100.0,0,0,143.24,0,0,0.0,0,0,0,0,7641,0,30.00,4,180.9,0,0,0.0,0.0,0.0,0.0,1,0,0.918,0.918,47.643,17.721,0,110.00,435.8,8750,0.0,0.0,110.0,110.0,433.0,0.00,0,0,1,333.3,68.4,68.4,61.1,61.1,34.0,13.53,53.21,17.3,75.5,3,-151.190,-3.7,100.0,20.7,26.3,39.1,46.1,0,1,100.0,0.00,0.00,0.00,0.00,3969,4571,4597,7575,314.9,312.3,343.7,336.3,26.38,23.35,26.69,25.16,325.0,325.0,355.0,355.0,100.00,99.85,100.00,99.93,0.61,0.65,0.64,0.79,-0.1,-0.1,1.6,1.3,90.9,71.9,86.6,77.0,95.9,72.2,90.0,78.6,92.4,69.0,88.3,76.3,88.9,67.2,87.0,75.0,-0.23,0.23,0.06,0.02,0.00,153.92,154.35,143.24,143.24,88.0,25.5,0.7029224708315989,172.48871952312163,48.61373095282512,-46.813222342114216,7.202033987623722
0.950,46.5,44.054221970964861,-78.681859020031283,-37.6,69.6,-83.5,4.4,5076.1,5076,181.4,0,1,1,0,1,1,0,0,0,100,1,1.186,26.0,0.0,0.027,47.643,66.0,0.0,26.0,26.0,26.0,26.0,0.53,0.39,0.12,372.9,-3.55,-2.38,-1.72,-0.18,-728.68,645.37,5.5,0.00,0.00,0.00,0.00,0.03,-7.49,-7.49,-0.96,1.21,0.76,-5.43,50.41,0.52,-0.41,-5.21,100.0,0,0,144.08,0,0,0.0,0,0,0,0,7685,0,30.00,4,181.4,1,0,0.0,0.0,0.0,0.0,1,0,0.966,0.966,47.643,17.721,1,110.00,435.8,8750,0.0,0.0,110.0,110.0,433.0,0.00,0,0,1,333.3,66.0,66.0,59.2,59.2,34.0,5.28,70.02,25.0,59.9,3,-151.240,-1.0,100.0,18.8,29.8,34.9,46.3,0,1,100.0,0.00,0.00,0.00,0.00,4319,5925,5352,6148,314.9,309.0,342.2,340.2,26.38,23.35,26.69,25.16,325.0,325.0,355.0,355.0,100.00,99.85,100.00,99.93,0.51,0.62,0.69,0.79,-0.1,-0.1,2.1,1.7,90.9,71.9,86.6,77.0,95.8,72.2,89.9,78.7,92.4,69.0,88.3,76.3,88.9,67.2,87.0,75.0,-0.08,0.10,0.07,0.02,0.00,154.36,154.87,144.08,144.08,88.0,25.5,0.6688796603276258,172.8488212225028,49.694036107871064,111.631530222312,50.414239620438224
1.000,49.1,44.054199667789035,-78.681852544915714,-5.4,-27.5,49.5,-2.4,5078.6,5079,182.0,0,1,1,0,1,1,0,0,0,100,1,1.186,26.0,0.0,0.030,47.643,66.0,0.0,26.0,26.0,26.0,26.0,0.44,0.43,-0.04,375.8,-3.41,-2.19,-2.43,-2.01,-727.96,642.89,5.5,0.00,0.00,0.00,0.00,0.03,-7.49,-7.49,-0.80,3.09,0.52,-8.68,50.57,0.46,-0.33,-2.83,100.0,0,0,144.10,0,0,0.0,0,0,0,0,7686,0,30.00,4,182.0,0,0,0.0,0.0,0.0,0.0,1,0,1.017,1.017,47.643,17.721,0,110.00,435.8,8750,0.0,0.0,110.0,110.0,433.0,0.00,0,0,1,333.3,75.9,75.9,55.8,55.8,34.0,0.12,22.13,15.5,92.5,3,-151.290,2.4,100.0,18.5,28.4,37.4,46.2,0,1,100.0,0.00,0.00,0.00,0.00,398,3016,6013,6821,323.9,316.8,341.0,336.4,26.38,23.35,26.69,25.16,325.0,325.0,355.0,355.0,100.00,99.85,100.00,99.93,0.43,0.36,0.59,0.72,-0.0,0.0,1.6,1.5,90.9,71.9,86.6,77.0,95.7,72.2,89.9,78.7,92.3,69.0,88.2,76.3,88.8,67.2,86.9,75.0,0.13,-0.12,0.07,0.03,0.00,154.80,155.14,144.10,144.10,88.0,25.5,0.616522505671934,183.65187254535283,53.655154914868945,3.6010169938120384,14.40406797524787
1.050,51.6,44.054176105562959,-78.681845620139356,-81.0,-215.8,88.0,-12.8,5081.1,5081,182.6,0,1,1,0,1,1,0,0,0,100,1,1.186,26.0,0.0,0.027,47.643,66.0,0.0,26.0,26.0,26.0,26.0,0.15,0.17,-0.24,381.4,-2.39,-1.79,-2.13,-1.61,-727.19,640.27,5.5,0.00,0.00,0.00,0.00,0.03,-7.49,-7.49,-0.95,-5.70,0.09,-6.40,50.73,0.32,-0.41,1.02,100.0,0,0,145.49,0,0,0.0,0,0,0,0,7760,0,30.00,4,182.6,1,0,0.0,0.0,0.0,0.0,1,0,1.071,1.071,47.643,17.721,1,110.00,435.8,8750,0.0,0.0,110.0,110.0,433.0,0.00,0,0,1,166.7,79.4,79.4,66.1,66.1,34.0,-5.80,17.58,1.1,20.8,3,-151.340,4.5,100.0,14.5,17.6,41.8,45.5,0,1,100.0,0.00,0.00,0.00,0.00,3250,3328,2654,3054,317.3,316.3,348.3,347.0,26.38,23.35,26.69,25.16,325.0,325.0,355.0,355.0,100.00,99.85,100.00,99.94,0.14,0.22,0.37,0.42,-0.0,-0.0,1.9,1.9,90.9,71.9,86.6,77.0,95.6,72.1,89.8,78.6,92.2,69.0,88.2,76.3,88.7,67.1,86.9,75.0,0.26,-0.26,0.07,0.05,0.00,155.38,155.24,145.49,145.49,88.0,25.5,0.3301514803843836,173.208922921884,51.13444290539585,-151.242718576803,-36.01017107616677
1.100,54.1,44.054156410419793,-78.681839774548919,180.8,14.5,-175.7,-247.6,5083.7,5084,183.1,0,1,1,0,1,1,0,0,0,100,1,1.186,26.0,0.0,0.030,47.643,66.0,0.0,26.0,26.0,26.0,26.0,0.08,0.29,-0.05,378.4,-2.12,-2.29,-1.16,-1.00,-726.54,638.08,5.5,0.00,0.00,0.00,0.00,0.03,-7.49,-7.49,-1.08,-0.43,0.01,3.07,50.87,0.21,-0.41,2.76,100.0,0,0,145.59,0,0,0.0,0,0,0,0,7766,0,30.00,4,183.1,0,0,0.0,0.0,0.0,0.0,1,0,1.116,1.116,47.643,17.721,0,110.00,435.8,8750,0.0,0.0,110.0,110.0,433.0,0.00,0,0,1,166.7,66.4,66.4,75.3,75.3,34.0,-36.74,22.25,-4.5,19.4,3,-151.380,5.7,100.0,23.5,18.3,33.0,33.1,0,1,100.0,0.00,0.00,0.00,0.00,6884,5093,4755,4450,308.4,311.0,344.0,344.0,26.38,23.34,26.69,25.16,325.0,325.0,355.0,355.0,100.00,99.85,100.00,99.94,-0.10,0.03,0.10,0.24,-0.1,-0.1,1.9,2.1,90.9,71.9,86.6,77.0,95.6,72.1,89.8,78.6,92.1,69.0,88.2,76.3,88.6,67.1,86.9,75.0,0.33,-0.34,0.06,0.07,0.00,156.21,155.85,145.59,145.59,88.0,25.5,0.30495901363953815,168.52760068767253,50.05413780725227,64.81830816470932,18.005086107107005
1.150,56.7,44.054134017311803,-78.681833119569035,160.0,226.2,79.6,63.8,5086.2,5086,183.7,0,1,1,0,1,1,0,0,0,100,1,1.186,26.0,0.0,0.030,47.643,66.0,0.0,26.0,26.0,26.0,26.0,-0.17,0.38,0.27,369.3,-2.71,-2.42,-1.83,-1.12,-725.80,635.59,5.4,0.00,0.00,0.00,0.00,0.03,-7.49,-7.49,-0.89,6.99,0.31,5.92,51.03,0.09,-0.38,3.92,100.0,0,0,145.31,0,0,0.0,0,0,0,0,7751,0,30.00,4,183.7,1,0,0.0,0.0,0.0,0.0,1,0,1.167,1.167,47.643,17.721,1,110.00,435.8,8750,0.0,0.0,110.0,110.0,433.0,0.00,0,0,1,333.3,58.4,58.4,61.3,61.3,34.0,-44.50,13.05,-45.6,23.4,3,-151.440,5.7,100.0,31.5,29.6,37.0,36.3,0,1,100.0,0.00,0.00,0.00,0.00,5863,5540,7293,7574,311.5,310.9,337.8,337.0,26.38,23.34,26.69,25.16,325.0,325.0,355.0,355.0,100.00,99.85,100.00,99.94,-0.23,-0.12,-0.15,0.05,-0.1,-0.0,1.4,1.6,90.9,71.9,86.6,77.0,95.5,72.0,89.8,78.6,92.1,68.9,88.1,76.3,88.6,67.1,86.8,75.0,0.35,-0.32,0.06,0.06,0.00,156.83,156.47,145.31,145.31,88.0,25.5,0.49618544920221114,179.69075373835494,52.93495151610655,68.41932515852164,10.803051550459486
1.200,59.3,44.054111534271655,-78.681826554521308,27.0,156.2,260.4,302.7,5088.8,5089,184.2,0,1,1,0,1,1,0,0,0,100,1,1.186,26.0,0.0,0.033,47.643,66.0,0.3,26.0,26.0,26.0,26.0,-0.22,0.28,0.72,359.3,-3.03,-1.83,-1.80,-1.40,-725.07,633.09,5.4,0.00,0.00,0.00,0.00,0.04,-7.49,-7.49,-0.49,8.57,0.36,-6.29,51.18,-0.02,-0.35,4.74,100.0,0,0,145.84,0,0,0.0,0,0,0,0,7779,0,30.00,4,184.2,0,0,0.0,0.0,0.0,0.0,1,0,1.218,1.218,47.643,17.721,0,110.00,435.8,8750,0.0,0.0,110.0,110.0,433.0,0.00,0,0,1,333.3,49.9,49.9,45.6,45.6,34.0,-62.94,10.08,-39.6,13.0,3,-151.490,5.8,100.0,32.9,37.5,50.0,51.5,0,1,100.0,0.00,0.00,0.00,0.00,7088,6904,6413,6365,308.2,306.1,339.1,338.6,26.39,23.35,26.70,25.17,325.0,325.0,355.0,355.0,100.00,99.85,100.00,99.94,-0.26,-0.12,-0.14,-0.07,-0.1,-0.1,1.1,1.4,90.9,71.9,86.6,77.0,95.4,72.0,89.7,78.6,92.0,68.9,88.1,76.3,88.5,67.0,86.8,75.0,0.35,-0.29,0.04,0.02,0.00,157.48,157.00,145.84,145.84,88.0,25.5,0.8032434251209281,175.3695332035247,51.134442962298216,-39.61118835449042,-18.00508553808335
1.250,61.8,44.054090220349593,-78.681820349202226,54.5,21.1,112.7,77.2,5091.4,5091,184.7,0,1,1,0,1,1,0,0,0,100,1,1.186,26.0,0.0,0.033,47.643,66.0,2.3,26.0,26.0,26.0,26.0,-0.25,0.25,0.89,353.4,-3.04,-3.17,-1.70,-1.42,-724.38,630.72,5.4,0.00,0.00,0.00,0.00,0.04,-7.49,-7.49,-0.05,8.82,-0.12,-14.56,51.32,-0.09,-0.32,4.27,100.0,0,0,145.87,0,0,0.0,0,0,0,0,7781,0,30.00,4,184.7,1,0,0.0,0.0,0.0,0.0,1,0,1.266,1.266,47.643,17.721,1,110.00,435.8,8750,0.0,0.0,110.0,110.0,433.0,0.00,0,0,1,333.3,46.5,46.5,33.8,33.8,34.0,-77.94,27.79,-68.2,15.0,3,-151.540,5.7,100.0,35.6,38.5,55.7,55.3,0,1,100.0,0.00,0.00,0.00,0.00,8071,7634,9935,7399,306.1,304.4,331.5,336.0,26.39,23.35,26.70,25.17,325.0,325.0,355.0,355.0,100.00,99.85,100.00,99.94,-0.30,-0.14,-0.15,-0.09,-0.1,-0.1,1.0,1.2,90.9,71.9,86.6,77.1,95.4,72.0,89.7,78.6,91.9,68.9,88.1,76.3,88.5,67.0,86.8,75.0,0.36,-0.28,0.03,0.02,0.00,157.71,157.39,145.87,145.87,88.0,25.5,0.9576533819707421,175.7296349029059,51.134442962298216,61.2172906018742,14.404068544271453
1.300,64.4,44.054067647377288,-78.681813784154500,-108.2,-228.0,88.0,-31.9,5093.9,5094,185.2,0,1,1,0,1,1,0,0,0,100,1,1.186,26.0,0.0,0.033,47.643,66.0,9.1,26.0,26.0,26.0,26.0,-0.26,0.21,0.26,362.3,-1.10,-2.95,-1.57,-2.53,-723.65,628.21,5.5,0.00,0.00,0.00,0.00,0.04,-7.49,-7.49,0.30,2.68,-0.55,-4.05,51.43,-0.17,-0.33,4.14,100.0,0,0,145.91,0,0,0.0,0,0,0,0,7783,0,30.00,4,185.2,0,0,0.0,0.0,0.0,0.0,0,0,1.317,1.317,47.643,17.721,0,110.00,435.8,8750,0.0,0.0,110.0,110.0,433.0,0.00,0,0,1,333.3,65.2,65.2,36.0,36.0,34.0,-24.47,1.40,-80.6,22.3,3,-151.590,4.6,100.0,30.2,27.1,60.1,53.7,0,1,98.4,0.00,0.00,0.00,0.00,4225,3961,9507,8288,314.8,314.4,332.7,334.0,26.39,23.35,26.70,25.17,325.0,325.0,355.0,355.0,100.00,99.85,100.00,99.94,-0.31,-0.31,-0.28,-0.22,-0.4,-0.4,0.9,1.1,90.9,71.9,86.6,77.1,95.3,72.0,89.7,78.6,91.9,68.9,88.0,76.3,88.4,67.0,86.7,75.0,0.31,-0.27,0.01,0.01,0.00,157.17,156.84,145.91,145.91,88.0,25.5,0.4234383071948026,181.49126226371212,52.57484981672536,7.20203427213562,-7.202034556647519
1.350,67.0,44.054044894540660,-78.681807219106773,24.2,-11.0,-202.2,-196.0,5096.5,5097,185.2,0,1,1,0,1,1,0,0,0,100,1,1.186,26.0,0.0,0.036,47.643,66.0,16.9,26.0,26.0,26.0,26.0,-0.25,-0.02,-0.04,372.3,-2.55,-3.55,-0.02,-1.99,-722.92,625.68,5.5,0.00,0.00,0.00,0.00,0.04,-7.49,-7.49,0.27,-0.01,-0.56,4.16,51.45,-0.21,-0.56,4.92,100.0,0,0,146.39,0,0,0.0,0,0,0,0,7809,0,30.00,4,185.2,1,0,0.0,0.0,0.0,0.0,0,0,1.368,1.368,47.643,17.721,1,110.00,435.8,8750,0.0,0.0,110.0,110.0,433.0,0.00,0,0,1,333.3,62.0,62.0,59.4,59.4,34.0,-50.77,6.14,-22.5,-2.4,3,-151.640,3.7,100.0,31.4,26.6,50.0,43.9,0,1,84.8,0.00,0.00,0.00,0.00,5551,4133,4411,4302,311.5,314.1,344.2,344.3,26.39,23.35,26.70,25.17,325.0,325.0,355.0,355.0,100.00,99.85,100.00,99.94,-0.38,-0.30,-0.39,-0.35,-0.6,-0.8,1.0,1.3,90.9,71.9,86.6,77.1,95.3,72.0,89.7,78.6,91.8,68.9,88.0,76.3,88.4,67.0,86.7,74.9,0.25,-0.22,0.04,0.04,0.00,156.96,156.35,146.39,146.39,88.0,25.5,0.2539685019840059,176.44983833011946,50.414239506633464,-54.01525632973829,-32.40915465137853
1.400,69.5,44.054023580618598,-78.681801193652021,13.6,-24.8,-124.4,-50.2,5099.1,5099,185.0,0,1,1,0,1,1,0,0,0,100,1,1.186,26.0,0.0,0.036,47.643,66.0,34.3,26.0,26.0,26.0,26.0,-0.40,-0.37,0.25,373.1,-2.76,-3.06,-1.25,-2.40,-722.25,623.31,5.5,0.00,0.00,0.00,0.00,0.04,-7.49,-7.49,0.32,1.08,-0.41,3.14,51.37,-0.23,-0.57,4.11,100.0,0,0,145.07,0,0,0.0,0,0,0,0,7738,0,30.00,4,185.0,0,0,0.0,0.0,0.0,0.0,0,0,1.416,1.416,47.643,17.721,0,110.00,435.8,8750,0.0,0.0,110.0,110.0,433.0,0.00,0,0,1,333.3,60.4,60.4,65.8,65.8,34.0,-69.98,4.84,-51.6,1.9,3,-151.690,1.5,100.0,32.1,25.3,43.7,41.4,0,1,58.2,0.00,0.00,0.00,0.00,7315,3851,5580,4294,307.3,315.0,341.2,344.2,26.39,23.35,26.70,25.17,325.0,325.0,355.0,355.0,100.00,99.85,100.00,99.94,-0.37,-0.25,-0.45,-0.33,-1.0,-1.5,0.4,0.7,90.9,71.9,86.7,77.1,95.2,72.0,89.6,78.6,91.8,68.8,88.0,76.2,88.3,67.0,86.7,74.9,0.13,-0.11,0.04,0.04,0.00,156.16,154.71,145.07,145.07,88.0,25.5,0.5994997914928746,176.0897366307383,49.33393435158751,93.62644496874054,14.404068544271453
1.450,72.1,44.054000917714127,-78.681794898400781,-77.6,41.9,-26.3,-40.6,5101.6,5102,183.9,0,1,1,0,1,1,0,0,0,100,1,1.186,26.0,0.0,0.036,47.643,66.0,56.6,26.0,26.0,26.0,26.0,-0.23,-0.71,0.12,376.4,-2.33,-3.20,-1.78,-1.80,-721.55,620.79,5.6,0.00,0.00,0.00,0.00,0.04,-7.49,-7.49,0.42,1.03,-0.20,1.83,51.07,-0.24,-0.55,2.34,100.0,0,0,143.05,0,0,0.0,0,0,0,0,7631,0,30.00,4,183.9,1,0,0.0,0.0,0.0,0.0,0,0,1.467,1.467,47.643,17.721,1,110.00,435.8,8750,0.0,0.0,110.0,110.0,433.0,0.00,0,0,1,333.3,67.1,67.1,54.4,54.4,34.0,-4.53,14.17,-69.1,-1.8,3,-151.740,-1.2,100.0,28.2,27.4,42.4,39.4,0,1,29.0,0.00,0.00,0.00,0.00,1797,5242,6491,4457,320.9,311.3,339.5,343.4,26.39,23.35,26.71,25.17,325.0,325.0,355.0,355.0,100.00,99.85,100.00,99.94,-0.17,-0.13,-0.45,-0.30,-3.9,-2.3,-0.3,-0.2,90.9,71.9,86.7,77.1,95.2,72.0,89.6,78.5,91.8,68.9,87.9,76.2,88.3,67.0,86.6,74.9,-0.04,0.06,0.05,0.05,0.00,149.47,152.76,143.05,143.05,88.0,25.5,0.7559100475585703,185.81248282699352,51.85464636106061,-28.808137088542765,-10.803050981435902
1.500,74.6,44.053977175623729,-78.681788243420897,-167.1,-119.6,-46.8,-37.0,5104.2,5104,181.9,0,1,1,0,1,1,0,0,0,100,1,1.186,26.0,0.0,0.039,47.643,66.0,87.4,26.0,26.0,26.0,26.0,-0.05,-1.17,-0.19,385.2,-2.67,-2.49,-1.23,-1.05,-720.81,618.15,5.6,0.00,0.00,0.00,0.00,0.05,-7.49,-7.49,0.15,-9.26,-0.28,-2.39,50.50,-0.19,-0.71,-0.39,100.0,0,0,138.36,0,0,0.0,0,0,0,0,7380,0,30.00,4,181.9,0,0,0.0,0.0,0.0,0.0,0,0,1.521,1.521,47.643,17.721,0,110.00,435.8,8750,0.0,0.0,110.0,110.0,433.0,0.00,0,0,1,166.7,74.6,74.6,75.2,75.2,34.0,-0.81,0.17,-1.7,2.6,3,-151.790,-3.7,100.0,19.8,21.4,40.1,37.5,0,1,0.0,0.00,0.00,0.00,0.00,3744,2597,543,3992,315.8,318.3,352.9,344.3,26.39,23.35,26.71,25.17,325.0,325.0,355.0,355.0,100.00,99.85,100.00,99.94,-0.06,-0.03,-0.22,-0.11,-8.6,-9.2,-2.3,-1.4,90.9,71.9,86.7,77.1,95.2,72.0,89.5,78.5,91.8,68.9,87.9,76.2,88.3,67.0,86.5,74.8,-0.19,0.19,0.08,0.06,0.00,140.65,138.65,137.53,139.19,88.0,25.5,1.1863810517704672,173.208922921884,48.25362925344392,-201.6569584817526,-61.217290601874055
1.550,77.1,44.053957660344885,-78.681782847491263,69.2,-72.7,-318.5,-220.6,5106.7,5107,179.7,0,1,1,0,1,1,0,0,0,100,1,1.186,26.0,0.0,0.042,47.643,66.0,100.0,26.0,26.0,26.0,26.0,-0.03,-1.61,-0.34,390.1,-1.48,-2.64,-1.77,-1.15,-720.21,615.98,5.7,0.00,0.00,0.00,0.00,0.05,-7.49,-7.49,-0.30,-10.64,-0.37,1.62,49.85,-0.11,-0.90,-3.02,100.0,0,0,133.32,0,0,0.0,0,0,0,0,7112,0,30.00,4,179.7,1,0,0.0,0.0,0.0,0.0,0,0,1.566,1.566,47.643,17.721,1,110.00,435.8,8750,0.0,0.0,110.0,110.0,433.0,0.00,0,0,1,333.3,68.8,68.8,92.2,92.2,34.0,-1.50,0.19,-4.8,1.2,3,-151.840,-5.9,100.0,23.3,17.8,24.2,26.5,0,1,0.0,0.00,0.00,0.00,0.00,5500,5213,1957,1316,311.3,312.4,351.1,351.2,26.39,23.34,26.71,25.17,325.0,325.0,355.0,355.0,100.00,99.85,100.00,99.94,0.03,0.19,-0.21,-0.00,-7.4,-9.7,-4.2,-4.5,91.0,71.9,86.7,77.1,95.3,72.1,89.5,78.4,91.8,69.0,87.8,76.1,88.4,67.1,86.5,74.8,-0.32,0.30,0.10,0.07,0.00,141.13,137.46,133.55,133.09,88.0,25.5,1.6457824886661057,165.64678697881826,45.732917300873204,2.8451182743083336e-07,-3.6010169938118963
1.600,79.6,44.053935806829863,-78.681776822036497,144.4,293.2,-148.6,-249.8,5109.1,5109,176.5,0,1,1,0,1,1,0,0,0,100,1,1.186,26.0,0.0,0.042,47.643,66.0,100.0,26.0,26.0,26.0,26.0,0.07,-2.11,-0.10,385.6,-1.83,-3.10,-0.98,-0.77,-719.54,613.55,5.7,0.00,0.00,0.00,0.00,0.05,-7.49,-7.49,-0.63,-1.30,-0.11,6.17,48.94,0.06,-1.07,-4.91,100.0,0,0,124.37,0,0,0.0,0,0,0,0,6634,0,30.00,4,176.5,0,0,0.0,0.0,0.0,0.0,0,0,1.617,1.617,47.643,17.721,0,110.00,435.8,8750,0.0,0.0,110.0,110.0,433.0,0.00,0,0,1,333.3,51.5,51.5,89.9,89.9,34.0,1.74,2.64,-0.5,-0.2,3,-151.890,-8.9,100.0,30.5,32.5,16.7,14.0,0,1,0.0,0.00,0.00,0.00,0.00,7217,7942,2504,1728,307.4,303.7,349.0,351.3,26.39,23.34,26.71,25.17,325.0,325.0,355.0,355.0,100.00,99.85,100.00,99.94,0.25,0.46,0.00,0.24,-4.7,-9.2,-7.7,-11.4,91.0,71.9,86.7,77.1,95.3,72.3,89.4,78.4,91.9,69.2,87.8,76.1,88.4,67.3,86.5,74.8,-0.47,0.50,0.11,0.10,0.00,143.63,137.55,126.94,121.80,88.0,25.5,2.1135278564523343,173.2089229503352,47.89352755406273,-10.803050981435547,3.6010169938118963
1.650,82.0,44.053914402975636,-78.681770886513902,25.3,80.7,20.9,266.1,5111.5,5112,172.7,0,1,1,0,1,1,0,0,0,100,1,1.186,26.0,0.0,0.045,47.643,66.0,100.0,26.0,26.0,26.0,26.0,0.27,-1.86,-0.17,381.5,-3.57,-2.84,-0.74,-1.33,-718.88,611.17,5.7,0.00,0.00,0.00,0.00,0.05,-7.49,-7.49,-0.41,5.58,0.22,2.59,47.90,0.15,-0.99,-4.63,100.0,0,0,126.24,0,0,0.0,0,0,0,0,6734,0,30.00,4,172.7,1,0,0.0,0.0,0.0,0.0,0,0,1.668,1.668,47.643,17.721,1,110.00,435.8,8750,0.0,0.0,110.0,110.0,433.0,0.00,0,0,1,333.3,54.6,54.6,86.5,86.5,34.0,0.98,36.58,0.0,24.9,3,-151.940,-10.9,100.0,31.8,36.5,17.8,27.3,0,1,0.0,0.00,0.00,0.00,0.00,4506,6440,2431,4968,314.2,307.6,349.8,342.5,26.39,23.35,26.70,25.17,325.0,325.0,355.0,355.0,100.00,99.85,100.00,99.94,0.59,0.69,0.16,0.38,-7.8,-5.1,-9.8,-3.7,91.0,71.9,86.7,77.1,95.4,72.4,89.4,78.4,91.9,69.3,87.8,76.1,88.4,67.4,86.5,74.8,-0.61,0.63,0.11,0.07,0.00,134.80,139.56,121.59,130.90,88.0,25.5,1.8871671892018473,164.5664818806747,46.093019000254394,-118.83356477896001,-21.606102531895246
1.700,84.3,44.053894707832470,-78.681765310719939,-104.9,-178.2,189.3,102.3,5113.9,5114,169.6,1,1,1,0,1,1,0,0,0,100,1,1.186,26.0,0.0,0.048,47.643,66.0,100.0,26.0,26.0,26.0,26.0,0.19,-1.49,-0.28,384.4,-2.93,-3.08,-2.29,-1.62,-718.26,608.98,5.8,0.00,0.00,0.00,0.00,0.05,-7.49,-7.49,-0.34,-1.28,0.24,1.33,47.05,0.25,-0.89,-4.94,100.0,0,0,127.11,0,0,0.0,0,0,0,0,6780,0,30.00,4,169.6,0,0,0.0,0.0,0.0,0.0,0,0,1.716,1.716,47.643,17.721,0,110.00,435.8,8750,0.0,0.0,110.0,110.0,433.0,0.00,0,0,1,333.3,65.3,65.3,82.6,82.6,34.0,-0.36,-2.48,-0.1,26.3,3,-151.990,-12.5,100.0,26.5,27.6,27.2,32.4,0,1,0.0,0.00,0.00,0.00,0.00,3298,5030,1314,3546,316.9,311.6,351.8,345.7,26.40,23.35,26.70,25.17,325.0,325.0,355.0,355.0,100.00,99.85,100.00,99.94,0.81,0.88,0.34,0.51,-10.3,-13.1,-4.8,-2.5,91.0,71.9,86.7,77.1,95.4,72.6,89.4,78.4,92.0,69.4,87.7,76.1,88.5,67.5,86.4,74.8,-0.71,0.71,0.10,0.07,0.00,127.66,129.68,125.33,128.89,88.0,25.5,1.5279397893896212,161.3255664724392,45.732917300873204,-14.404068544271524,3.6010169938118963
1.750,86.6,44.053874113367691,-78.681759465129502,-33.6,28.5,-68.1,-157.8,5116.2,5116,166.4,0,1,1,0,1,1,0,0,0,100,1,1.186,26.0,0.0,0.051,47.643,66.0,100.0,26.0,26.0,26.0,26.0,0.29,-1.70,-0.26,386.5,-2.81,-2.95,-1.17,-1.30,-717.61,606.69,5.8,0.00,0.00,0.00,0.00,0.05,-7.49,-7.49,-0.42,-1.45,0.11,-0.53,46.17,0.32,-0.85,-6.25,100.0,0,0,123.56,0,0,0.0,0,0,0,0,6591,0,30.00,4,166.4,1,0,0.0,0.0,0.0,0.0,0,0,1.767,1.767,47.643,17.721,1,110.00,435.8,8750,0.0,0.0,110.0,110.0,433.0,0.00,0,0,1,333.3,63.6,63.6,84.5,84.5,34.0,3.02,0.97,4.4,6.2,3,-152.040,-14.2,100.0,24.8,29.0,23.8,24.6,0,1,0.0,0.00,0.00,0.00,0.00,5407,4336,2113,2331,312.2,313.0,349.2,349.2,26.40,23.35,26.70,25.17,325.0,325.0,355.0,355.0,100.00,99.85,100.00,99.94,0.94,1.05,0.46,0.65,-8.1,-9.3,-3.3,-6.0,91.0,71.9,86.7,77.1,95.5,72.7,89.3,78.4,92.1,69.5,87.7,76.1,88.6,67.6,86.4,74.8,-0.80,0.81,0.10,0.08,0.00,129.77,127.69,124.58,122.55,88.0,25.5,1.744047017714832,163.12607502624755,46.45312069963558,-61.21729088638574,-10.803051550459557
1.800,88.9,44.053853968563722,-78.681753709471224,-8.0,-71.9,-53.1,87.2,5118.4,5118,163.4,0,1,1,0,1,1,0,0,0,100,1,1.186,26.0,0.0,0.051,47.643,66.0,100.0,26.0,26.0,26.0,26.0,0.31,-1.55,-0.25,387.4,-2.42,-2.36,-2.07,-1.51,-716.97,604.45,5.8,0.00,0.00,0.00,0.00,0.05,-7.49,-7.49,-0.54,-4.61,0.19,1.13,45.33,0.42,-0.83,-5.79,100.0,0,0,122.01,0,0,0.0,0,0,0,0,6508,0,30.00,4,163.4,0,0,0.0,0.0,0.0,0.0,1,0,1.818,1.818,47.643,17.721,0,110.00,435.8,8750,0.0,0.0,110.0,110.0,433.0,0.00,0,0,1,166.7,67.3,67.3,86.5,86.5,34.0,-1.01,9.10,2.3,22.2,3,-152.090,-18.0,100.0,24.4,25.4,21.2,28.9,0,1,0.0,0.00,0.00,0.00,0.00,3122,5195,2131,2825,317.3,311.4,350.0,347.3,26.40,23.35,26.70,25.17,325.0,325.0,355.0,355.0,100.00,99.85,100.00,99.94,1.27,1.38,0.56,0.78,-12.3,-7.9,-4.8,-3.2,91.0,71.9,86.6,77.1,95.6,72.8,89.3,78.4,92.2,69.7,87.7,76.1,88.7,67.7,86.4,74.8,-0.98,0.99,0.10,0.07,0.00,119.90,127.47,121.05,122.96,88.0,25.5,1.6003437130816618,155.20383738380062,44.65261214582725,-108.03051322850024,-18.00508553808335
1.850,91.1,44.053835352606477,-78.681748313541590,-53.8,10.6,-21.1,-92.8,5120.7,5121,160.7,1,1,1,0,1,1,0,0,0,100,1,1.186,26.0,0.0,0.054,47.643,66.0,100.0,26.0,26.0,26.0,26.0,0.34,-1.46,-0.36,389.5,-2.41,-2.36,-1.29,-0.70,-716.37,602.38,5.8,0.00,0.00,0.00,0.00,0.05,-7.49,-7.49,-0.79,-5.82,0.22,-0.04,44.59,0.48,-0.89,-6.09,100.0,0,0,118.19,0,0,0.0,0,0,0,0,6305,0,30.00,4,160.7,1,0,0.0,0.0,0.0,0.0,1,0,1.866,1.866,47.643,17.721,1,110.00,435.8,8750,0.0,0.0,110.0,110.0,433.0,0.00,0,0,1,166.7,66.7,66.7,86.4,86.4,34.0,-1.21,2.32,2.2,5.3,3,-152.130,-21.5,100.0,21.8,25.9,20.1,24.3,0,1,0.0,0.00,0.00,0.00,0.00,3682,6401,1251,1595,316.9,308.3,351.8,350.8,26.39,23.35,26.70,25.17,325.0,325.0,355.0,355.0,100.00,99.85,100.00,99.94,1.54,1.68,0.68,0.87,-10.2,-9.0,-5.1,-5.5,91.0,71.9,86.6,77.0,95.7,73.0,89.3,78.4,92.2,69.8,87.6,76.1,88.7,67.9,86.3,74.8,-1.21,1.19,0.10,0.08,0.00,125.75,124.42,118.19,118.19,88.0,25.5,1.5416873872481411,152.32302370339752,44.65261214582725,-14.40406854427124,10.803051550459557
1.900,93.3,44.053815927259791,-78.681742557883311,168.4,165.3,-122.7,-57.4,5122.9,5123,157.5,1,1,1,0,1,1,0,0,0,100,1,1.186,26.0,0.0,0.057,47.643,66.0,100.0,26.0,26.0,26.0,26.0,0.60,-1.89,0.04,383.9,-2.56,-2.59,-1.83,-0.88,-715.73,600.22,5.8,0.00,0.00,0.00,0.00,0.06,-7.49,-7.49,-0.91,1.57,0.31,2.72,43.67,0.53,-0.95,-10.40,100.0,0,0,112.06,0,0,0.0,0,0,0,0,5978,0,30.00,4,157.5,0,0,0.0,0.0,0.0,0.0,1,0,1.917,1.917,47.643,17.721,0,110.00,435.8,8750,0.0,0.0,110.0,110.0,433.0,0.00,0,0,1,333.3,50.6,50.6,93.4,93.4,34.0,23.40,49.08,-0.1,12.0,3,-152.190,-22.1,100.0,30.2,34.2,14.0,21.4,0,1,0.0,0.00,0.00,0.00,0.00,6660,8746,603,2165,309.1,301.9,353.3,349.4,26.40,23.35,26.70,25.17,325.0,325.0,355.0,355.0,100.00,99.85,100.00,99.94,1.51,1.73,0.87,1.07,-6.2,-6.4,-12.3,-4.7,91.0,71.9,86.6,77.0,95.7,73.2,89.2,78.4,92.3,70.0,87.6,76.1,88.8,68.0,86.3,74.8,-1.25,1.28,0.11,0.09,0.00,125.72,126.84,106.67,117.45,88.0,25.5,1.9833557421703247,153.7634305293735,45.732917300873204,-68.41932515852108,0.0
1.950,95.5,44.053796951573908,-78.681736892157190,-29.1,82.6,153.9,147.8,5125.0,5125,154.0,0,1,1,0,1,1,0,0,0,100,1,1.186,26.0,0.0,0.060,47.643,66.0,100.0,26.0,26.0,26.0,26.0,0.70,-1.77,0.13,380.2,-2.61,-3.05,-1.55,-0.81,-715.10,598.11,5.8,0.00,0.00,0.00,0.00,0.06,-7.49,-7.49,-0.64,4.65,0.35,-0.17,42.71,0.65,-0.82,-13.51,100.0,0,0,114.36,0,0,0.0,0,0,0,0,6100,0,30.00,4,154.0,1,0,0.0,0.0,0.0,0.0,1,0,1.968,1.968,47.643,17.721,1,110.00,435.8,8750,0.0,0.0,110.0,110.0,433.0,0.00,0,0,1,333.3,56.0,56.0,78.9,78.9,34.0,8.33,39.05,4.2,51.4,3,-152.240,-20.7,100.0,28.7,38.3,21.7,28.8,0,1,0.0,0.00,0.00,0.00,0.00,3821,6362,2405,4391,315.4,307.8,349.3,343.8,26.40,23.35,26.70,25.17,325.0,325.0,355.0,355.0,100.00,99.86,100.00,99.94,1.58,1.70,1.15,1.41,-6.9,-6.0,-6.8,-3.1,91.0,71.9,86.6,77.0,95.8,73.3,89.2,78.4,92.3,70.1,87.6,76.1,88.8,68.2,86.3,74.8,-1.20,1.22,0.10,0.07,0.00,120.33,123.34,111.74,116.99,88.0,25.5,1.9078259878720596,145.48109118754542,44.65261214582725,-115.23254721612432,-7.202034556647519
2.000,97.6,44.053779594666914,-78.681731406295398,-210.0,-139.7,49.2,140.3,5127.1,5127,151.3,1,1,1,0,1,1,0,0,0,100,1,1.186,26.0,0.0,0.063,47.643,66.0,100.0,26.0,26.0,26.0,26.0,0.60,-1.55,-0.15,383.4,-3.63,-2.68,-1.57,-0.95,-714.49,596.18,5.9,0.00,0.00,0.00,0.00,0.06,-7.49,-7.49,-0.60,-2.55,0.20,-9.09,41.95,0.74,-0.76,-7.76,100.0,0,0,113.30,0,0,0.0,0,0,0,0,6044,0,30.00,4,151.3,0,0,0.0,0.0,0.0,0.0,1,0,2.016,2.016,47.643,17.721,0,110.00,435.8,8750,0.0,0.0,110.0,110.0,433.0,0.00,0,0,1,333.3,66.5,66.5,74.2,74.2,34.0,-0.93,-5.51,6.9,54.4,3,-152.290,-20.3,100.0,18.2,31.4,24.1,35.8,0,1,0.0,0.00,0.00,0.00,0.00,2355,6721,1752,4270,319.3,306.5,350.8,344.0,26.40,23.35,26.70,25.17,325.0,325.0,355.0,355.0,100.00,99.86,100.00,99.94,1.96,2.01,1.25,1.42,-13.4,-10.1,-4.8,-2.7,91.0,71.9,86.6,77.0,95.8,73.5,89.2,78.4,92.3,70.2,87.6,76.1,88.8,68.3,86.2,74.8,-1.19,1.18,0.09,0.06,0.00,113.49,115.96,111.60,115.00,88.0,25.5,1.6688319268278637,142.24017580776106,45.01271384520845,-14.404068259759981,14.404068544271453
2.050,99.6,44.053761428370471,-78.681725650637119,61.6,-65.9,-69.1,-219.8,5129.2,5129,148.5,1,1,1,0,1,1,0,0,0,100,1,1.186,26.0,0.0,0.063,47.643,66.0,100.0,26.0,26.0,26.0,26.0,0.41,-1.55,-0.35,388.0,-3.13,-2.64,-2.03,-1.06,-713.85,594.16,5.9,0.00,0.00,0.00,0.00,0.06,-7.49,-7.49,-0.83,-3.94,-0.28,-6.00,41.20,0.74,-0.80,-7.13,100.0,0,0,108.46,0,0,0.0,0,0,0,0,5785,0,30.00,4,148.5,1,0,0.0,0.0,0.0,0.0,1,0,2.067,2.067,47.643,17.721,1,110.00,435.8,8750,0.0,0.0,110.0,110.0,433.0,0.00,0,0,1,333.3,65.4,65.4,88.8,88.8,34.0,-1.35,-4.90,0.9,17.4,3,-152.340,-21.6,100.0,21.3,28.1,20.7,24.8,0,1,0.0,0.00,0.00,0.00,0.00,4988,4956,979,2786,313.1,311.6,353.0,347.8,26.40,23.35,26.70,25.17,325.0,325.0,355.0,355.0,100.00,99.86,100.00,99.94,2.00,2.09,1.24,1.38,-9.7,-12.3,-7.2,-5.0,91.0,71.9,86.6,77.0,95.9,73.6,89.2,78.4,92.4,70.4,87.5,76.1,88.9,68.4,86.2,74.8,-1.24,1.22,0.10,0.08,0.00,117.98,110.14,106.49,110.42,88.0,25.5,1.6410667262485095,144.04068436156942,46.093019000254394,-54.01525689876223,0.0
2.100,101.6,44.053743621802674,-78.681719894978841,151.5,81.8,-110.6,-41.5,5131.2,5131,145.4,0,1,1,0,1,1,0,0,0,100,1,1.186,26.0,0.0,0.069,47.643,66.0,100.0,26.0,26.0,26.0,26.0,0.55,-1.70,-0.00,385.7,-3.11,-4.11,-1.58,-1.79,-713.21,592.18,5.9,0.00,0.00,0.00,0.00,0.06,-7.49,-7.49,-0.92,0.82,-0.31,1.57,40.31,0.78,-0.83,-11.01,100.0,0,0,104.00,0,0,0.0,0,0,0,0,5548,0,30.00,4,145.4,0,0,0.0,0.0,0.0,0.0,1,0,2.118,2.118,47.643,17.721,0,110.00,435.8,8750,0.0,0.0,110.0,110.0,433.0,0.00,0,0,1,166.7,58.0,58.0,91.4,91.4,34.0,-0.03,-6.06,-0.7,16.9,3,-152.390,-23.6,100.0,28.9,32.2,15.1,22.8,0,1,0.0,0.00,0.00,0.00,0.00,4585,5867,1984,2469,313.1,308.9,350.2,348.8,26.40,23.35,26.70,25.16,325.0,325.0,355.0,355.0,100.00,99.86,100.00,99.94,2.05,2.09,1.31,1.53,-9.2,-10.2,-11.4,-4.9,91.0,71.9,86.6,77.0,96.0,73.8,89.1,78.4,92.5,70.6,87.5,76.1,88.9,68.6,86.2,74.8,-1.35,1.36,0.12,0.08,0.00,111.08,111.04,100.05,107.95,88.0,25.5,1.7867568385205637,136.83865011788484,45.01271384520845,-64.81830816470989,3.6010169938118963
2.150,103.6,44.053727254149450,-78.681714409117049,-136.0,-70.6,70.1,39.9,5133.2,5133,142.5,0,1,1,0,1,1,0,0,0,100,1,1.186,26.0,0.0,0.072,47.643,66.0,100.0,26.0,26.0,26.0,26.0,0.67,-1.50,-0.15,387.1,-2.00,-3.05,-1.73,-1.90,-712.60,590.36,5.9,0.00,0.00,0.00,0.00,0.06,-7.49,-7.49,-0.92,-2.15,0.01,8.02,39.52,0.91,-0.76,-10.47,100.0,0,0,104.41,0,0,0.0,0,0,0,0,5570,0,30.00,4,142.5,1,0,0.0,0.0,0.0,0.0,1,0,2.166,2.166,47.643,17.721,1,110.00,435.8,8750,0.0,0.0,110.0,110.0,433.0,0.00,0,0,1,333.3,67.8,67.8,84.8,84.8,34.0,-1.62,30.48,0.7,67.0,3,-152.440,-24.5,100.0,22.1,28.6,18.7,24.7,0,1,0.0,0.00,0.00,0.00,0.00,2409,5355,1779,5311,319.2,310.9,350.4,341.5,26.40,23.35,26.70,25.16,325.0,325.0,355.0,355.0,100.00,99.86,100.00,99.94,2.29,2.33,1.47,1.73,-10.5,-5.9,-8.7,-3.7,91.0,71.9,86.6,77.0,96.0,74.0,89.2,78.4,92.5,70.7,87.5,76.1,89.0,68.7,86.2,74.8,-1.43,1.41,0.11,0.08,0.00,105.56,113.14,100.66,108.17,88.0,25.5,1.6496666329898293,137.55885354509843,46.45312069963558,-25.20711952570707,10.803051550459415
2.200,105.6,44.053709267717331,-78.681708293730125,29.5,50.2,-64.6,25.2,5135.1,5135,139.6,1,1,1,0,1,1,0,0,0,100,1,1.186,26.0,0.0,0.075,47.643,66.0,97.2,26.0,26.0,26.0,26.0,0.65,-1.53,-0.08,386.2,-3.59,-2.46,-1.77,-0.47,-711.92,588.36,5.9,0.00,0.00,0.00,0.00,0.06,-7.49,-7.49,-1.13,-2.12,0.15,1.04,38.71,0.88,-0.85,-9.19,100.0,0,0,99.01,0,0,0.0,0,0,0,0,5281,0,30.00,4,139.6,0,0,0.0,0.0,0.0,0.0,1,0,2.220,2.220,47.643,17.721,0,110.00,435.8,8750,0.0,0.0,110.0,110.0,433.0,0.00,0,0,1,166.7,60.2,60.2,90.7,90.7,34.0,6.87,-6.12,-0.0,30.1,3,-152.490,-24.1,100.0,23.5,31.1,15.4,26.0,0,1,0.0,0.00,0.00,0.00,0.00,4144,7545,95,3416,314.8,304.8,354.7,346.7,26.40,23.35,26.70,25.16,325.0,325.0,355.0,355.0,100.00,99.86,100.00,99.94,2.30,2.45,1.56,1.71,-7.5,-9.6,-14.3,-4.2,91.0,71.9,86.6,77.0,96.0,74.1,89.1,78.4,92.5,70.9,87.5,76.1,89.0,68.9,86.2,74.8,-1.40,1.40,0.10,0.08,0.00,108.15,108.03,93.22,104.79,88.0,25.5,1.6642716124479202,134.31793816531413,46.093019000254394,-140.43966702634307,-28.808137088542836
2.250,107.5,44.053693709453547,-78.681702897800491,96.4,188.3,-136.7,-36.4,5137.0,5137,136.7,1,1,1,0,1,1,0,0,0,100,1,1.186,26.0,0.0,0.078,47.643,66.0,92.7,26.0,26.0,26.0,26.0,0.95,-1.65,0.21,383.1,-3.20,-1.66,-1.53,-1.98,-711.32,586.63,5.9,0.00,0.00,0.00,0.00,0.06,-7.49,-7.49,-1.00,7.26,0.06,-5.13,37.91,0.85,-0.79,-12.74,100.0,0,0,98.66,0,0,0.0,0,0,0,0,5262,0,30.00,4,136.7,1,0,0.0,0.0,0.0,0.0,1,0,2.268,2.268,47.643,17.721,1,110.00,435.8,8750,0.0,0.0,110.0,110.0,433.0,0.00,0,0,1,333.3,52.2,52.2,88.6,88.6,34.0,-2.10,98.08,-0.8,33.6,3,-152.540,-22.8,100.0,28.4,40.5,8.6,24.2,0,1,0.0,0.00,0.00,0.00,0.00,3757,8180,2028,3513,315.9,302.0,351.1,345.5,26.40,23.35,26.70,25.16,325.0,325.0,355.0,355.0,100.00,99.86,100.00,99.94,2.14,2.30,1.60,1.86,-12.5,-4.3,-12.0,-4.4,91.0,71.9,86.6,77.0,96.1,74.3,89.1,78.4,92.6,71.0,87.4,76.1,89.1,69.0,86.1,74.8,-1.32,1.35,0.13,0.09,0.00,100.55,112.09,95.07,102.24,88.0,25.5,1.9154894935759892,123.51488684246412,43.5723069907813,-104.42949623468834,-3.6010169938118963
2.300,109.3,44.053678420986245,-78.681697411938700,-61.5,-25.5,261.4,86.7,5138.9,5139,133.7,0,1,1,0,1,1,0,0,0,100,1,1.186,26.0,0.0,0.081,47.643,66.0,92.7,26.0,26.0,26.0,26.0,1.02,-1.69,0.11,378.9,-3.65,-1.75,-2.52,-1.28,-710.71,584.93,5.9,0.00,0.00,0.00,0.00,0.07,-7.49,-7.49,-0.66,5.58,-0.12,-3.09,37.07,0.84,-0.63,-13.75,100.0,0,0,101.22,0,0,0.0,0,0,0,0,5399,0,30.00,4,133.7,0,0,0.0,0.0,0.0,0.0,0,0,2.316,2.316,47.643,17.721,0,110.00,435.8,8750,0.0,0.0,110.0,110.0,433.0,0.00,0,0,1,333.3,56.9,56.9,71.7,71.7,34.0,-2.06,60.32,30.5,68.4,3,-152.590,-22.3,100.0,25.3,39.3,21.7,28.5,0,1,0.0,0.00,0.00,0.00,0.00,3762,6909,4073,4897,316.1,306.1,345.7,342.6,26.40,23.35,26.70,25.16,325.0,325.0,355.0,355.0,100.00,99.86,100.00,99.94,2.05,2.14,1.70,1.95,-11.4,-5.1,-3.9,-3.1,91.0,72.0,86.6,77.0,96.2,74.4,89.1,78.4,92.7,71.1,87.4,76.1,89.1,69.1,86.1,74.8,-1.29,1.30,0.09,0.08,0.00,99.51,108.35,100.71,101.72,88.0,25.5,1.977017956418201,123.8749885418453,45.732917300873204,43.21220506379049,57.61627417708574
2.350,111.1,44.053662772790304,-78.681691476416091,5.6,-1.5,65.4,213.4,5140.7,5141,130.6,0,1,1,0,1,1,0,0,0,100,1,1.186,26.0,0.0,0.084,47.643,66.0,90.9,26.0,26.0,26.0,26.0,1.14,-1.90,0.42,374.1,-3.02,-2.81,-1.04,-0.76,-710.05,583.19,5.9,0.00,0.00,0.00,0.00,0.07,-7.49,-7.49,-0.49,2.32,-0.22,-3.79,36.23,0.70,-0.67,-12.04,100.0,0,0,99.03,0,0,0.0,0,0,0,0,5283,0,30.00,4,130.6,1,0,0.0,0.0,0.0,0.0,0,0,2.367,2.367,47.643,17.721,1,110.00,435.8,8750,0.0,0.0,110.0,110.0,433.0,0.00,0,0,1,333.3,51.4,51.4,71.4,71.4,34.0,3.18,122.71,16.5,74.4,3,-152.640,-22.5,100.0,25.6,39.2,24.9,39.2,0,1,0.0,0.00,0.00,0.00,0.00,5102,9084,2133,4848,312.2,299.9,349.5,342.2,26.40,23.35,26.70,25.16,325.0,325.0,355.0,355.0,100.00,99.86,100.00,99.94,1.95,2.07,1.51,1.67,-8.5,-3.9,-3.5,-2.2,91.0,72.0,86.6,77.0,96.3,74.5,89.0,78.5,92.7,71.2,87.4,76.1,89.2,69.2,86.1,74.8,-1.29,1.31,0.09,0.05,0.00,101.33,107.79,97.73,100.33,88.0,25.5,2.2552161758909053,127.83610734884317,49.333934408489874,-25.20711981021904,25.207119525707142
2.400,112.9,44.053646495069238,-78.681685091232694,-64.2,-104.5,-11.7,-77.1,5142.4,5142,127.8,0,1,1,0,1,1,0,0,0,100,1,1.186,26.0,0.0,0.090,47.643,66.0,86.5,26.0,26.0,26.0,26.0,0.79,-1.52,0.06,381.4,-3.22,-2.46,-1.55,-1.32,-709.34,581.38,5.9,0.00,0.00,0.00,0.00,0.07,-7.49,-7.49,-0.40,0.38,-0.61,-6.67,35.43,0.63,-0.64,-11.01,100.0,0,0,96.94,0,0,0.0,0,0,0,0,5171,0,30.00,4,127.8,0,0,0.0,0.0,0.0,0.0,0,0,2.421,2.421,47.643,17.721,0,110.00,435.8,8750,0.0,0.0,110.0,110.0,433.0,0.00,0,0,1,166.7,63.2,63.2,74.8,74.8,34.0,-0.91,24.80,27.6,47.9,3,-152.690,-24.3,100.0,22.4,34.0,24.3,35.3,0,1,0.0,0.00,0.00,0.00,0.00,3445,5332,2932,3824,316.3,310.3,347.7,345.4,26.40,23.36,26.69,25.16,325.0,325.0,355.0,355.0,100.00,99.86,100.00,99.94,2.01,2.03,1.44,1.61,-9.6,-6.5,-2.4,-3.0,91.0,72.0,86.6,77.0,96.3,74.6,89.0,78.5,92.8,71.3,87.3,76.1,89.2,69.3,86.0,74.8,-1.39,1.37,0.10,0.07,0.00,101.08,101.68,96.66,97.22,88.0,25.5,1.7140886791528611,121.3542765608234,48.25362925344392,-165.64678683656226,-39.61118863900232
2.450,114.6,44.053632465652186,-78.681679425506573,-79.1,-228.0,-30.2,-38.7,5144.2,5144,125.6,1,1,1,0,1,1,0,0,0,100,1,1.186,26.0,0.0,0.093,47.643,66.0,85.7,26.0,26.0,26.0,26.0,0.52,-1.10,-0.39,389.5,-2.35,-2.46,-2.03,-0.90,-708.71,579.82,6.0,0.00,0.00,0.00,0.00,0.07,-7.49,-7.49,-0.56,-6.36,-0.79,-3.09,34.85,0.59,-0.65,-6.58,100.0,0,0,93.67,0,0,0.0,0,0,0,0,4996,0,30.00,4,125.6,1,0,0.0,0.0,0.0,0.0,0,0,2.469,2.469,47.643,17.721,1,110.00,435.8,8750,0.0,0.0,110.0,110.0,433.0,0.00,0,0,1,166.7,74.7,74.7,87.1,87.1,34.0,-1.06,-3.76,1.1,47.7,3,-152.740,-29.2,100.0,18.4,22.6,22.8,33.4,0,1,0.0,0.00,0.00,0.00,0.00,2178,3831,577,3665,319.8,314.7,353.5,345.4,26.39,23.35,26.69,25.16,325.0,325.0,355.0,355.0,100.00,99.86,100.00,99.94,2.33,2.38,1.21,1.35,-14.8,-10.1,-5.6,-2.2,91.0,72.0,86.6,77.0,96.3,74.7,89.0,78.5,92.8,71.4,87.3,76.1,89.2,69.4,86.0,74.8,-1.66,1.62,0.09,0.07,0.00,88.72,95.23,91.28,96.05,88.0,25.5,1.2776932339180638,111.27142866518695,45.37281554458964,-93.626444684229,-14.404068544271311
2.500,116.4,44.053618706031614,-78.681673759780466,66.2,90.6,-101.7,-207.8,5145.9,5146,123.1,1,1,1,0,1,1,0,0,0,100,1,1.186,26.0,0.0,0.096,47.643,66.0,85.7,26.0,26.0,26.0,26.0,0.52,-1.39,-0.17,389.7,-2.21,-2.65,-1.78,-1.02,-708.08,578.29,6.0,0.00,0.00,0.00,0.00,0.07,-7.49,-7.49,-0.87,-4.64,-0.97,-1.71,34.15,0.53,-0.75,-8.87,100.0,0,0,90.07,0,0,0.0,0,0,0,0,4804,0,30.00,4,123.1,0,0,0.0,0.0,0.0,0.0,0,0,2.517,2.517,47.643,17.721,0,110.00,435.8,8750,0.0,0.0,110.0,110.0,433.0,0.00,0,0,1,166.7,63.9,63.9,90.4,90.4,34.0,-3.80,-5.43,1.6,2.6,3,-152.790,-36.0,100.0,21.7,27.1,17.7,23.0,0,1,0.0,0.00,0.00,0.00,0.00,4759,6513,674,817,313.6,307.6,353.2,352.8,26.39,23.36,26.69,25.16,325.0,325.0,355.0,355.0,100.00,99.86,100.00,99.94,2.53,2.65,1.17,1.29,-12.2,-9.4,-5.2,-5.8,91.0,72.0,86.6,77.0,96.3,74.9,88.9,78.4,92.8,71.5,87.3,76.1,89.2,69.5,86.0,74.8,-2.04,2.00,0.10,0.09,0.00,91.36,95.43,90.07,90.07,88.0,25.5,1.4937871334296597,111.9916320924005,46.81322239901679,-18.00508553808342,18.005086107107076
2.550,118.0,44.053604496750239,-78.681667734325700,17.5,40.8,-138.6,-127.5,5147.6,5148,120.6,1,1,1,0,1,1,0,0,0,100,1,1.186,26.0,0.0,0.096,47.643,66.0,78.1,26.0,26.0,26.0,26.0,0.60,-1.51,-0.30,391.2,-3.09,-1.69,-1.23,-1.06,-707.41,576.71,6.0,0.00,0.00,0.00,0.00,0.07,-7.49,-7.49,-0.87,1.97,-0.90,1.19,33.45,0.60,-0.62,-13.89,100.0,0,0,86.84,0,0,0.0,0,0,0,0,4632,0,30.00,4,120.6,1,0,0.0,0.0,0.0,0.0,0,0,2.568,2.568,47.643,17.721,1,110.00,435.8,8750,0.0,0.0,110.0,110.0,433.0,0.00,0,0,1,333.3,66.5,66.5,92.9,92.9,34.0,-0.56,3.09,-0.7,22.5,3,-152.840,-39.6,100.0,22.6,29.1,10.8,16.6,0,1,0.0,0.00,0.00,0.00,0.00,2876,5300,1889,4040,317.8,311.1,350.7,345.1,26.39,23.36,26.69,25.16,325.0,325.0,355.0,355.0,100.00,99.86,100.00,99.94,2.71,2.75,1.43,1.72,-9.0,-8.2,-11.6,-5.9,91.0,72.0,86.6,77.0,96.4,75.0,88.9,78.4,92.8,71.6,87.2,76.1,89.3,69.6,85.9,74.8,-2.30,2.25,0.13,0.11,0.00,91.84,94.83,83.93,89.75,88.0,25.5,1.6523014252853503,109.4709201113786,47.17332415530035,-50.41423962043808,3.6010169938118963
2.600,119.7,44.053591366654793,-78.681661978667421,-20.3,-29.7,102.5,214.0,5149.2,5149,118.1,0,1,1,0,1,1,0,0,0,100,1,1.186,26.0,0.0,0.102,47.643,66.0,71.0,26.0,26.0,26.0,26.0,0.99,-1.54,0.01,385.7,-2.71,-2.93,-1.29,-1.27,-706.77,575.25,6.0,0.00,0.00,0.00,0.00,0.07,-7.49,-7.49,-0.90,-2.42,-0.83,3.07,32.74,0.60,-0.60,-13.22,100.0,0,0,89.65,0,0,0.0,0,0,0,0,4782,0,30.00,4,118.1,0,0,0.0,0.0,0.0,0.0,0,0,2.616,2.616,47.643,17.721,0,110.00,435.8,8750,0.0,0.0,110.0,110.0,433.0,0.00,0,0,1,333.3,65.2,65.2,86.7,86.7,34.0,6.60,12.94,19.7,70.9,3,-152.890,-39.6,100.0,21.6,27.7,15.9,27.3,0,1,0.0,0.00,0.00,0.00,0.00,4214,5677,2753,4528,314.9,309.4,348.3,343.1,26.39,23.36,26.69,25.16,325.0,325.0,355.0,355.0,100.00,99.86,100.00,99.94,2.73,2.76,1.43,1.70,-7.4,-7.2,-3.7,-2.1,91.0,72.0,86.6,77.0,96.4,75.1,88.9,78.4,92.9,71.7,87.2,76.1,89.3,69.7,85.9,74.8,-2.32,2.27,0.10,0.07,0.00,92.41,94.09,88.80,90.50,88.0,25.5,1.8307921782660097,106.95020813035669,47.17332409839798,-21.606102816407287,18.005084969059695
2.650,121.3,44.053577786898543,-78.681655953212669,75.1,41.1,-84.2,26.9,5150.8,5151,115.8,0,1,1,0,1,1,0,0,0,100,1,1.186,26.0,0.0,0.108,47.643,66.0,54.6,26.0,26.0,26.0,26.0,1.08,-1.09,0.06,385.4,-3.23,-2.00,-2.52,-0.81,-706.10,573.74,6.0,0.00,0.00,0.00,0.00,0.07,-7.49,-7.49,-1.00,0.97,-0.44,9.84,32.12,0.57,-0.65,-19.53,100.0,0,0,86.10,0,0,0.0,0,0,0,0,4593,0,30.00,4,115.8,1,0,0.0,0.0,0.0,0.0,0,0,2.667,2.667,47.643,17.721,1,110.00,435.8,8750,0.0,0.0,110.0,110.0,433.0,0.00,0,0,1,333.3,59.3,59.3,96.8,96.8,34.0,55.74,103.12,0.3,57.9,3,-152.940,-37.7,100.0,25.3,29.7,11.7,28.7,0,1,0.0,0.00,0.00,0.00,0.00,5201,6911,409,3783,312.4,306.3,354.0,345.3,26.39,23.36,26.69,25.16,325.0,325.0,355.0,355.0,100.00,99.86,100.00,99.94,2.25,2.37,1.58,1.75,-3.1,-3.0,-7.5,-1.6,91.0,72.0,86.6,77.0,96.4,75.1,88.8,78.4,92.9,71.8,87.2,76.1,89.3,69.8,85.8,74.8,-2.21,2.17,0.12,0.07,0.00,95.23,96.97,82.47,89.73,88.0,25.5,1.5356106277308712,107.31030982973788,48.97383265220632,-50.414239620438224,18.005086107107147
2.700,122.9,44.053564566870939,-78.681649747893587,-126.0,31.9,-33.1,59.6,5152.4,5152,114.1,0,1,1,0,1,1,0,0,0,100,1,1.186,26.0,0.0,0.111,47.643,66.0,32.9,26.0,26.0,26.0,26.0,1.04,-0.92,-0.11,387.1,-3.60,-2.37,-2.40,-0.43,-705.41,572.27,6.0,0.00,0.00,0.00,0.00,0.07,-7.49,-7.49,-0.82,4.04,-0.03,3.15,31.66,0.67,-0.55,-23.89,100.0,0,0,85.50,0,0,0.0,0,0,0,0,4561,0,30.00,4,114.1,0,0,0.0,0.0,0.0,0.0,0,0,2.718,2.718,47.643,17.721,0,110.00,435.8,8750,0.0,0.0,110.0,110.0,433.0,0.00,0,0,1,333.3,66.7,66.7,88.1,88.1,34.0,11.84,113.14,1.9,87.5,3,-152.990,-33.6,100.0,19.0,31.3,10.1,31.7,0,1,0.0,0.00,0.00,0.00,0.00,2081,6376,1627,5078,319.8,307.8,351.1,342.4,26.39,23.36,26.69,25.16,325.0,325.0,355.0,355.0,100.00,99.86,100.00,99.94,2.10,2.12,2.02,2.19,-4.4,-1.7,-7.7,-1.5,91.0,72.0,86.6,77.0,96.4,75.2,88.8,78.4,92.8,71.8,87.1,76.1,89.3,69.8,85.8,74.8,-1.99,1.95,0.12,0.08,0.00,92.37,96.81,82.15,88.84,88.0,25.5,1.392874725163753,101.90878416831286,48.97383270910869,-68.41932487400967,10.803051550459486
2.750,124.4,44.053552336097098,-78.681643722438821,-145.6,-64.1,195.6,68.7,5154.0,5154,113.0,0,1,1,0,1,1,0,0,0,100,1,1.186,26.0,0.0,0.114,47.643,66.0,13.7,26.0,26.0,26.0,26.0,1.12,-0.38,-0.10,387.4,-3.36,-1.88,-3.53,-1.84,-704.74,570.91,6.0,0.00,0.00,0.00,0.00,0.07,-7.49,-7.49,-0.70,-0.09,-0.07,-3.78,31.38,0.75,-0.45,-21.04,100.0,0,0,87.71,0,0,0.0,0,0,0,0,4679,0,30.00,4,113.0,1,0,0.0,0.0,0.0,0.0,0,0,2.766,2.766,47.643,17.721,1,110.00,435.8,8750,0.0,0.0,110.0,110.0,433.0,0.00,0,0,1,333.3,76.4,76.4,73.2,73.2,34.0,0.27,86.95,38.1,89.5,3,-153.040,-32.6,100.0,11.8,28.1,19.9,35.1,0,1,0.0,0.00,0.00,0.00,0.00,387,4948,3014,4789,324.0,311.4,347.5,342.2,26.39,23.36,26.69,25.16,325.0,325.0,355.0,355.0,100.00,99.86,100.00,99.94,2.36,2.29,2.20,2.41,-7.6,-0.9,-0.4,-0.6,91.0,72.0,86.6,77.0,96.3,75.2,88.7,78.4,92.8,71.9,87.1,76.1,89.2,69.8,85.8,74.8,-1.91,1.85,0.11,0.06,0.00,88.03,96.38,86.92,88.51,88.0,25.5,1.1869288099966233,100.46837734233691,50.05413780725227,3.601017278323866,36.01017050714297
