Time,Distance,GPS Latitude,GPS Longitude,Damper Velocity (Calc) FL,Damper Velocity (Calc) FR,Damper Velocity (Calc) RL,Damper Velocity (Calc) RR,Corr Dist,Corr Dist (Unstretched),Corr Speed,ABS Active,ABS Enabled,AID Allow Tire Blankets,AID Auto Blip,AID Auto Clutch,AID Auto Shift,AID Fuel Rate,AID Ideal Line,AID Mech Damage,AID Stability,AID Tire Wear Rate,Air Density,Air Temp,Ballast,Best Lap Delta,Best Lap Time,Brake Bias,Brake Pos,Brake Temp FL,Brake Temp FR,Brake Temp RL,Brake Temp RR,CG Accel Lateral,CG Accel Longitudinal,CG Accel Vertical,CG Height,Camber FL,Camber FR,Camber RL,Camber RR,Car Coord X,Car Coord Y,Car Coord Z,Car Damage Front,Car Damage Left,Car Damage Rear,Car Damage Right,Car Pos Norm,Caster FL,Caster FR,Chassis Pitch Angle,Chassis Pitch Rate,Chassis Roll Angle,Chassis Roll Rate,Chassis Velocity X,Chassis Velocity Y,Chassis Velocity Z,Chassis Yaw Rate,Clutch Pos,DRS Active,DRS Available,Drive Train Speed,ERS Heat Charging,ERS Is Charging,ERS Max Energy,ERS Power Level,ERS Recovery Level,Engine Brake Setting,Engine Limiter,Engine RPM,Flags,Fuel Level,Gear,Ground Speed,HR Sample Clock,In Pit,KERS Charge,KERS Deployed Energy,KERS Input,KERS Max Energy,LR Sample Clock,Lap Invalidated,Lap Time,Lap Time2,Last Lap Time,Last Sector Time,MR Sample Clock,Max Fuel,Max Power,Max RPM,Max Sus Travel FL,Max Sus Travel FR,Max Sus Travel RL,Max Sus Travel RR,Max Torque,Max Turbo Boost,Num Tires Off Track,Penalties Enabled,Position,Raw Data Sample Rate,Ride Height FL,Ride Height FR,Ride Height RL,Ride Height RR,Road Temp,Self Align Torque FL,Self Align Torque FR,Self Align Torque RL,Self Align Torque RR,Session Lap Count,Session Time Left,Steering Angle,Surface Grip,Suspension Travel FL,Suspension Travel FR,Suspension Travel RL,Suspension Travel RR,TC Active,TC Enabled,Throttle Pos,Tire Dirt Level FL,Tire Dirt Level FR,Tire Dirt Level RL,Tire Dirt Level RR,Tire Load FL,Tire Load FR,Tire Load RL,Tire Load RR,Tire Loaded Radius FL,Tire Loaded Radius FR,Tire Loaded Radius RL,Tire Loaded Radius RR,Tire Pressure FL,Tire Pressure FR,Tire Pressure RL,Tire Pressure RR,Tire Radius FL,Tire Radius FR,Tire Radius RL,Tire Radius RR,Tire Rubber Grip FL,Tire Rubber Grip FR,Tire Rubber Grip RL,Tire Rubber Grip RR,Tire Slip Angle FL,Tire Slip Angle FR,Tire Slip Angle RL,Tire Slip Angle RR,Tire Slip Ratio FL,Tire Slip Ratio FR,Tire Slip Ratio RL,Tire Slip Ratio RR,Tire Temp Core FL,Tire Temp Core FR,Tire Temp Core RL,Tire Temp Core RR,Tire Temp Inner FL,Tire Temp Inner FR,Tire Temp Inner RL,Tire Temp Inner RR,Tire Temp Middle FL,Tire Temp Middle FR,Tire Temp Middle RL,Tire Temp Middle RR,Tire Temp Outer FL,Tire Temp Outer FR,Tire Temp Outer RL,Tire Temp Outer RR,Toe In FL,Toe In FR,Toe In RL,Toe In RR,Turbo Boost,Wheel Angular Speed FL,Wheel Angular Speed FR,Wheel Angular Speed RL,Wheel Angular Speed RR,Wind Direction,Wind Speed,CG Distance,Lateral Velocity,Longitudinal Velocity,Lateral Acceleration,Longitudinal Acceleration
s,m,deg,deg,mm/s,mm/s,mm/s,mm/s,m,m,km/h,,,,,,,,,%,%,,kg/m3,C,kg,s,s,%,%,C,C,C,C,G,G,G,mm,deg,deg,deg,deg,m,m,m,,,,,,deg,deg,deg,deg/s,deg,deg/s,m/s,m/s,m/s,deg/s,%,,,rad/s,,,MJ,,,,,rpm,,l,,km/h,,,%,kJ,%,MJ,,,s,s,s,s,,l,hp,rpm,mm,mm,mm,mm,N.m,,,,,Hz,mm,mm,mm,mm,C,N.m,N.m,N.m,N.m,,s,deg,%,mm,mm,mm,mm,,,%,,,,,N,N,N,N,mm,mm,mm,mm,psi,psi,psi,psi,mm,mm,mm,mm,%,%,%,%,deg,deg,deg,deg,%,%,%,%,C,C,C,C,C,C,C,C,C,C,C,C,C,C,C,C,deg,deg,deg,deg,,rad/s,rad/s,rad/s,rad/s,deg,km/h,G,Km/h,Km/h,Km/h^2,Km/h^2
0.000,0.0,44.054628104602095,-78.681959833983299,-67.9,-34.2,146.4,-55.8,11907.1,11907,167.0,0,1,1,0,1,1,0,0,0,100,1,1.186,26.0,0.0,0.000,48.179,66.0,0.0,26.0,26.0,26.0,26.0,-0.21,0.33,-0.16,379.1,-2.12,-2.66,-1.46,-1.09,-739.89,690.53,5.7,0.00,0.00,0.00,0.00,0.00,-7.49,-7.49,-0.35,-1.56,-0.03,-3.38,46.41,-0.11,-0.38,2.68,100.0,0,0,132.77,0,0,0.0,0,0,0,0,7082,0,30.00,4,167.0,0,0,0.0,0.0,0.0,0.0,1,0,0.015,0.015,49.961,17.806,0,110.00,435.8,8750,0.0,0.0,110.0,110.0,433.0,0.00,0,0,1,333.3,74.0,74.0,60.0,60.0,34.0,-30.01,3.3,-28.4,2.5,7,-355.810,4.0,100.0,20.0,21.4,44.2,36.8,0,1,100.0,0.00,0.00,0.00,0.00,4282,2905,5127,4492,315.2,316.9,342.7,343.7,26.65,22.98,27.01,25.20,325.0,325.0,355.0,355.0,99.79,99.97,99.80,99.89,-0.30,-0.22,-0.22,-0.12,-0.1,-0.1,1.7,1.9,92.6,69.6,88.6,77.3,97.9,70.0,92.0,78.9,94.5,67.1,90.5,76.5,90.7,65.4,89.1,75.1,0.22,-0.22,0.04,0.06,0.00,142.35,142.11,132.76,132.77,56.6,15.7,0.4226109321823088
0.050,2.3,44.054607510137323,-78.681954348121508,77.6,43.0,-120.4,-26.0,11909.4,11909,167.7,0,1,1,0,1,1,0,0,0,100,1,1.186,26.0,0.0,0.006,48.179,66.0,0.0,26.0,26.0,26.0,26.0,-0.21,0.37,0.07,379.3,-2.49,-2.44,-1.37,-1.74,-739.28,688.24,5.7,0.00,0.00,0.00,0.00,0.00,-7.49,-7.49,-0.33,2.22,-0.17,-5.11,46.58,-0.13,-0.39,3.53,100.0,0,0,133.45,0,0,0.0,0,0,0,0,7118,0,30.00,4,167.7,1,0,0.0,0.0,0.0,0.0,1,0,0.066,0.066,49.961,17.806,1,110.00,435.8,8750,0.0,0.0,110.0,110.0,433.0,0.00,0,0,1,333.3,70.0,70.0,68.6,68.6,34.0,-34.74,-0.6,-23.5,6.8,7,-355.860,4.6,100.0,23.9,23.5,38.2,35.5,0,1,100.0,0.00,0.00,0.00,0.00,4372,2788,4112,5006,314.6,316.5,345.0,341.8,26.65,22.98,27.01,25.20,325.0,325.0,355.0,355.0,99.79,99.97,99.80,99.89,-0.32,-0.30,-0.29,-0.15,-0.1,-0.0,1.8,2.1,92.6,69.6,88.6,77.3,97.9,70.0,91.9,78.8,94.4,67.0,90.5,76.5,90.6,65.4,89.0,75.1,0.27,-0.27,0.05,0.06,0.00,143.01,142.72,133.45,133.45,56.6,15.7,0.43116122274620194,165.28668527943708,43.5723069907813
0.100,4.7,44.054586825740387,-78.681948952191874,-40.8,-188.3,91.7,89.0,11911.7,11912,168.3,0,1,1,0,1,1,0,0,0,100,1,1.186,26.0,0.0,0.006,48.179,66.0,0.0,26.0,26.0,26.0,26.0,-0.29,0.31,0.00,380.7,-2.11,-2.60,-1.28,-1.78,-738.68,685.94,5.7,0.00,0.00,0.00,0.00,0.00,-7.49,-7.49,-0.33,-2.75,-0.22,2.75,46.76,-0.15,-0.37,3.61,100.0,0,0,133.63,0,0,0.0,0,0,0,0,7128,0,30.00,4,168.3,0,0,0.0,0.0,0.0,0.0,1,0,0.117,0.117,49.961,17.806,0,110.00,435.8,8750,0.0,0.0,110.0,110.0,433.0,0.00,0,0,1,333.3,78.0,78.0,69.2,69.2,34.0,-38.33,-0.8,-36.0,1.3,7,-355.910,4.5,100.0,21.8,14.1,42.8,40.0,0,1,100.0,0.00,0.00,0.00,0.00,4575,1405,5061,4835,314.0,321.1,342.9,342.8,26.65,22.98,27.01,25.20,325.0,325.0,355.0,355.0,99.79,99.97,99.80,99.89,-0.40,-0.36,-0.37,-0.25,-0.0,-0.0,1.5,1.8,92.6,69.6,88.6,77.3,97.8,70.0,91.9,78.8,94.4,67.0,90.5,76.5,90.6,65.3,89.0,75.1,0.27,-0.27,0.05,0.04,0.00,143.46,143.10,133.63,133.63,56.6,15.7,0.4244997055358225,161.3255664724392,42.13190019325653,-32.409153797842976,-18.005084969059695
0.150,7.0,44.054567220529378,-78.681943826058713,-56.5,41.0,-117.3,-165.4,11914.1,11914,168.9,0,1,1,0,1,1,0,0,0,100,1,1.186,26.0,0.0,0.006,48.179,66.0,0.0,26.0,26.0,26.0,26.0,-0.24,0.37,-0.21,385.0,-2.16,-1.69,-1.77,-1.91,-738.11,683.76,5.7,0.00,0.00,0.00,0.00,0.01,-7.49,-7.49,-0.47,-1.94,0.02,4.39,46.92,-0.18,-0.37,3.70,100.0,0,0,134.50,0,0,0.0,0,0,0,0,7174,0,30.00,4,168.9,1,0,0.0,0.0,0.0,0.0,1,0,0.165,0.165,49.961,17.806,1,110.00,435.8,8750,0.0,0.0,110.0,110.0,433.0,0.00,0,0,1,333.3,78.9,78.9,66.2,66.2,34.0,-9.18,-5.6,-38.3,-0.4,7,-355.960,3.0,100.0,19.0,16.2,36.9,31.7,0,1,100.0,0.00,0.00,0.00,0.00,1538,4057,4816,3917,321.1,314.5,343.5,344.9,26.65,22.98,27.02,25.20,325.0,325.0,355.0,355.0,99.79,99.97,99.80,99.89,-0.32,-0.31,-0.44,-0.30,-0.0,-0.1,2.1,2.3,92.6,69.6,88.6,77.3,97.7,69.9,91.9,78.8,94.3,67.0,90.4,76.5,90.5,65.3,89.0,75.0,0.19,-0.21,0.07,0.07,0.00,143.81,143.68,134.50,134.50,56.6,15.7,0.4884669896727925,162.04576989965278,41.77179849387533,64.8183081647096,7.202033987623864
0.200,9.4,44.054546356268119,-78.681938520061237,-54.3,78.9,-5.5,-0.8,11916.4,11916,169.5,0,1,1,0,1,1,0,0,0,100,1,1.186,26.0,0.0,0.006,48.179,66.0,0.0,26.0,26.0,26.0,26.0,-0.21,0.33,-0.03,383.8,-2.56,-2.11,-1.19,-1.48,-737.52,681.44,5.7,0.00,0.00,0.00,0.00,0.01,-7.49,-7.49,-0.58,-2.08,-0.07,-5.48,47.10,-0.20,-0.40,2.82,100.0,0,0,134.79,0,0,0.0,0,0,0,0,7190,0,30.00,4,169.5,0,0,0.0,0.0,0.0,0.0,1,0,0.216,0.216,49.961,17.806,0,110.00,435.8,8750,0.0,0.0,110.0,110.0,433.0,0.00,0,0,1,333.3,76.6,76.6,65.2,65.2,34.0,-19.78,2.8,-26.8,0.3,7,-356.010,1.1,100.0,16.3,20.1,36.7,31.7,0,1,100.0,0.00,0.00,0.00,0.00,2988,3841,4224,4160,318.0,314.2,344.4,344.2,26.65,22.98,27.02,25.20,325.0,325.0,355.0,355.0,99.79,99.97,99.80,99.89,-0.26,-0.19,-0.36,-0.22,-0.1,-0.0,1.8,2.0,92.6,69.6,88.6,77.3,97.6,69.9,91.8,78.8,94.2,66.9,90.4,76.4,90.4,65.3,88.9,75.0,0.09,-0.08,0.07,0.07,0.00,144.45,144.24,134.80,134.79,56.6,15.7,0.39230090491866065,167.80739728891015,42.85210359201891,14.404068544271524,-3.601017562835551
0.250,11.7,44.054525312142538,-78.681933124131604,165.6,52.3,-3.8,-17.5,11918.8,11919,170.1,0,1,1,0,1,1,0,0,0,100,1,1.186,26.0,0.0,0.006,48.179,66.0,0.0,26.0,26.0,26.0,26.0,-0.16,0.44,0.06,380.0,-2.66,-3.45,-0.53,-1.38,-736.92,679.10,5.7,0.00,0.00,0.00,0.00,0.01,-7.49,-7.49,-0.56,2.68,-0.62,-7.91,47.27,-0.21,-0.40,2.45,100.0,0,0,135.23,0,0,0.0,0,0,0,0,7213,0,30.00,4,170.1,1,0,0.0,0.0,0.0,0.0,1,0,0.267,0.267,49.961,17.806,1,110.00,435.8,8750,0.0,0.0,110.0,110.0,433.0,0.00,0,0,1,333.3,71.1,71.1,66.1,66.1,34.0,-21.57,10.4,-33.5,1.5,7,-356.060,-0.7,100.0,24.6,22.7,36.5,30.8,0,1,100.0,0.00,0.00,0.00,0.00,3690,2673,6257,4457,315.4,317.2,339.9,343.6,26.65,22.97,27.02,25.20,325.0,325.0,355.0,355.0,99.79,99.97,99.80,99.89,-0.12,-0.09,-0.34,-0.18,-0.0,-0.1,1.9,2.0,92.6,69.6,88.6,77.3,97.6,69.9,91.8,78.8,94.1,66.9,90.3,76.4,90.4,65.2,88.9,75.0,-0.02,0.02,0.07,0.07,0.00,145.24,144.85,135.23,135.23,56.6,15.7,0.47201694884823786,163.48617675407993,41.411696737591775,-39.61118835449014,-18.00508553808342
0.300,14.1,44.054505527067207,-78.681928177862773,54.5,-66.7,103.4,118.3,11921.2,11921,170.8,0,1,1,0,1,1,0,0,0,100,1,1.186,26.0,0.0,0.006,48.179,66.0,0.0,26.0,26.0,26.0,26.0,-0.29,0.37,0.24,375.5,-2.46,-2.60,-2.02,-1.40,-736.37,676.90,5.7,0.00,0.00,0.00,0.00,0.01,-7.49,-7.49,-0.47,1.63,-0.72,2.67,47.44,-0.19,-0.39,1.59,100.0,0,0,135.43,0,0,0.0,0,0,0,0,7224,0,30.00,4,170.8,0,0,0.0,0.0,0.0,0.0,0,0,0.315,0.315,49.961,17.806,0,110.00,435.8,8750,0.0,0.0,110.0,110.0,433.0,0.00,0,0,1,333.3,67.9,67.9,65.6,65.6,34.0,-43.68,8.3,-65.0,-1.5,7,-356.110,-2.2,100.0,27.3,19.4,41.6,36.7,0,1,100.0,0.00,0.00,0.00,0.00,6433,3083,6910,4523,309.6,316.6,338.6,343.2,26.65,22.97,27.02,25.20,325.0,325.0,355.0,355.0,99.79,99.97,99.80,99.89,-0.17,-0.09,-0.39,-0.24,-0.1,-0.1,1.6,1.6,92.6,69.6,88.6,77.3,97.5,69.8,91.8,78.7,94.1,66.9,90.3,76.4,90.3,65.2,88.9,75.0,-0.10,0.10,0.06,0.05,0.00,145.70,145.43,135.43,135.43,56.6,15.7,0.5278257288158659,163.84627845346114,41.05159503821057,61.21729060187391,10.803051550459415
0.350,16.5,44.054484393009467,-78.681922871865297,4.6,9.4,-26.1,62.6,11923.6,11924,171.4,0,1,1,0,1,1,0,0,0,100,1,1.186,26.0,0.0,0.006,48.179,66.0,0.0,26.0,26.0,26.0,26.0,-0.18,0.38,0.19,375.0,-1.98,-2.63,-1.88,-1.23,-735.78,674.55,5.7,0.00,0.00,0.00,0.00,0.01,-7.49,-7.49,-0.40,1.60,-0.21,10.87,47.62,-0.14,-0.36,-0.03,100.0,0,0,135.78,0,0,0.0,0,0,0,0,7243,0,30.00,4,171.4,1,0,0.0,0.0,0.0,0.0,0,0,0.366,0.366,49.961,17.806,1,110.00,435.8,8750,0.0,0.0,110.0,110.0,433.0,0.00,0,0,1,333.3,68.1,68.1,64.8,64.8,34.0,-21.41,16.6,-48.8,-1.6,7,-356.160,-3.0,100.0,27.5,19.9,40.3,39.9,0,1,100.0,0.00,0.00,0.00,0.00,4287,4514,5830,5913,314.4,312.9,341.1,339.9,26.65,22.97,27.02,25.20,325.0,325.0,355.0,355.0,99.79,99.97,99.80,99.89,-0.13,-0.04,-0.36,-0.21,-0.0,-0.1,1.5,1.6,92.6,69.6,88.6,77.3,97.4,69.8,91.7,78.7,94.0,66.8,90.3,76.4,90.2,65.2,88.8,75.0,-0.15,0.15,0.06,0.05,0.00,146.01,146.18,135.78,135.78,56.6,15.7,0.4614108798023731,169.60790581426733,42.49200189263772,14.404068259759413,0.0
0.400,18.9,44.054463169019570,-78.681917565867820,-108.7,122.1,19.5,-13.6,11925.9,11926,172.0,0,1,1,0,1,1,0,0,0,100,1,1.186,26.0,0.0,0.009,48.179,66.0,0.0,26.0,26.0,26.0,26.0,-0.02,0.40,0.04,376.9,-2.91,-2.74,-1.26,-1.86,-735.19,672.19,5.7,0.00,0.00,0.00,0.00,0.01,-7.49,-7.49,-0.29,2.29,0.09,3.17,47.79,-0.05,-0.34,-1.71,100.0,0,0,136.22,0,0,0.0,0,0,0,0,7266,0,30.00,4,172.0,0,0,0.0,0.0,0.0,0.0,0,0,0.417,0.417,49.961,17.806,0,110.00,435.8,8750,0.0,0.0,110.0,110.0,433.0,0.00,0,0,1,166.7,73.5,73.5,56.2,56.2,34.0,-5.29,13.4,-25.7,29.5,7,-356.210,-3.2,100.0,22.1,26.0,41.3,39.2,0,1,100.0,0.00,0.00,0.00,0.00,1633,3030,5952,6846,320.8,316.7,340.5,338.0,26.65,22.97,27.02,25.20,325.0,325.0,355.0,355.0,99.79,99.97,99.80,99.89,0.05,0.04,-0.13,0.02,-0.1,-0.0,1.6,1.5,92.6,69.6,88.6,77.3,97.3,69.7,91.7,78.7,93.9,66.8,90.2,76.4,90.2,65.1,88.8,74.9,-0.18,0.19,0.05,0.05,0.00,146.43,146.64,136.22,136.22,56.6,15.7,0.4024922359499622,165.28668527943708,41.05159503821057,-36.01017107616684,-10.803051550459415
0.450,21.3,44.054443114147759,-78.681912619598990,-136.4,-98.8,-3.7,142.2,11928.3,11928,172.6,0,1,1,0,1,1,0,0,0,100,1,1.186,26.0,0.0,0.009,48.179,66.0,0.0,26.0,26.0,26.0,26.0,0.09,0.31,0.03,378.9,-2.33,-1.80,-0.50,-1.47,-734.64,669.96,5.7,0.00,0.00,0.00,0.00,0.01,-7.49,-7.49,-0.37,-4.11,-0.11,-8.73,47.95,0.01,-0.39,-2.39,100.0,0,0,136.84,0,0,0.0,0,0,0,0,7299,0,30.00,4,172.6,1,0,0.0,0.0,0.0,0.0,0,0,0.465,0.465,49.961,17.806,1,110.00,435.8,8750,0.0,0.0,110.0,110.0,433.0,0.00,0,0,1,333.3,77.3,77.3,57.1,57.1,34.0,-2.56,23.6,-0.3,22.1,7,-356.260,-3.2,100.0,15.3,21.0,41.1,46.3,0,1,100.0,0.00,0.00,0.00,0.00,2198,4337,4847,4394,319.4,313.6,342.3,343.4,26.65,22.97,27.02,25.21,325.0,325.0,355.0,355.0,99.79,99.97,99.80,99.89,0.18,0.20,0.07,0.17,-0.0,-0.1,1.7,1.5,92.6,69.6,88.6,77.3,97.2,69.7,91.7,78.7,93.8,66.8,90.2,76.4,90.1,65.1,88.7,74.9,-0.19,0.18,0.06,0.04,0.00,146.78,146.97,136.84,136.84,56.6,15.7,0.32419130154894654,166.00688870665064,41.411696737591775,64.81830816470932,21.606102531895388
0.500,23.7,44.054421710293539,-78.681907223669356,17.7,-132.0,-120.3,-262.8,11930.7,11931,173.2,0,1,1,0,1,1,0,0,0,100,1,1.186,26.0,0.0,0.009,48.179,66.0,0.0,26.0,26.0,26.0,26.0,0.08,0.39,-0.31,385.5,-2.54,-2.73,-1.42,-1.17,-734.04,667.58,5.7,0.00,0.00,0.00,0.00,0.02,-7.49,-7.49,-0.59,-4.25,-0.54,-4.55,48.12,0.06,-0.41,-1.88,100.0,0,0,137.73,0,0,0.0,0,0,0,0,7347,0,30.00,4,173.2,0,0,0.0,0.0,0.0,0.0,0,0,0.516,0.516,49.961,17.806,0,110.00,435.8,8750,0.0,0.0,110.0,110.0,433.0,0.00,0,0,1,333.3,79.9,79.9,74.5,74.5,34.0,-11.30,7.8,-7.4,18.3,7,-356.310,-2.5,100.0,16.2,14.4,35.1,33.2,0,1,100.0,0.00,0.00,0.00,0.00,5264,1641,5105,3863,312.1,321.4,342.7,345.0,26.65,22.97,27.02,25.21,325.0,325.0,355.0,355.0,99.79,99.97,99.80,99.89,0.15,0.20,0.09,0.25,-0.1,-0.1,2.2,2.0,92.6,69.6,88.6,77.3,97.2,69.7,91.6,78.7,93.8,66.7,90.1,76.3,90.0,65.1,88.7,74.9,-0.15,0.14,0.07,0.05,0.00,147.42,147.23,137.73,137.73,56.6,15.7,0.5045790324617145,171.768516095908,43.21220529140011,10.803051550459202,3.6010169938118963
0.550,26.1,44.054400216507155,-78.681901827739722,-6.0,-15.3,-98.0,-49.2,11933.2,11933,173.8,0,1,1,0,1,1,0,0,0,100,1,1.186,26.0,0.0,0.012,48.179,66.0,0.0,26.0,26.0,26.0,26.0,0.08,0.32,-0.25,389.2,-2.27,-2.57,-0.99,-2.07,-733.44,665.19,5.7,0.00,0.00,0.00,0.00,0.02,-7.49,-7.49,-0.82,-3.97,-0.57,1.54,48.28,0.09,-0.44,-1.53,100.0,0,0,138.85,0,0,0.0,0,0,0,0,7407,0,30.00,4,173.8,1,0,0.0,0.0,0.0,0.0,0,0,0.567,0.567,49.961,17.806,1,110.00,435.8,8750,0.0,0.0,110.0,110.0,433.0,0.00,0,0,1,166.7,81.1,81.1,76.4,76.4,34.0,-6.83,13.4,-6.3,4.8,7,-356.360,-2.3,100.0,15.9,13.7,30.2,30.7,0,1,100.0,0.00,0.00,0.00,0.00,3641,2400,5125,1180,316.4,318.3,343.1,351.2,26.65,22.97,27.02,25.21,325.0,325.0,355.0,355.0,99.79,99.97,99.80,99.89,0.12,0.18,0.04,0.18,-0.1,-0.1,2.5,2.3,92.6,69.6,88.6,77.3,97.1,69.6,91.6,78.6,93.7,66.7,90.1,76.3,89.9,65.0,88.7,74.9,-0.13,0.12,0.08,0.07,0.00,147.83,147.91,138.85,138.85,56.6,15.7,0.41388404173149757,167.08719386169656,41.771798436972965,-43.21220534830246,-10.803050981435831
0.600,28.5,44.054379981771021,-78.681896791538733,42.7,39.4,-79.4,-17.1,11935.6,11936,174.3,0,1,1,0,1,1,0,0,0,100,1,1.186,26.0,0.0,0.009,48.179,66.0,0.0,26.0,26.0,26.0,26.0,0.06,0.35,-0.27,386.5,-3.12,-2.42,-1.66,-1.70,-732.88,662.94,5.7,0.00,0.00,0.00,0.00,0.02,-7.49,-7.49,-0.95,-1.31,-0.20,6.66,48.44,0.10,-0.44,-1.65,100.0,0,0,139.15,0,0,0.0,0,0,0,0,7423,0,30.00,4,174.3,0,0,0.0,0.0,0.0,0.0,0,0,0.615,0.615,49.961,17.806,0,110.00,435.8,8750,0.0,0.0,110.0,110.0,433.0,0.00,0,0,1,333.3,75.7,75.7,83.8,83.8,34.0,-24.49,17.8,-9.0,22.2,7,-356.410,-2.7,100.0,18.0,15.6,26.2,29.8,0,1,98.4,0.00,0.00,0.00,0.00,5519,3050,3622,4601,312.8,316.4,346.5,343.5,26.65,22.97,27.02,25.21,325.0,325.0,355.0,355.0,99.79,99.97,99.80,99.89,0.05,0.19,0.00,0.19,-0.1,-0.1,2.5,2.4,92.6,69.6,88.6,77.3,97.0,69.6,91.5,78.6,93.6,66.6,90.1,76.3,89.8,65.0,88.6,74.9,-0.15,0.15,0.09,0.07,0.00,148.38,148.50,139.15,139.15,56.6,15.7,0.44609416046390926,167.44729556107777,42.13190019325653,57.61627360806244,21.606103100919043
0.650,30.9,44.054358398052479,-78.681891305676928,54.7,-20.5,21.4,96.5,11938.0,11938,175.0,0,1,1,0,1,1,0,0,0,100,1,1.186,26.0,0.0,0.012,48.179,66.0,0.0,26.0,26.0,26.0,26.0,0.10,0.33,-0.29,385.9,-2.71,-2.08,-1.78,-1.38,-732.27,660.54,5.7,0.00,0.00,0.00,0.00,0.02,-7.49,-7.49,-0.98,-1.07,0.31,11.88,48.61,0.13,-0.38,-1.94,100.0,0,0,138.88,0,0,0.0,0,0,0,0,7408,0,30.00,4,175.0,1,0,0.0,0.0,0.0,0.0,0,0,0.666,0.666,49.961,17.806,1,110.00,435.8,8750,0.0,0.0,110.0,110.0,433.0,0.00,0,0,1,333.3,78.9,78.9,84.6,84.6,34.0,-3.38,14.5,-8.6,32.8,7,-356.460,-3.5,100.0,20.7,14.6,27.3,34.7,0,1,94.1,0.00,0.00,0.00,0.00,2186,2721,3109,6216,319.3,318.2,348.7,339.4,26.65,22.97,27.02,25.21,325.0,325.0,355.0,355.0,99.79,99.97,99.80,99.89,0.19,0.23,-0.01,0.19,-0.0,-0.1,1.8,1.8,92.6,69.5,88.6,77.3,96.9,69.5,91.5,78.6,93.5,66.6,90.0,76.3,89.8,64.9,88.6,74.9,-0.19,0.19,0.08,0.06,0.00,148.88,149.02,138.88,138.88,56.6,15.7,0.4505552130427524,172.8488212225028,43.93240874706487,7.202033987624077,7.202033987623864
0.700,33.4,44.054336814333936,-78.681885819815136,-1.9,240.7,91.2,23.3,11940.4,11940,175.5,0,1,1,0,1,1,0,0,0,100,1,1.186,26.0,0.0,0.012,48.179,66.0,0.0,26.0,26.0,26.0,26.0,0.18,0.27,0.02,379.4,-3.09,-2.19,-1.34,-0.75,-731.66,658.14,5.7,0.00,0.00,0.00,0.00,0.02,-7.49,-7.49,-1.05,0.98,0.77,7.04,48.75,0.16,-0.44,-3.00,100.0,0,0,139.51,0,0,0.0,0,0,0,0,7442,0,30.00,4,175.5,0,0,0.0,0.0,0.0,0.0,0,0,0.717,0.717,49.961,17.806,0,110.00,435.8,8750,0.0,0.0,110.0,110.0,433.0,0.00,0,0,1,333.3,67.5,67.5,69.2,69.2,34.0,-5.30,44.6,-3.2,17.8,7,-356.510,-5.0,100.0,20.6,26.6,31.9,35.8,0,1,90.2,0.00,0.00,0.00,0.00,3955,5356,3488,4204,315.8,310.5,346.4,344.8,26.65,22.97,27.02,25.21,325.0,325.0,355.0,355.0,99.79,99.97,99.80,99.89,0.26,0.36,0.12,0.25,-0.0,-0.1,1.9,1.7,92.6,69.5,88.6,77.3,96.8,69.5,91.4,78.6,93.4,66.6,90.0,76.3,89.7,64.9,88.5,74.8,-0.28,0.28,0.08,0.06,0.00,149.38,149.68,139.51,139.51,56.6,15.7,0.32511536414017717,168.16749895984017,42.85210359201891,-39.61118835449071,-7.20203455664759
0.750,35.8,44.054316399733487,-78.681880603749818,-19.1,34.6,62.9,157.2,11942.9,11943,176.0,0,1,1,0,1,1,0,0,0,100,1,1.186,26.0,0.0,0.012,48.179,66.0,0.0,26.0,26.0,26.0,26.0,0.35,0.30,0.14,375.1,-2.90,-3.05,-1.86,-1.13,-731.08,655.87,5.6,0.00,0.00,0.00,0.00,0.02,-7.49,-7.49,-0.89,2.69,0.75,-6.52,48.90,0.19,-0.35,-4.47,100.0,0,0,138.94,0,0,0.0,0,0,0,0,7411,0,30.00,4,176.0,1,0,0.0,0.0,0.0,0.0,0,0,0.765,0.765,49.961,17.806,1,110.00,435.8,8750,0.0,0.0,110.0,110.0,433.0,0.00,0,0,1,333.3,71.2,71.2,59.9,59.9,34.0,2.47,40.8,0.9,68.1,7,-356.560,-5.7,100.0,19.7,28.4,35.0,43.7,0,1,88.7,0.00,0.00,0.00,0.00,2270,4052,5449,7046,319.8,313.6,341.9,336.7,26.65,22.97,27.02,25.21,325.0,325.0,355.0,355.0,99.79,99.97,99.80,99.89,0.44,0.46,0.30,0.49,-0.0,-0.0,1.3,1.0,92.6,69.5,88.6,77.3,96.7,69.5,91.4,78.6,93.4,66.6,89.9,76.3,89.6,64.9,88.5,74.8,-0.32,0.33,0.07,0.04,0.00,149.84,150.17,138.94,138.94,56.6,15.7,0.48176757881783616,168.88770238705374,43.21220529140011,61.21729117089757,25.207119525707284
0.800,38.3,44.054294636150622,-78.681875027955869,-38.6,-181.6,97.5,40.9,11945.3,11945,176.5,0,1,1,0,1,1,0,0,0,100,1,1.186,26.0,0.0,0.012,48.179,66.0,0.0,26.0,26.0,26.0,26.0,0.29,0.25,-0.10,379.3,-2.37,-1.70,-1.76,-1.66,-730.46,653.45,5.6,0.00,0.00,0.00,0.00,0.02,-7.49,-7.49,-0.94,-3.78,0.40,-5.05,49.04,0.21,-0.37,-3.43,100.0,0,0,139.63,0,0,0.0,0,0,0,0,7448,0,30.00,4,176.5,0,0,0.0,0.0,0.0,0.0,1,0,0.816,0.816,49.961,17.806,0,110.00,435.8,8750,0.0,0.0,110.0,110.0,433.0,0.00,0,0,1,333.3,79.1,79.1,63.5,63.5,34.0,7.66,18.8,3.0,35.8,7,-356.610,-6.9,100.0,17.8,19.3,39.9,45.7,0,1,88.7,0.00,0.00,0.00,0.00,2442,2398,4953,4190,319.1,318.8,342.9,343.7,26.65,22.97,27.02,25.21,325.0,325.0,355.0,355.0,99.79,99.97,99.80,99.89,0.57,0.56,0.32,0.42,-0.0,-0.0,1.5,1.2,92.6,69.5,88.7,77.3,96.7,69.5,91.3,78.6,93.3,66.5,89.9,76.2,89.5,64.9,88.4,74.8,-0.38,0.38,0.06,0.03,0.00,150.06,150.23,139.63,139.63,56.6,15.7,0.3957271787481876,174.28922807692993,45.37281554458964,57.6162738925737,32.40915408235473
0.850,40.7,44.054272872567758,-78.681869272297590,138.6,77.4,-103.0,-154.6,11947.8,11948,177.0,0,1,1,0,1,1,0,0,0,100,1,1.186,26.0,0.0,0.012,48.179,66.0,0.0,26.0,26.0,26.0,26.0,0.32,0.21,0.03,377.4,-3.07,-1.88,-1.56,-1.42,-729.82,651.03,5.6,0.00,0.00,0.00,0.00,0.03,-7.49,-7.49,-1.10,-0.18,0.49,6.29,49.17,0.23,-0.47,-4.87,100.0,0,0,140.68,0,0,0.0,0,0,0,0,7504,0,30.00,4,177.0,1,0,0.0,0.0,0.0,0.0,1,0,0.867,0.867,49.961,17.806,1,110.00,435.8,8750,0.0,0.0,110.0,110.0,433.0,0.00,0,0,1,166.7,65.8,65.8,70.7,70.7,34.0,8.41,62.0,1.6,25.8,7,-356.660,-8.4,100.0,24.7,23.2,34.8,38.0,0,1,89.5,0.00,0.00,0.00,0.00,4463,5838,3504,3687,314.1,309.7,346.4,345.3,26.65,22.97,27.02,25.21,325.0,325.0,355.0,355.0,99.79,99.97,99.80,99.89,0.50,0.61,0.28,0.39,-0.0,-0.1,1.9,1.6,92.6,69.5,88.7,77.3,96.6,69.5,91.3,78.5,93.2,66.5,89.8,76.2,89.5,64.9,88.4,74.8,-0.47,0.46,0.07,0.05,0.00,150.55,150.99,140.68,140.68,56.6,15.7,0.38392707640904933,174.6493297763111,46.45312069963558,7.202033987624077,18.005086107107076
0.900,43.2,44.054251019052735,-78.681863426707153,-87.2,79.9,61.6,71.4,11950.3,11950,177.5,0,1,1,0,1,1,0,0,0,100,1,1.186,26.0,0.0,0.015,48.179,66.0,0.0,26.0,26.0,26.0,26.0,0.43,0.28,0.14,374.1,-2.70,-2.15,-2.31,-1.68,-729.17,648.60,5.6,0.00,0.00,0.00,0.00,0.03,-7.49,-7.49,-0.98,1.83,0.71,2.75,49.32,0.28,-0.38,-6.21,100.0,0,0,140.14,0,0,0.0,0,0,0,0,7475,0,30.00,4,177.5,0,0,0.0,0.0,0.0,0.0,1,0,0.918,0.918,49.961,17.806,0,110.00,435.8,8750,0.0,0.0,110.0,110.0,433.0,0.00,0,0,1,166.7,69.2,69.2,59.1,59.1,34.0,12.44,52.0,2.0,71.3,7,-356.710,-8.9,100.0,20.3,27.2,37.8,41.6,0,1,89.5,0.00,0.00,0.00,0.00,3696,4738,5380,6220,316.3,312.6,341.7,338.2,26.65,22.97,27.03,25.21,325.0,325.0,355.0,355.0,99.79,99.97,99.80,99.89,0.60,0.67,0.38,0.55,-0.1,-0.1,1.3,1.0,92.6,69.5,88.7,77.3,96.5,69.5,91.2,78.5,93.1,66.5,89.8,76.2,89.4,64.9,88.3,74.8,-0.51,0.52,0.06,0.05,0.00,151.01,151.47,140.14,140.14,56.6,15.7,0.531883445878888,175.00943147569234,47.17332415530035,-46.813222342114216,0.0
0.950,45.7,44.054229165537713,-78.681857491184545,-22.0,-41.2,-63.9,118.4,11952.7,11953,178.0,0,1,1,0,1,1,0,0,0,100,1,1.186,26.0,0.0,0.015,48.179,66.0,0.0,26.0,26.0,26.0,26.0,0.49,0.26,-0.04,376.9,-2.81,-2.03,-1.98,-1.58,-728.51,646.17,5.5,0.00,0.00,0.00,0.00,0.03,-7.49,-7.49,-0.94,0.13,0.78,-2.96,49.45,0.34,-0.38,-6.64,100.0,0,0,141.07,0,0,0.0,0,0,0,0,7525,0,30.00,4,178.0,1,0,0.0,0.0,0.0,0.0,1,0,0.969,0.969,49.961,17.806,1,110.00,435.8,8750,0.0,0.0,110.0,110.0,433.0,0.00,0,0,1,166.7,72.8,72.8,62.9,62.9,34.0,4.07,63.0,9.5,61.4,7,-356.760,-8.3,100.0,19.2,25.1,34.6,47.5,0,1,90.2,0.00,0.00,0.00,0.00,1138,5249,4260,5556,322.1,310.9,345.5,340.6,26.65,22.97,27.03,25.21,325.0,325.0,355.0,355.0,99.79,99.97,99.80,99.89,0.74,0.75,0.51,0.62,-0.0,-0.1,1.7,1.3,92.6,69.5,88.7,77.3,96.4,69.4,91.2,78.5,93.1,66.5,89.7,76.2,89.3,64.9,88.3,74.8,-0.50,0.49,0.07,0.02,0.00,151.19,151.86,141.07,141.07,56.6,15.7,0.5561474624593732,169.96800754209968,46.45312069963558,-97.22746167804075,-14.404069113295108
1.000,48.1,44.054208571072934,-78.681851825458438,35.2,137.1,87.0,-106.7,11955.2,11955,178.5,0,1,1,0,1,1,0,0,0,100,1,1.186,26.0,0.0,0.015,48.179,66.0,0.0,26.0,26.0,26.0,26.0,0.48,0.26,0.08,374.2,-3.21,-1.96,-1.07,-1.15,-727.88,643.88,5.5,0.00,0.00,0.00,0.00,0.03,-7.49,-7.49,-0.89,2.87,0.60,-3.38,49.58,0.38,-0.41,-7.22,100.0,0,0,141.66,0,0,0.0,0,0,0,0,7556,0,30.00,4,178.5,0,0,0.0,0.0,0.0,0.0,1,0,1.017,1.017,49.961,17.806,0,110.00,435.8,8750,0.0,0.0,110.0,110.0,433.0,0.00,0,0,1,333.3,67.3,67.3,56.4,56.4,34.0,5.76,55.7,20.0,62.2,7,-356.810,-6.3,100.0,21.0,31.9,39.0,42.2,0,1,93.8,0.00,0.00,0.00,0.00,1900,4976,4274,5686,319.3,311.0,344.5,340.7,26.65,22.97,27.03,25.21,325.0,325.0,355.0,355.0,99.79,99.97,99.80,99.89,0.65,0.66,0.59,0.70,-0.0,-0.1,1.8,1.4,92.5,69.5,88.7,77.3,96.4,69.5,91.1,78.5,93.0,66.5,89.7,76.2,89.3,64.9,88.2,74.8,-0.38,0.39,0.06,0.04,0.00,151.79,152.34,141.66,141.66,56.6,15.7,0.5517245689653488,165.28668530788826,45.73291724397084,7.202033987624077,18.00508553808335
1.050,50.6,44.054187886675997,-78.681846069800159,-160.1,-308.1,6.2,150.9,11957.7,11958,179.0,0,1,1,0,1,1,0,0,0,100,1,1.186,26.0,0.0,0.015,48.179,66.0,0.0,26.0,26.0,26.0,26.0,0.52,0.29,0.03,378.1,-2.69,-1.98,-1.89,-2.22,-727.24,641.58,5.5,0.00,0.00,0.00,0.00,0.03,-7.49,-7.49,-0.90,-4.57,0.25,-7.15,49.73,0.38,-0.36,-3.71,100.0,0,0,141.35,0,0,0.0,0,0,0,0,7540,0,30.00,4,179.0,1,0,0.0,0.0,0.0,0.0,1,0,1.065,1.065,49.961,17.806,1,110.00,435.8,8750,0.0,0.0,110.0,110.0,433.0,0.00,0,0,1,333.3,82.3,82.3,57.7,57.7,34.0,6.83,35.3,21.3,75.8,7,-356.860,-4.2,100.0,13.0,16.5,39.3,49.7,0,1,96.1,0.00,0.00,0.00,0.00,2081,3491,6716,5806,320.1,315.6,339.2,339.8,26.65,22.97,27.03,25.21,325.0,325.0,355.0,355.0,99.79,99.97,99.80,99.89,0.64,0.66,0.54,0.68,-0.1,-0.1,1.4,1.2,92.5,69.5,88.7,77.3,96.3,69.4,91.1,78.5,92.9,66.5,89.6,76.2,89.2,64.9,88.2,74.8,-0.26,0.25,0.05,0.03,0.00,152.12,152.43,141.35,141.35,56.6,15.7,0.5961543424315553,170.6882109408621,48.25362925344392,108.0305129439887,50.41424018946181
1.100,53.1,44.054165943228817,-78.681839774548919,166.1,36.9,-172.2,-367.0,11960.2,11960,179.5,0,1,1,0,1,1,0,0,0,100,1,1.186,26.0,0.0,0.018,48.179,66.0,0.0,26.0,26.0,26.0,26.0,0.28,0.41,-0.27,383.9,-2.10,-2.53,-1.77,-1.10,-726.54,639.14,5.5,0.00,0.00,0.00,0.00,0.03,-7.49,-7.49,-1.11,-0.48,0.13,4.34,49.87,0.38,-0.43,-3.55,100.0,0,0,143.20,0,0,0.0,0,0,0,0,7639,0,30.00,4,179.5,0,0,0.0,0.0,0.0,0.0,1,0,1.116,1.116,49.961,17.806,0,110.00,435.8,8750,0.0,0.0,110.0,110.0,433.0,0.00,0,0,1,333.3,74.7,74.7,79.3,79.3,34.0,8.06,20.2,5.5,36.7,7,-356.910,-1.5,100.0,21.3,18.4,30.7,31.4,0,1,98.4,0.00,0.00,0.00,0.00,4144,2505,3729,4690,314.8,318.4,346.1,343.6,26.65,22.97,27.03,25.21,325.0,325.0,355.0,355.0,99.79,99.97,99.80,99.89,0.39,0.46,0.43,0.58,-0.0,-0.1,2.5,2.2,92.5,69.5,88.7,77.3,96.2,69.4,91.0,78.5,92.8,66.5,89.6,76.2,89.1,64.8,88.1,74.7,-0.10,0.11,0.08,0.07,0.00,152.73,152.91,143.20,143.20,56.6,15.7,0.5651548460377916,176.08973660228713,50.77434126291702,7.202034556647732,18.005086107107218
1.150,55.6,44.054143909849472,-78.681833389365508,169.0,252.6,47.1,174.4,11962.7,11963,180.1,0,1,1,0,1,1,0,0,0,100,1,1.186,26.0,0.0,0.018,48.179,66.0,0.0,26.0,26.0,26.0,26.0,0.28,0.27,0.46,372.1,-3.15,-2.78,-2.07,-1.37,-725.83,636.69,5.5,0.00,0.00,0.00,0.00,0.03,-7.49,-7.49,-0.97,5.51,0.60,9.72,50.03,0.36,-0.44,-2.81,100.0,0,0,142.92,0,0,0.0,0,0,0,0,7624,0,30.00,4,180.1,1,0,0.0,0.0,0.0,0.0,1,0,1.167,1.167,49.961,17.806,1,110.00,435.8,8750,0.0,0.0,110.0,110.0,433.0,0.00,0,0,1,333.3,57.9,57.9,66.4,66.4,34.0,-9.77,56.0,-0.7,36.3,7,-356.960,1.2,100.0,29.7,31.0,33.0,40.1,0,1,98.4,0.00,0.00,0.00,0.00,4385,6271,4871,4351,313.5,307.8,343.2,343.4,26.65,22.97,27.03,25.21,325.0,325.0,355.0,355.0,99.79,99.97,99.80,99.89,0.21,0.31,0.30,0.46,-0.1,-0.0,1.6,1.4,92.5,69.5,88.7,77.3,96.1,69.4,91.0,78.5,92.8,66.5,89.5,76.2,89.1,64.8,88.1,74.7,0.05,-0.03,0.07,0.05,0.00,153.40,153.89,142.92,142.92,56.6,15.7,0.6024118192731613,171.40841439652687,50.05413786415464,-43.2122050637912,-3.601017562835551
1.200,58.1,44.054123135520371,-78.681827273978584,-85.7,86.2,237.3,228.0,11965.2,11965,180.7,0,1,1,0,1,1,0,0,0,100,1,1.186,26.0,0.0,0.018,48.179,66.0,0.0,26.0,26.0,26.0,26.0,0.29,0.29,0.61,363.8,-4.36,-1.85,-2.16,-1.60,-725.15,634.38,5.4,0.00,0.00,0.00,0.00,0.04,-7.49,-7.49,-0.65,6.30,0.86,-0.24,50.19,0.31,-0.32,-0.57,100.0,0,0,142.68,0,0,0.0,0,0,0,0,7611,0,30.00,4,180.7,0,0,0.0,0.0,0.0,0.0,1,0,1.215,1.215,49.961,17.806,0,110.00,435.8,8750,0.0,0.0,110.0,110.0,433.0,0.00,0,0,1,333.3,59.1,59.1,47.2,47.2,34.0,-22.03,38.5,-3.2,92.2,7,-357.010,3.8,100.0,25.4,35.3,44.9,51.5,0,1,96.1,0.00,0.00,0.00,0.00,4077,6490,5710,8633,315.6,306.5,341.5,332.6,26.65,22.97,27.03,25.21,325.0,325.0,355.0,355.0,99.79,99.97,99.80,99.89,0.09,0.18,0.29,0.45,-0.1,-0.0,1.2,1.1,92.5,69.5,88.7,77.3,96.0,69.4,91.0,78.5,92.7,66.5,89.5,76.2,89.0,64.8,88.1,74.7,0.20,-0.18,0.05,0.03,0.00,153.92,154.22,142.69,142.68,56.6,15.7,0.735051018637482,171.768516095908,50.414239506633464,57.61627360806216,21.60610196287152
1.250,60.7,44.054101012208868,-78.681820798863029,120.8,78.3,69.7,44.4,11967.7,11968,181.1,0,1,1,0,1,1,0,0,0,100,1,1.186,26.0,0.0,0.018,48.179,66.0,0.0,26.0,26.0,26.0,26.0,0.09,0.25,0.67,359.6,-3.68,-1.98,-3.05,-1.18,-724.43,631.92,5.4,0.00,0.00,0.00,0.00,0.04,-7.49,-7.49,-0.29,8.64,0.45,-13.79,50.32,0.18,-0.33,1.94,100.0,0,0,142.97,0,0,0.0,0,0,0,0,7626,0,30.00,4,181.1,1,0,0.0,0.0,0.0,0.0,1,0,1.266,1.266,49.961,17.806,1,110.00,435.8,8750,0.0,0.0,110.0,110.0,433.0,0.00,0,0,1,333.3,51.9,51.9,45.0,45.0,34.0,-34.10,32.5,-24.3,61.1,7,-357.060,6.2,100.0,31.5,39.2,48.4,53.7,0,1,78.1,0.00,0.00,0.00,0.00,5268,6801,6217,8163,312.4,306.0,340.6,333.3,26.65,22.97,27.03,25.21,325.0,325.0,355.0,355.0,99.79,99.97,99.80,99.89,-0.03,0.08,0.20,0.29,-0.1,-0.0,0.9,1.0,92.5,69.6,88.7,77.3,96.0,69.4,90.9,78.5,92.6,66.5,89.5,76.2,88.9,64.8,88.0,74.7,0.36,-0.31,0.05,0.02,0.00,154.62,154.48,142.98,142.97,56.6,15.7,0.7207634840916957,177.17004175733308,52.21474806044179,3.6010169938123227,3.601017562835551
1.300,63.2,44.054078888897358,-78.681814233815302,111.1,-67.9,209.3,6.3,11970.2,11970,181.5,0,1,1,0,1,1,0,0,0,100,1,1.186,26.0,0.0,0.018,48.179,66.0,0.3,26.0,26.0,26.0,26.0,-0.10,0.15,0.64,358.9,-2.70,-2.41,-1.66,-1.95,-723.70,629.46,5.4,0.00,0.00,0.00,0.00,0.04,-7.49,-7.49,0.14,7.37,-0.26,-9.44,50.42,0.02,-0.36,4.92,100.0,0,0,142.94,0,0,0.0,0,0,0,0,7625,0,30.00,4,181.5,0,0,0.0,0.0,0.0,0.0,0,0,1.317,1.317,49.961,17.806,0,110.00,435.8,8750,0.0,0.0,110.0,110.0,433.0,0.00,0,0,1,333.3,55.3,55.3,39.4,39.4,34.0,-35.25,5.1,-37.6,38.8,7,-357.110,7.7,100.0,37.0,35.8,58.9,54.0,0,1,51.6,0.00,0.00,0.00,0.00,4738,3706,8258,7239,312.0,314.5,335.5,336.6,26.65,22.97,27.03,25.22,325.0,325.0,355.0,355.0,99.79,99.97,99.80,99.89,-0.20,-0.18,-0.02,0.04,-0.0,-0.0,0.6,0.8,92.6,69.6,88.7,77.3,95.9,69.4,90.9,78.5,92.6,66.5,89.4,76.2,88.9,64.8,88.0,74.7,0.48,-0.41,0.03,0.02,0.00,155.00,154.46,142.94,142.94,56.6,15.7,0.6649060083951717,172.12861779528924,50.77434126291702,-46.81322262662661,-18.00508553808328
1.350,65.7,44.054058024636106,-78.681808118428378,-156.2,-175.1,15.8,-13.9,11972.8,11973,181.7,0,1,1,0,1,1,0,0,0,100,1,1.186,26.0,0.0,0.018,48.179,66.0,1.6,26.0,26.0,26.0,26.0,-0.29,-0.01,0.64,363.3,-2.61,-2.90,-1.23,-1.89,-723.02,627.14,5.5,0.00,0.00,0.00,0.00,0.04,-7.49,-7.49,0.27,-1.21,-0.59,-4.67,50.47,-0.08,-0.48,5.40,100.0,0,0,142.36,0,0,0.0,0,0,0,0,7594,0,30.00,4,181.7,1,0,0.0,0.0,0.0,0.0,0,0,1.365,1.365,49.961,17.806,1,110.00,435.8,8750,0.0,0.0,110.0,110.0,433.0,0.00,0,0,1,333.3,60.9,60.9,39.7,39.7,34.0,-69.92,2.8,-58.0,8.6,7,-357.160,7.2,100.0,29.2,27.1,59.6,53.3,0,1,27.8,0.00,0.00,0.00,0.00,7169,4794,8435,4977,308.3,311.9,334.2,342.4,26.65,22.97,27.03,25.22,325.0,325.0,355.0,355.0,99.79,99.97,99.80,99.89,-0.38,-0.29,-0.21,-0.17,-0.1,-0.1,0.3,0.5,92.6,69.6,88.7,77.4,95.8,69.4,90.9,78.4,92.5,66.4,89.4,76.1,88.8,64.8,88.0,74.7,0.44,-0.42,0.00,0.02,0.00,154.91,154.41,142.36,142.36,56.6,15.7,0.7027090436304346,172.48871949467042,50.414239506633464,57.616273892573986,7.202033418600138
1.400,68.2,44.054035811392438,-78.681801643312824,51.3,-50.8,-322.0,-264.0,11975.3,11975,181.6,0,1,1,0,1,1,0,0,0,100,1,1.186,26.0,0.0,0.021,48.179,66.0,6.6,26.0,26.0,26.0,26.0,-0.35,-0.15,0.19,373.5,-1.94,-3.50,-1.47,-1.87,-722.30,624.67,5.5,0.00,0.00,0.00,0.00,0.04,-7.49,-7.49,0.30,1.75,-0.56,2.38,50.43,-0.18,-0.51,5.84,100.0,0,0,141.82,0,0,0.0,0,0,0,0,7565,0,30.00,4,181.6,0,0,0.0,0.0,0.0,0.0,0,0,1.416,1.416,49.961,17.806,0,110.00,435.8,8750,0.0,0.0,110.0,110.0,433.0,0.00,0,0,1,333.3,63.4,63.4,63.1,63.1,34.0,-47.60,1.3,-61.7,-1.8,7,-357.210,5.5,100.0,31.8,24.5,43.5,40.1,0,1,9.1,0.00,0.00,0.00,0.00,5317,3688,6305,5668,312.0,314.8,340.3,340.4,26.65,22.97,27.04,25.22,325.0,325.0,355.0,355.0,99.79,99.97,99.80,99.89,-0.43,-0.38,-0.44,-0.30,-0.2,-0.3,0.0,0.3,92.6,69.6,88.7,77.4,95.8,69.3,90.8,78.4,92.5,66.4,89.3,76.1,88.8,64.8,87.9,74.7,0.35,-0.33,0.05,0.05,0.00,154.57,153.98,141.90,141.75,56.6,15.7,0.4255584566190642,177.89024518454664,51.49454460477703,-3.601016993811754,-10.803050981435902
1.450,70.7,44.054013598148771,-78.681795258129426,35.6,52.0,7.0,-31.4,11977.8,11978,180.9,0,1,1,0,1,1,0,0,0,100,1,1.186,26.0,0.0,0.021,48.179,66.0,18.6,26.0,26.0,26.0,26.0,-0.38,-0.53,0.11,374.1,-2.77,-2.46,-0.95,-1.60,-721.59,622.20,5.6,0.00,0.00,0.00,0.00,0.04,-7.49,-7.49,0.36,2.46,-0.37,4.72,50.24,-0.24,-0.58,5.96,100.0,0,0,140.40,0,0,0.0,0,0,0,0,7489,0,30.00,4,180.9,1,0,0.0,0.0,0.0,0.0,0,0,1.467,1.467,49.961,17.806,1,110.00,435.8,8750,0.0,0.0,110.0,110.0,433.0,0.00,0,0,1,166.7,59.9,59.9,64.6,64.6,34.0,-57.62,-3.5,-44.2,-8.8,7,-357.260,4.1,100.0,33.6,27.1,43.9,38.6,0,1,0.0,0.00,0.00,0.00,0.00,5689,4440,4829,4296,311.2,313.4,343.1,344.5,26.65,22.97,27.04,25.22,325.0,325.0,355.0,355.0,99.79,99.97,99.80,99.89,-0.44,-0.35,-0.53,-0.40,-0.6,-0.7,-0.7,-0.5,92.6,69.6,88.7,77.4,95.7,69.3,90.8,78.4,92.4,66.4,89.3,76.0,88.7,64.7,87.8,74.6,0.29,-0.24,0.05,0.06,0.00,153.38,152.71,140.41,140.40,56.6,15.7,0.661362230551458,172.12861779528924,49.333934408489874,-64.81830816470989,-32.40915294430735
1.500,73.2,44.053992823819677,-78.681789322606818,-289.2,-49.9,21.6,9.6,11980.3,11980,180.0,0,1,1,0,1,1,0,0,0,100,1,1.186,26.0,0.0,0.024,48.179,66.0,27.3,26.0,26.0,26.0,26.0,-0.31,-0.59,-0.05,380.1,-2.26,-2.23,-1.42,-1.86,-720.93,619.89,5.6,0.00,0.00,0.00,0.00,0.04,-7.49,-7.49,0.42,-2.74,-0.30,-4.38,49.97,-0.28,-0.53,3.45,100.0,0,0,139.44,0,0,0.0,0,0,0,0,7438,0,30.00,4,180.0,0,0,0.0,0.0,0.0,0.0,0,0,1.515,1.515,49.961,17.806,0,110.00,435.8,8750,0.0,0.0,110.0,110.0,433.0,0.00,0,0,1,333.3,76.5,76.5,53.7,53.7,34.0,-9.82,-3.9,-58.2,-4.4,7,-357.310,3.2,100.0,19.1,24.7,45.0,39.0,0,1,0.0,0.00,0.00,0.00,0.00,1832,2793,5722,5244,320.6,317.3,340.9,340.8,26.65,22.97,27.04,25.22,325.0,325.0,355.0,355.0,99.79,99.97,99.80,99.89,-0.36,-0.40,-0.49,-0.34,-2.0,-1.5,-0.6,-0.4,92.6,69.6,88.7,77.4,95.7,69.3,90.7,78.3,92.4,66.4,89.2,76.0,88.7,64.7,87.8,74.6,0.18,-0.20,0.06,0.04,0.00,149.96,150.40,139.44,139.44,56.6,15.7,0.6683561924602779,171.40841436807565,48.2536293103463,32.40915408235452,-3.601017562835551
1.550,75.7,44.053970790440331,-78.681783207219894,18.2,-202.2,-247.3,-102.8,11982.8,11983,178.7,0,1,1,0,1,1,0,0,0,100,1,1.186,26.0,0.0,0.021,48.179,66.0,43.5,26.0,26.0,26.0,26.0,-0.22,-0.74,-0.49,390.8,-2.36,-2.37,-0.49,-1.52,-720.25,617.44,5.6,0.00,0.00,0.00,0.00,0.05,-7.49,-7.49,0.06,-8.46,-0.57,-3.96,49.61,-0.28,-0.69,3.08,100.0,0,0,136.89,0,0,0.0,0,0,0,0,7302,0,30.00,4,178.7,1,0,0.0,0.0,0.0,0.0,0,0,1.566,1.566,49.961,17.806,1,110.00,435.8,8750,0.0,0.0,110.0,110.0,433.0,0.00,0,0,1,333.3,78.6,78.6,86.1,86.1,34.0,-37.58,-0.6,-9.1,-1.3,7,-357.360,3.1,100.0,20.0,14.5,32.6,33.9,0,1,0.0,0.00,0.00,0.00,0.00,4716,1023,1940,1514,313.8,321.8,349.9,350.8,26.65,22.97,27.04,25.22,325.0,325.0,355.0,355.0,99.79,99.97,99.80,99.89,-0.45,-0.40,-0.40,-0.32,-1.9,-4.5,-1.6,-1.4,92.6,69.5,88.7,77.4,95.6,69.3,90.6,78.3,92.3,66.4,89.2,76.0,88.6,64.7,87.7,74.6,0.19,-0.19,0.07,0.06,0.00,149.10,143.89,136.89,136.89,56.6,15.7,0.9143850392476902,175.3695332035247,48.97383265220632,21.60610281640743,-3.601018131859348
1.600,78.2,44.053949026857467,-78.681777091832984,180.9,114.9,-152.2,-292.6,11985.2,11985,176.8,0,1,1,0,1,1,0,0,0,100,1,1.186,26.0,0.0,0.024,48.179,66.0,58.0,26.0,26.0,26.0,26.0,-0.31,-1.19,-0.18,388.7,-1.94,-2.67,-1.35,-1.51,-719.57,615.02,5.7,0.00,0.00,0.00,0.00,0.05,-7.49,-7.49,-0.28,-4.14,-0.43,8.92,49.07,-0.28,-0.82,4.09,100.0,0,0,134.07,0,0,0.0,0,0,0,0,7151,0,30.00,4,176.8,0,0,0.0,0.0,0.0,0.0,0,0,1.617,1.617,49.961,17.806,0,110.00,435.8,8750,0.0,0.0,110.0,110.0,433.0,0.00,0,0,1,333.3,64.5,64.5,90.5,90.5,34.0,-45.97,-0.0,-19.8,-1.8,7,-357.410,1.2,100.0,29.1,20.3,25.0,19.3,0,1,0.0,0.00,0.00,0.00,0.00,5719,4568,2638,1447,310.5,313.1,348.5,350.9,26.65,22.97,27.04,25.22,325.0,325.0,355.0,355.0,99.79,99.97,99.80,99.89,-0.44,-0.31,-0.59,-0.41,-1.9,-4.3,-2.1,-3.1,92.6,69.5,88.7,77.3,95.6,69.3,90.6,78.2,92.3,66.4,89.1,75.9,88.6,64.7,87.7,74.5,0.11,-0.11,0.09,0.09,0.00,147.37,144.53,134.77,133.36,56.6,15.7,1.2428193754524428,173.5690246497164,47.89352749716036,-39.61118835449042,-21.606101962871662
1.650,80.6,44.053927443138925,-78.681771246242548,61.9,258.0,3.1,118.9,11987.7,11988,174.4,0,1,1,0,1,1,0,0,0,100,1,1.186,26.0,0.0,0.027,48.179,66.0,67.3,26.0,26.0,26.0,26.0,-0.30,-1.29,0.38,379.4,-2.96,-2.95,-1.22,-1.44,-718.92,612.62,5.7,0.00,0.00,0.00,0.00,0.05,-7.49,-7.49,-0.32,1.52,0.07,5.90,48.40,-0.31,-0.85,3.80,100.0,0,0,133.53,0,0,0.0,0,0,0,0,7123,0,30.00,4,174.4,1,0,0.0,0.0,0.0,0.0,0,0,1.668,1.668,49.961,17.806,1,110.00,435.8,8750,0.0,0.0,110.0,110.0,433.0,0.00,0,0,1,166.7,53.5,53.5,78.7,78.7,34.0,-42.48,17.9,-41.7,-6.5,7,-357.460,-3.2,100.0,32.2,33.2,25.2,25.2,0,1,0.0,0.00,0.00,0.00,0.00,6304,6171,4499,3172,309.6,307.7,344.7,346.4,26.65,22.97,27.04,25.21,325.0,325.0,355.0,355.0,99.79,99.97,99.80,99.89,-0.24,-0.10,-0.67,-0.41,-2.3,-2.3,-1.9,-1.6,92.6,69.5,88.7,77.3,95.6,69.3,90.5,78.2,92.3,66.4,89.1,75.9,88.6,64.8,87.6,74.5,-0.14,0.18,0.09,0.08,0.00,145.13,144.46,133.76,133.30,56.6,15.7,1.3778606605894517,171.40841436807565,46.81322245591915,-93.62644496874111,-32.40915351333115
1.700,83.0,44.053906219149027,-78.681765400652097,-62.7,-35.0,80.1,133.3,11990.0,11990,171.9,0,1,1,0,1,1,0,0,0,100,1,1.186,26.0,0.0,0.030,48.179,66.0,71.0,26.0,26.0,26.0,26.0,-0.20,-1.54,0.16,377.3,-2.87,-3.35,-1.61,-1.64,-718.27,610.26,5.7,0.00,0.00,0.00,0.00,0.05,-7.49,-7.49,-0.26,-0.31,-0.01,-6.42,47.70,-0.32,-0.83,0.40,100.0,0,0,132.11,0,0,0.0,0,0,0,0,7047,0,30.00,4,171.9,0,0,0.0,0.0,0.0,0.0,0,0,1.719,1.719,49.961,17.806,0,110.00,435.8,8750,0.0,0.0,110.0,110.0,433.0,0.00,0,0,1,166.7,58.2,58.2,72.5,72.5,34.0,-18.76,21.7,-49.1,-0.7,7,-357.510,-7.9,100.0,29.0,31.4,29.2,31.9,0,1,0.0,0.00,0.00,0.00,0.00,5912,5230,5184,4757,310.9,309.7,342.4,342.1,26.65,22.97,27.04,25.21,325.0,325.0,355.0,355.0,99.79,99.97,99.80,99.89,0.01,0.09,-0.50,-0.26,-3.1,-3.7,-1.5,-1.4,92.6,69.5,88.7,77.3,95.6,69.4,90.5,78.2,92.3,66.5,89.0,75.9,88.6,64.8,87.6,74.5,-0.40,0.43,0.08,0.06,0.00,142.29,140.92,132.12,132.11,56.6,15.7,1.5611534197509225,164.20638015284229,44.65261214582725,-144.04068402015497,-43.212206201838015
1.750,85.3,44.053886434073696,-78.681760094654635,-19.6,-108.9,-18.2,-45.0,11992.4,11992,169.6,0,1,1,0,1,1,0,0,0,100,1,1.186,26.0,0.0,0.030,48.179,66.0,71.0,26.0,26.0,26.0,26.0,0.03,-1.41,-0.11,383.5,-2.17,-2.60,-1.33,-1.13,-717.68,608.06,5.8,0.00,0.00,0.00,0.00,0.05,-7.49,-7.49,-0.35,-1.94,-0.21,-3.63,47.06,-0.24,-0.87,-2.40,100.0,0,0,128.97,0,0,0.0,0,0,0,0,6880,0,30.00,4,169.6,1,0,0.0,0.0,0.0,0.0,0,0,1.767,1.767,49.961,17.806,1,110.00,435.8,8750,0.0,0.0,110.0,110.0,433.0,0.00,0,0,1,333.3,63.0,63.0,79.0,79.0,34.0,0.08,26.5,-18.4,0.5,7,-357.560,-11.2,100.0,28.1,26.0,28.2,29.6,0,1,0.0,0.00,0.00,0.00,0.00,4347,5509,3473,1897,313.8,309.8,346.8,349.9,26.65,22.97,27.04,25.21,325.0,325.0,355.0,355.0,99.79,99.97,99.80,99.89,0.25,0.32,-0.31,-0.14,-3.1,-4.0,-2.2,-2.6,92.6,69.5,88.7,77.3,95.6,69.4,90.4,78.1,92.2,66.5,89.0,75.8,88.5,64.9,87.5,74.4,-0.62,0.61,0.08,0.06,0.00,139.33,139.06,129.35,128.60,56.6,15.7,1.4146024176424978,157.00434596606016,42.49200183573535,-46.81322234211393,-14.404067975247727
1.800,87.7,44.053867008727003,-78.681754788657159,-3.5,-6.3,-51.5,-152.1,11994.7,11995,167.3,0,1,1,0,1,1,0,0,0,100,1,1.186,26.0,0.0,0.033,48.179,66.0,71.0,26.0,26.0,26.0,26.0,0.10,-1.46,-0.24,386.7,-3.35,-2.66,-1.36,-1.44,-717.09,605.90,5.8,0.00,0.00,0.00,0.00,0.05,-7.49,-7.49,-0.40,-0.59,-0.12,6.24,46.42,-0.09,-0.83,-5.51,100.0,0,0,126.74,0,0,0.0,0,0,0,0,6761,0,30.00,4,167.3,0,0,0.0,0.0,0.0,0.0,1,0,1.815,1.815,49.961,17.806,0,110.00,435.8,8750,0.0,0.0,110.0,110.0,433.0,0.00,0,0,1,333.3,64.7,64.7,86.7,86.7,34.0,-2.37,14.0,-5.2,10.6,7,-357.610,-12.6,100.0,27.9,25.7,25.7,22.0,0,1,0.0,0.00,0.00,0.00,0.00,4890,4033,2233,3419,313.2,314.0,350.0,346.5,26.65,22.97,27.04,25.21,325.0,325.0,355.0,355.0,99.79,99.97,99.80,99.89,0.33,0.44,-0.11,0.10,-3.4,-5.4,-3.3,-2.7,92.6,69.5,88.7,77.3,95.5,69.5,90.4,78.1,92.2,66.5,88.9,75.8,88.5,64.9,87.5,74.4,-0.73,0.73,0.09,0.09,0.00,137.39,134.88,126.13,127.35,56.6,15.7,1.48296999295333,159.5250579186309,43.212205348302476,97.22746167804047,28.80813765756649
1.850,89.9,44.053846594126554,-78.681749302795353,-145.4,-49.1,-62.5,102.2,11997.0,11997,164.8,0,1,1,0,1,1,0,0,0,100,1,1.186,26.0,0.0,0.039,48.179,66.0,72.6,26.0,26.0,26.0,26.0,0.20,-1.30,-0.31,389.7,-3.03,-2.81,-1.56,-2.19,-716.48,603.63,5.8,0.00,0.00,0.00,0.00,0.05,-7.49,-7.49,-0.53,-4.61,0.14,2.30,45.74,0.07,-0.79,-5.66,100.0,0,0,125.13,0,0,0.0,0,0,0,0,6675,0,30.00,4,164.8,1,0,0.0,0.0,0.0,0.0,1,0,1.866,1.866,49.961,17.806,1,110.00,435.8,8750,0.0,0.0,110.0,110.0,433.0,0.00,0,0,1,333.3,71.4,71.4,84.8,84.8,34.0,0.68,17.0,-2.5,15.7,7,-357.660,-12.9,100.0,20.6,23.2,22.5,27.1,0,1,0.0,0.00,0.00,0.00,0.00,2832,4679,2104,2609,318.0,312.3,350.2,348.1,26.65,22.97,27.03,25.21,325.0,325.0,355.0,355.0,99.79,99.97,99.80,99.89,0.59,0.67,0.10,0.31,-7.8,-6.1,-2.4,-2.5,92.6,69.5,88.7,77.3,95.5,69.5,90.3,78.1,92.2,66.6,88.9,75.8,88.5,64.9,87.4,74.4,-0.75,0.73,0.10,0.08,0.00,128.44,132.28,124.98,125.29,56.6,15.7,1.351332675546625,166.7270921338642,45.372815601492,0.0,7.202033418600209
1.900,92.2,44.053825370136650,-78.681743457204917,63.4,53.6,-105.3,-97.5,11999.3,11999,162.2,0,1,1,0,1,1,0,0,0,100,1,1.186,26.0,0.0,0.039,48.179,66.0,75.7,26.0,26.0,26.0,26.0,0.37,-1.65,-0.18,386.6,-3.67,-2.43,-1.98,-1.27,-715.83,601.27,5.8,0.00,0.00,0.00,0.00,0.06,-7.49,-7.49,-0.80,-3.13,0.20,1.52,44.99,0.20,-0.86,-7.61,100.0,0,0,121.17,0,0,0.0,0,0,0,0,6463,0,30.00,4,162.2,0,0,0.0,0.0,0.0,0.0,1,0,1.920,1.920,49.961,17.806,0,110.00,435.8,8750,0.0,0.0,110.0,110.0,433.0,0.00,0,0,1,166.7,60.1,60.1,91.8,91.8,34.0,10.02,66.0,0.2,19.0,7,-357.710,-13.3,100.0,23.8,25.9,17.3,22.3,0,1,0.0,0.00,0.00,0.00,0.00,6884,7066,1728,2945,309.2,305.5,351.5,347.5,26.65,22.97,27.03,25.21,325.0,325.0,355.0,355.0,99.79,99.97,99.80,99.89,0.64,0.83,0.34,0.54,-3.9,-3.6,-5.6,-2.8,92.6,69.5,88.7,77.3,95.6,69.6,90.2,78.0,92.2,66.7,88.8,75.7,88.5,65.0,87.4,74.3,-0.76,0.75,0.09,0.08,0.00,133.73,134.01,119.26,123.08,56.6,15.7,1.7005293293560095,159.5250579186309,43.9324086901625,-194.45492392510516,-39.61118863900225
1.950,94.4,44.053806754179412,-78.681738331071770,109.6,201.7,-15.5,15.2,12001.5,12001,159.6,0,1,1,0,1,1,0,0,0,100,1,1.186,26.0,0.0,0.045,48.179,66.0,78.1,26.0,26.0,26.0,26.0,0.53,-1.76,0.05,382.3,-3.59,-2.41,-1.53,-0.47,-715.26,599.20,5.8,0.00,0.00,0.00,0.00,0.06,-7.49,-7.49,-0.72,4.24,0.21,-1.71,44.27,0.33,-0.81,-11.17,100.0,0,0,120.17,0,0,0.0,0,0,0,0,6410,0,30.00,4,159.6,1,0,0.0,0.0,0.0,0.0,1,0,1.968,1.968,49.961,17.806,1,110.00,435.8,8750,0.0,0.0,110.0,110.0,433.0,0.00,0,0,1,166.7,54.6,54.6,82.8,82.8,34.0,10.50,77.9,6.9,24.1,7,-357.760,-14.4,100.0,29.3,36.0,16.5,23.0,0,1,0.0,0.00,0.00,0.00,0.00,4667,7191,3172,3363,313.6,305.4,347.0,346.7,26.65,22.97,27.03,25.21,325.0,325.0,355.0,355.0,99.79,99.97,99.80,99.89,0.86,0.94,0.59,0.86,-4.6,-3.3,-4.3,-3.3,92.6,69.5,88.7,77.3,95.6,69.7,90.2,78.0,92.2,66.7,88.8,75.7,88.5,65.1,87.3,74.3,-0.82,0.82,0.11,0.08,0.00,129.27,132.03,119.53,120.82,56.6,15.7,1.8387495751189176,147.2815997413537,41.411696737591775,-104.42949595017694,-10.803050981435831
2.000,96.6,44.053788587882970,-78.681733115006452,-86.6,-47.4,228.8,215.9,12003.7,12004,157.0,0,1,1,0,1,1,0,0,0,100,1,1.186,26.0,0.0,0.048,48.179,66.0,78.1,26.0,26.0,26.0,26.0,0.58,-1.29,0.05,380.2,-3.37,-2.50,-1.94,-0.90,-714.68,597.18,5.9,0.00,0.00,0.00,0.00,0.06,-7.49,-7.49,-0.55,1.11,0.21,0.17,43.56,0.47,-0.76,-10.80,100.0,0,0,120.20,0,0,0.0,0,0,0,0,6412,0,30.00,4,157.0,0,0,0.0,0.0,0.0,0.0,1,0,2.016,2.016,49.961,17.806,0,110.00,435.8,8750,0.0,0.0,110.0,110.0,433.0,0.00,0,0,1,166.7,64.4,64.4,71.6,71.6,34.0,0.50,41.4,15.0,73.5,7,-357.810,-14.7,100.0,24.9,33.6,27.9,33.8,0,1,0.0,0.00,0.00,0.00,0.00,2144,5462,2710,5480,319.7,310.8,347.6,340.8,26.65,22.97,27.03,25.21,325.0,325.0,355.0,355.0,99.79,99.97,99.80,99.89,1.11,1.13,0.85,1.05,-8.6,-4.8,-1.8,-1.7,92.6,69.5,88.7,77.3,95.6,69.8,90.2,78.0,92.2,66.8,88.7,75.7,88.5,65.1,87.3,74.3,-0.85,0.86,0.08,0.05,0.00,120.16,127.54,119.55,120.85,56.6,15.7,1.4152738250953418,149.0821083236132,42.85210359201891,-7.20203427213562,18.00508553808335
2.050,98.7,44.053769522264922,-78.681727629144660,-116.6,-68.3,-15.7,10.2,12005.8,12006,154.6,1,1,1,0,1,1,0,0,0,100,1,1.186,26.0,0.0,0.051,48.179,66.0,78.1,26.0,26.0,26.0,26.0,0.57,-1.31,-0.24,383.7,-2.97,-3.01,-2.36,-1.42,-714.07,595.06,5.9,0.00,0.00,0.00,0.00,0.06,-7.49,-7.49,-0.66,-4.32,-0.07,-7.05,42.88,0.53,-0.79,-8.85,100.0,0,0,117.40,0,0,0.0,0,0,0,0,6262,0,30.00,4,154.6,1,0,0.0,0.0,0.0,0.0,1,0,2.067,2.067,49.961,17.806,1,110.00,435.8,8750,0.0,0.0,110.0,110.0,433.0,0.00,0,0,1,333.3,67.4,67.4,74.9,74.9,34.0,-1.08,46.4,10.0,38.2,7,-357.860,-15.6,100.0,19.1,30.2,27.2,34.3,0,1,0.0,0.00,0.00,0.00,0.00,3485,5369,2035,3198,317.0,310.4,349.8,345.9,26.65,22.97,27.03,25.21,325.0,325.0,355.0,355.0,99.79,99.97,99.80,99.89,1.31,1.39,0.98,1.11,-12.1,-4.7,-2.3,-2.4,92.6,69.5,88.7,77.3,95.6,69.8,90.1,78.0,92.2,66.9,88.7,75.7,88.5,65.2,87.2,74.3,-0.89,0.87,0.09,0.06,0.00,114.71,125.27,116.97,117.84,56.6,15.7,1.4486545481929087,146.56139631414013,43.21220529140011,-54.01525689876223,7.202034556647519
2.100,100.9,44.053751985493612,-78.681722323147184,144.6,-35.8,-186.2,-147.7,12007.9,12008,152.0,0,1,1,0,1,1,0,0,0,100,1,1.186,26.0,0.0,0.054,48.179,66.0,78.1,26.0,26.0,26.0,26.0,0.67,-1.55,-0.01,385.2,-2.72,-3.56,-3.00,-1.49,-713.48,593.11,5.9,0.00,0.00,0.00,0.00,0.06,-7.49,-7.49,-0.81,-1.69,-0.25,0.01,42.18,0.63,-0.81,-11.99,100.0,0,0,114.05,0,0,0.0,0,0,0,0,6084,0,30.00,4,152.0,0,0,0.0,0.0,0.0,0.0,1,0,2.115,2.115,49.961,17.806,0,110.00,435.8,8750,0.0,0.0,110.0,110.0,433.0,0.00,0,0,1,333.3,60.0,60.0,89.9,89.9,34.0,35.30,52.3,5.0,25.8,7,-357.910,-19.1,100.0,26.3,28.4,17.9,26.9,0,1,0.0,0.00,0.00,0.00,0.00,5132,6697,1625,2532,312.3,307.4,350.7,348.8,26.65,22.97,27.03,25.21,325.0,325.0,355.0,355.0,99.79,99.97,99.80,99.89,1.46,1.60,1.14,1.33,-3.9,-5.4,-4.4,-3.0,92.6,69.5,88.7,77.3,95.6,69.9,90.1,78.0,92.3,66.9,88.6,75.7,88.6,65.3,87.2,74.3,-1.06,1.06,0.10,0.08,0.00,123.72,123.54,113.01,115.10,56.6,15.7,1.6886385048316293,143.68058263373698,43.572307047683665,-10.803050981435831,21.6061031009189
2.150,102.9,44.053733639332847,-78.681716747353221,-21.0,4.1,-8.9,-18.7,12010.0,12010,149.4,0,1,1,0,1,1,0,0,0,100,1,1.186,26.0,0.0,0.057,48.179,66.0,74.9,26.0,26.0,26.0,26.0,0.65,-1.34,-0.22,387.2,-2.79,-2.13,-2.24,-1.02,-712.86,591.07,5.9,0.00,0.00,0.00,0.00,0.06,-7.49,-7.49,-0.79,0.25,-0.02,8.87,41.45,0.79,-0.75,-14.93,100.0,0,0,113.09,0,0,0.0,0,0,0,0,6032,0,30.00,4,149.4,1,0,0.0,0.0,0.0,0.0,1,0,2.166,2.166,49.961,17.806,1,110.00,435.8,8750,0.0,0.0,110.0,110.0,433.0,0.00,0,0,1,333.3,66.8,66.8,86.1,86.1,34.0,2.77,20.7,18.9,44.4,7,-357.960,-23.0,100.0,25.3,28.6,17.4,26.0,0,1,0.0,0.00,0.00,0.00,0.00,2230,4976,2798,3706,319.4,312.1,348.3,345.6,26.65,22.97,27.03,25.21,325.0,325.0,355.0,355.0,99.79,99.97,99.80,99.89,1.79,1.83,1.36,1.58,-7.5,-6.7,-3.2,-3.1,92.6,69.6,88.7,77.3,95.6,70.0,90.0,78.0,92.3,67.0,88.6,75.7,88.6,65.3,87.1,74.3,-1.30,1.30,0.10,0.08,0.00,115.64,119.33,112.53,113.65,56.6,15.7,1.5054899534702981,145.48109121599654,45.372815601492,-50.41423962043751,10.803050981435831
2.200,105.0,44.053715652900728,-78.681710991694942,-189.5,-8.6,18.8,134.0,12012.0,12012,147.2,1,1,1,0,1,1,0,0,0,100,1,1.186,26.0,0.0,0.060,48.179,66.0,67.3,26.0,26.0,26.0,26.0,0.80,-1.27,-0.14,386.7,-2.77,-1.05,-1.56,-1.10,-712.22,589.07,5.9,0.00,0.00,0.00,0.00,0.06,-7.49,-7.49,-0.95,-4.85,0.28,0.87,40.82,0.84,-0.78,-11.54,100.0,0,0,111.19,0,0,0.0,0,0,0,0,5931,0,30.00,4,147.2,0,0,0.0,0.0,0.0,0.0,1,0,2.217,2.217,49.961,17.806,0,110.00,435.8,8750,0.0,0.0,110.0,110.0,433.0,0.00,0,0,1,333.3,68.4,68.4,82.2,82.2,34.0,-2.30,76.6,14.7,39.0,7,-358.010,-24.7,100.0,15.8,28.2,18.3,32.7,0,1,0.0,0.00,0.00,0.00,0.00,4067,6560,2124,3095,316.1,308.1,350.0,346.9,26.65,22.97,27.03,25.21,325.0,325.0,355.0,355.0,99.79,99.97,99.80,99.89,2.11,2.23,1.42,1.61,-12.4,-3.9,-3.3,-2.6,92.6,69.6,88.7,77.3,95.6,70.1,90.0,78.0,92.3,67.1,88.5,75.7,88.6,65.4,87.1,74.3,-1.43,1.40,0.11,0.06,0.00,112.68,120.74,110.51,111.87,56.6,15.7,1.5074813431681338,138.63915867169322,44.65261214582725,-93.62644525325237,-5.690235838073932e-07
2.250,107.0,44.053699015451024,-78.681705595765308,172.0,115.4,-191.5,-110.1,12014.1,12014,145.1,0,1,1,0,1,1,0,0,0,100,1,1.186,26.0,0.0,0.066,48.179,66.0,66.5,26.0,26.0,26.0,26.0,1.07,-1.23,-0.02,385.0,-2.64,-2.86,-1.89,-0.85,-711.62,587.22,5.9,0.00,0.00,0.00,0.00,0.06,-7.49,-7.49,-0.97,3.51,0.32,-0.94,40.25,0.90,-0.78,-18.32,100.0,0,0,104.36,0,0,0.0,0,0,0,0,5567,0,30.00,4,145.1,1,0,0.0,0.0,0.0,0.0,1,0,2.265,2.265,49.961,17.806,1,110.00,435.8,8750,0.0,0.0,110.0,110.0,433.0,0.00,0,0,1,333.3,54.9,54.9,95.2,95.2,34.0,48.08,140.1,0.0,51.7,7,-358.060,-23.4,100.0,24.4,34.0,8.8,27.2,0,1,0.0,0.00,0.00,0.00,0.00,4882,8914,0,3509,312.1,301.3,355.0,346.0,26.65,22.97,27.03,25.21,325.0,325.0,355.0,355.0,99.79,99.97,99.80,99.89,1.98,2.13,0.00,1.94,-3.5,-3.1,0.0,-2.0,92.5,69.6,88.7,77.3,95.6,70.2,89.9,78.0,92.3,67.2,88.4,75.7,88.6,65.5,87.0,74.3,-1.37,1.36,0.13,0.07,0.00,118.81,120.86,96.79,111.93,56.6,15.7,1.6303987242389513,136.1184466906713,45.37281554458964,-14.404068259759697,36.0101710761667
2.300,109.0,44.053681658544029,-78.681699660242714,-6.4,142.1,244.9,77.2,12016.0,12016,142.6,0,1,1,0,1,1,0,0,0,100,1,1.186,26.0,0.0,0.066,48.179,66.0,62.2,26.0,26.0,26.0,26.0,1.20,-1.34,0.18,378.4,-3.14,-1.74,-2.02,-1.15,-710.96,585.29,5.9,0.00,0.00,0.00,0.00,0.07,-7.49,-7.49,-0.66,6.14,0.09,-5.43,39.55,1.07,-0.63,-22.31,100.0,0,0,108.10,0,0,0.0,0,0,0,0,5766,0,30.00,4,142.6,0,0,0.0,0.0,0.0,0.0,0,0,2.316,2.316,49.961,17.806,0,110.00,435.8,8750,0.0,0.0,110.0,110.0,433.0,0.00,0,0,1,166.7,55.4,55.4,70.4,70.4,34.0,6.55,140.9,21.0,79.2,7,-358.110,-19.8,100.0,24.1,41.1,21.0,31.1,0,1,0.0,0.00,0.00,0.00,0.00,2912,8651,2690,4961,318.0,301.9,348.7,342.4,26.65,22.97,27.02,25.21,325.0,325.0,355.0,355.0,99.79,99.97,99.80,99.89,1.92,2.04,2.22,2.43,-6.8,-2.8,-4.1,-2.2,92.5,69.6,88.7,77.3,95.6,70.3,89.9,78.0,92.3,67.3,88.4,75.7,88.6,65.6,87.0,74.3,-1.17,1.19,0.10,0.07,0.00,112.19,119.42,106.51,109.70,56.6,15.7,1.8077610461562668,137.19875184571725,48.25362925344392,-61.2172906018742,25.20712009473087
2.350,110.9,44.053664751297838,-78.681693544855790,16.1,-4.1,105.7,260.3,12018.0,12018,140.2,0,1,1,0,1,1,0,0,0,100,1,1.186,26.0,0.0,0.069,48.179,66.0,53.3,26.0,26.0,26.0,26.0,1.54,-1.29,0.43,371.1,-4.81,-2.47,-1.26,-1.60,-710.28,583.41,5.9,0.00,0.00,0.00,0.00,0.07,-7.49,-7.49,-0.40,4.38,0.01,-0.86,38.89,1.11,-0.63,-20.84,100.0,0,0,107.49,0,0,0.0,0,0,0,0,5734,0,30.00,4,140.2,1,0,0.0,0.0,0.0,0.0,0,0,2.367,2.367,49.961,17.806,1,110.00,435.8,8750,0.0,0.0,110.0,110.0,433.0,0.00,0,0,1,333.3,51.3,51.3,66.6,66.6,34.0,39.08,174.4,35.5,117.4,7,-358.160,-16.5,100.0,24.9,40.9,26.3,44.1,0,1,0.0,0.00,0.00,0.00,0.00,5298,9361,2754,6427,312.6,299.7,348.1,338.7,26.65,22.97,27.02,25.21,325.0,325.0,355.0,355.0,99.79,99.97,99.80,99.89,1.77,1.96,2.30,2.45,-3.3,-2.1,-2.0,-1.8,92.5,69.6,88.6,77.3,95.6,70.4,89.9,78.0,92.3,67.4,88.4,75.7,88.6,65.7,87.0,74.4,-0.97,1.01,0.09,0.05,0.00,115.85,118.25,106.44,108.55,56.6,15.7,2.054409890941922,129.9967176304839,47.89352755406273,-93.626444684229,10.803051550459557
2.400,112.8,44.053649193034055,-78.681687699265353,-109.1,-43.5,-9.4,18.4,12019.9,12020,138.5,0,1,1,0,1,1,0,0,0,100,1,1.186,26.0,0.0,0.072,48.179,66.0,45.3,26.0,26.0,26.0,26.0,1.29,-1.02,0.18,376.7,-3.88,-2.31,-2.09,-1.13,-709.63,581.68,5.9,0.00,0.00,0.00,0.00,0.07,-7.49,-7.49,-0.19,2.98,-0.17,-6.44,38.42,1.11,-0.58,-17.55,100.0,0,0,106.64,0,0,0.0,0,0,0,0,5688,0,30.00,4,138.5,0,0,0.0,0.0,0.0,0.0,0,0,2.415,2.415,49.961,17.806,0,110.00,435.8,8750,0.0,0.0,110.0,110.0,433.0,0.00,0,0,1,333.3,62.5,62.5,65.5,65.5,34.0,5.49,101.8,49.8,104.2,7,-358.210,-15.6,100.0,19.4,38.7,25.8,45.0,0,1,0.0,0.00,0.00,0.00,0.00,2745,6179,3628,5666,318.4,308.0,346.5,340.4,26.65,22.97,27.02,25.21,325.0,325.0,355.0,355.0,99.79,99.97,99.80,99.89,1.95,2.00,2.26,2.41,-6.8,-2.2,-1.5,-1.4,92.5,69.6,88.6,77.3,95.6,70.5,89.8,78.1,92.3,67.5,88.4,75.8,88.5,65.8,86.9,74.4,-0.92,0.92,0.09,0.05,0.00,109.73,115.87,105.96,107.32,56.6,15.7,1.6543578814754685,127.83610737729435,49.333934408489874,-3.601016993811754,46.81322262662633
2.450,114.7,44.053632825380824,-78.681681224149784,-160.3,-277.2,28.4,-20.1,12021.8,12022,137.1,1,1,1,0,1,1,0,0,0,100,1,1.186,26.0,0.0,0.075,48.179,66.0,36.4,26.0,26.0,26.0,26.0,0.87,-0.65,-0.29,386.5,-2.91,-1.70,-2.50,-0.52,-708.91,579.86,6.0,0.00,0.00,0.00,0.00,0.07,-7.49,-7.49,-0.25,-5.34,-0.39,-6.19,38.04,1.04,-0.58,-9.69,100.0,0,0,105.06,0,0,0.0,0,0,0,0,5604,0,30.00,4,137.1,1,0,0.0,0.0,0.0,0.0,0,0,2.466,2.466,49.961,17.806,1,110.00,435.8,8750,0.0,0.0,110.0,110.0,433.0,0.00,0,0,1,333.3,79.5,79.5,75.6,75.6,34.0,-0.17,49.6,7.1,116.3,7,-358.260,-15.8,100.0,11.4,24.8,27.3,44.0,0,1,0.0,0.00,0.00,0.00,0.00,619,3567,889,6129,323.2,314.9,352.7,339.5,26.64,22.97,27.02,25.21,325.0,325.0,355.0,355.0,99.79,99.97,99.80,99.89,2.13,2.13,1.96,2.06,-17.1,-2.5,-2.1,-1.0,92.5,69.6,88.6,77.3,95.6,70.5,89.8,78.1,92.2,67.5,88.3,75.8,88.5,65.8,86.9,74.4,-0.89,0.89,0.09,0.05,0.00,97.10,113.69,103.93,106.18,56.6,15.7,1.1240551587889271,129.6366159311027,52.57484981672536,-39.611188354490565,25.207119525707355
2.500,116.6,44.053616817456238,-78.681674569169900,69.4,-7.0,-136.1,-300.0,12023.7,12024,135.8,0,1,1,0,1,1,0,0,0,100,1,1.186,26.0,0.0,0.075,48.179,66.0,23.9,26.0,26.0,26.0,26.0,0.88,-0.54,-0.28,390.2,-2.91,-2.23,-1.86,0.37,-708.17,578.08,6.0,0.00,0.00,0.00,0.00,0.07,-7.49,-7.49,-0.59,-4.94,-0.77,-4.14,37.67,0.91,-0.67,-12.44,100.0,0,0,104.11,0,0,0.0,0,0,0,0,5553,0,30.00,4,135.8,0,0,0.0,0.0,0.0,0.0,0,0,2.517,2.517,49.961,17.806,0,110.00,435.8,8750,0.0,0.0,110.0,110.0,433.0,0.00,0,0,1,333.3,71.3,71.3,84.2,84.2,34.0,36.66,110.8,6.4,34.2,7,-358.310,-18.2,100.0,14.9,24.5,20.4,29.0,0,1,0.0,0.00,0.00,0.00,0.00,3313,6186,807,2795,317.1,308.4,353.1,349.1,26.64,22.97,27.02,25.20,325.0,325.0,355.0,355.0,99.79,99.97,99.80,99.89,1.96,2.09,1.80,1.88,-1.8,-1.3,-1.5,-1.6,92.5,69.6,88.6,77.3,95.5,70.6,89.7,78.1,92.2,67.5,88.3,75.8,88.5,65.8,86.8,74.4,-1.04,1.02,0.10,0.07,0.00,113.39,114.56,103.47,104.76,56.6,15.7,1.0697663296253066,123.8749885418453,51.85464636106061,-72.02034243684565,-5.690237259159403e-07
2.550,118.5,44.053601888717580,-78.681668273918660,50.2,9.7,-134.2,-140.9,12025.6,12026,134.8,0,1,1,0,1,1,0,0,0,100,1,1.186,26.0,0.0,0.078,48.179,66.0,18.9,26.0,26.0,26.0,26.0,1.04,-0.57,-0.26,391.9,-3.24,-2.49,-1.50,-1.14,-707.47,576.42,6.0,0.00,0.00,0.00,0.00,0.07,-7.49,-7.49,-0.63,1.09,-0.83,1.71,37.42,0.98,-0.52,-16.35,100.0,0,0,104.08,0,0,0.0,0,0,0,0,5552,0,30.00,4,134.8,1,0,0.0,0.0,0.0,0.0,0,0,2.565,2.565,49.961,17.806,1,110.00,435.8,8750,0.0,0.0,110.0,110.0,433.0,0.00,0,0,1,333.3,73.9,73.9,88.5,88.5,34.0,20.04,64.7,29.8,89.9,7,-358.360,-20.1,100.0,17.4,25.0,13.7,21.9,0,1,0.0,0.00,0.00,0.00,0.00,2050,3949,2472,4955,320.0,314.1,349.1,342.3,26.64,22.97,27.02,25.20,325.0,325.0,355.0,355.0,99.79,99.97,99.80,99.89,1.96,2.00,1.95,2.19,-1.7,-1.2,-1.5,-1.1,92.5,69.6,88.6,77.3,95.5,70.6,89.7,78.1,92.1,67.6,88.2,75.8,88.4,65.9,86.8,74.4,-1.14,1.14,0.11,0.08,0.00,112.20,114.06,103.31,104.86,56.6,15.7,1.2141251994749143,122.43458168741815,52.57484975982299,7.202034272135762,39.61118806997867
2.600,120.4,44.053586240521639,-78.681661439074460,-15.1,-22.1,107.9,248.5,12027.4,12027,134.0,0,1,1,0,1,1,0,0,0,100,1,1.186,26.0,0.0,0.078,48.179,66.0,12.8,26.0,26.0,26.0,26.0,1.07,-0.37,-0.09,387.5,-1.63,-2.21,-1.82,0.10,-706.71,574.68,6.0,0.00,0.00,0.00,0.00,0.07,-7.49,-7.49,-0.68,-1.96,-0.55,8.55,37.19,0.93,-0.50,-14.83,100.0,0,0,103.72,0,0,0.0,0,0,0,0,5533,0,30.00,4,134.0,0,0,0.0,0.0,0.0,0.0,0,0,2.616,2.616,49.961,17.806,0,110.00,435.8,8750,0.0,0.0,110.0,110.0,433.0,0.00,0,0,1,166.7,72.8,72.8,85.8,85.8,34.0,33.71,84.0,14.3,88.8,7,-358.410,-20.5,100.0,16.6,23.9,19.1,34.4,0,1,0.0,0.00,0.00,0.00,0.00,2633,4886,1360,5088,318.3,312.2,351.5,342.3,26.64,22.97,27.02,25.20,325.0,325.0,355.0,355.0,99.79,99.97,99.80,99.89,1.95,2.02,1.80,1.97,-0.9,-0.9,-0.7,-0.7,92.5,69.6,88.6,77.3,95.4,70.6,89.6,78.1,92.1,67.6,88.2,75.8,88.4,65.9,86.7,74.4,-1.19,1.17,0.10,0.06,0.00,112.36,113.78,103.08,104.37,56.6,15.7,1.1357376457615553,124.59519196905887,55.815765168058476,7.202034272135904,50.414239620438295
2.650,122.2,44.053570772190014,-78.681654334433773,102.6,90.0,-83.3,77.9,12029.3,12029,133.2,0,1,1,0,1,1,0,0,0,100,1,1.186,26.0,0.0,0.081,48.179,66.0,13.4,26.0,26.0,26.0,26.0,1.17,-0.40,0.10,383.5,-3.27,-1.57,-2.41,-0.39,-705.92,572.96,6.0,0.00,0.00,0.00,0.00,0.07,-7.49,-7.49,-0.70,1.87,-0.09,8.45,36.99,0.89,-0.52,-17.42,100.0,0,0,103.10,0,0,0.0,0,0,0,0,5499,0,30.00,4,133.2,1,0,0.0,0.0,0.0,0.0,0,0,2.667,2.667,49.961,17.806,1,110.00,435.8,8750,0.0,0.0,110.0,110.0,433.0,0.00,0,0,1,166.7,65.2,65.2,89.3,89.3,34.0,30.86,118.2,8.0,110.3,7,-358.460,-20.6,100.0,21.8,28.4,15.0,38.3,0,1,0.0,0.00,0.00,0.00,0.00,2653,6493,998,5803,317.5,307.8,352.8,340.0,26.64,22.97,27.02,25.20,325.0,325.0,355.0,355.0,99.79,99.97,99.80,99.89,1.81,1.86,1.80,1.99,-0.7,-0.8,-1.2,-0.6,92.5,69.6,88.6,77.3,95.4,70.7,89.6,78.1,92.1,67.6,88.1,75.8,88.3,65.9,86.7,74.4,-1.19,1.18,0.11,0.05,0.00,111.87,113.64,102.19,104.00,56.6,15.7,1.2405240827972666,123.15478511463174,57.61627372186682,-64.8183081647096,14.404068544271382
2.700,124.1,44.053555483722718,-78.681647049928770,-152.0,57.1,83.8,16.5,12031.1,12031,132.5,0,1,1,0,1,1,0,0,0,100,1,1.186,26.0,0.0,0.084,48.179,66.0,13.7,26.0,26.0,26.0,26.0,1.27,-0.37,0.07,382.5,-3.15,-1.49,-2.51,-1.00,-705.11,571.26,6.0,0.00,0.00,0.00,0.00,0.07,-7.49,-7.49,-0.58,1.74,0.06,-2.12,36.79,0.88,-0.44,-15.86,100.0,0,0,102.92,0,0,0.0,0,0,0,0,5490,0,30.00,4,132.5,0,0,0.0,0.0,0.0,0.0,0,0,2.718,2.718,49.961,17.806,0,110.00,435.8,8750,0.0,0.0,110.0,110.0,433.0,0.00,0,0,1,166.7,71.5,71.5,69.9,69.9,34.0,2.29,116.0,49.0,145.8,7,-358.510,-21.6,100.0,14.2,31.2,19.2,39.1,0,1,0.0,0.00,0.00,0.00,0.00,380,6133,3758,7132,323.9,307.5,346.1,337.1,26.64,22.97,27.01,25.20,325.0,325.0,355.0,355.0,99.79,99.97,99.80,99.89,2.02,2.01,1.84,2.07,-2.6,-0.6,-0.4,-0.6,92.5,69.6,88.6,77.3,95.3,70.7,89.5,78.1,92.0,67.7,88.1,75.8,88.3,66.0,86.6,74.5,-1.24,1.23,0.09,0.05,0.00,108.91,112.89,102.27,103.57,56.6,15.7,1.3246508974065583,118.11336115258791,57.256172022485615,-64.81830788019778,7.202034556647305
2.750,125.9,44.053541274441343,-78.681640035220241,-91.8,-147.9,124.4,22.0,12033.0,12033,131.9,0,1,1,0,1,1,0,0,0,100,1,1.186,26.0,0.0,0.084,48.179,66.0,21.9,26.0,26.0,26.0,26.0,0.88,-0.35,-0.28,388.3,-3.50,-1.55,-2.65,-0.87,-704.33,569.68,6.0,0.00,0.00,0.00,0.00,0.08,-7.49,-7.49,-0.70,-5.26,-0.20,-8.39,36.63,0.81,-0.43,-10.02,100.0,0,0,102.00,0,0,0.0,0,0,0,0,5441,0,30.00,4,131.9,1,0,0.0,0.0,0.0,0.0,0,0,2.766,2.766,49.961,17.806,1,110.00,435.8,8750,0.0,0.0,110.0,110.0,433.0,0.00,0,0,1,333.3,83.3,83.3,70.0,70.0,34.0,0.00,57.1,30.5,88.9,7,-358.560,-24.1,100.0,9.6,23.8,25.4,40.2,0,1,0.0,0.00,0.00,0.00,0.00,0,3603,2792,4937,325.0,314.7,348.3,342.2,26.63,22.97,27.01,25.20,325.0,325.0,355.0,355.0,99.79,99.97,99.80,99.89,0.00,2.29,1.67,1.84,0.0,-1.4,-0.7,-0.8,92.5,69.6,88.6,77.3,95.2,70.7,89.5,78.1,91.9,67.7,88.0,75.9,88.2,66.0,86.6,74.5,-1.38,1.35,0.10,0.06,0.00,97.44,110.75,101.65,102.35,56.6,15.7,0.9875727821279806,116.67295432661196,58.33647717753155,-28.808136804031363,21.606102531895317
