Time,Distance,GPS Latitude,GPS Longitude,Damper Velocity (Calc) FL,Damper Velocity (Calc) FR,Damper Velocity (Calc) RL,Damper Velocity (Calc) RR,Corr Dist,Corr Dist (Unstretched),Corr Speed,ABS Active,ABS Enabled,AID Allow Tire Blankets,AID Auto Blip,AID Auto Clutch,AID Auto Shift,AID Fuel Rate,AID Ideal Line,AID Mech Damage,AID Stability,AID Tire Wear Rate,Air Density,Air Temp,Ballast,Best Lap Delta,Best Lap Time,Brake Bias,Brake Pos,Brake Temp FL,Brake Temp FR,Brake Temp RL,Brake Temp RR,CG Accel Lateral,CG Accel Longitudinal,CG Accel Vertical,CG Height,Camber FL,Camber FR,Camber RL,Camber RR,Car Coord X,Car Coord Y,Car Coord Z,Car Damage Front,Car Damage Left,Car Damage Rear,Car Damage Right,Car Pos Norm,Caster FL,Caster FR,Chassis Pitch Angle,Chassis Pitch Rate,Chassis Roll Angle,Chassis Roll Rate,Chassis Velocity X,Chassis Velocity Y,Chassis Velocity Z,Chassis Yaw Rate,Clutch Pos,DRS Active,DRS Available,Drive Train Speed,ERS Heat Charging,ERS Is Charging,ERS Max Energy,ERS Power Level,ERS Recovery Level,Engine Brake Setting,Engine Limiter,Engine RPM,Flags,Fuel Level,Gear,Ground Speed,HR Sample Clock,In Pit,KERS Charge,KERS Deployed Energy,KERS Input,KERS Max Energy,LR Sample Clock,Lap Invalidated,Lap Time,Lap Time2,Last Lap Time,Last Sector Time,MR Sample Clock,Max Fuel,Max Power,Max RPM,Max Sus Travel FL,Max Sus Travel FR,Max Sus Travel RL,Max Sus Travel RR,Max Torque,Max Turbo Boost,Num Tires Off Track,Penalties Enabled,Position,Raw Data Sample Rate,Ride Height FL,Ride Height FR,Ride Height RL,Ride Height RR,Road Temp,Self Align Torque FL,Self Align Torque FR,Self Align Torque RL,Self Align Torque RR,Session Lap Count,Session Time Left,Steering Angle,Surface Grip,Suspension Travel FL,Suspension Travel FR,Suspension Travel RL,Suspension Travel RR,TC Active,TC Enabled,Throttle Pos,Tire Dirt Level FL,Tire Dirt Level FR,Tire Dirt Level RL,Tire Dirt Level RR,Tire Load FL,Tire Load FR,Tire Load RL,Tire Load RR,Tire Loaded Radius FL,Tire Loaded Radius FR,Tire Loaded Radius RL,Tire Loaded Radius RR,Tire Pressure FL,Tire Pressure FR,Tire Pressure RL,Tire Pressure RR,Tire Radius FL,Tire Radius FR,Tire Radius RL,Tire Radius RR,Tire Rubber Grip FL,Tire Rubber Grip FR,Tire Rubber Grip RL,Tire Rubber Grip RR,Tire Slip Angle FL,Tire Slip Angle FR,Tire Slip Angle RL,Tire Slip Angle RR,Tire Slip Ratio FL,Tire Slip Ratio FR,Tire Slip Ratio RL,Tire Slip Ratio RR,Tire Temp Core FL,Tire Temp Core FR,Tire Temp Core RL,Tire Temp Core RR,Tire Temp Inner FL,Tire Temp Inner FR,Tire Temp Inner RL,Tire Temp Inner RR,Tire Temp Middle FL,Tire Temp Middle FR,Tire Temp Middle RL,Tire Temp Middle RR,Tire Temp Outer FL,Tire Temp Outer FR,Tire Temp Outer RL,Tire Temp Outer RR,Toe In FL,Toe In FR,Toe In RL,Toe In RR,Turbo Boost,Wheel Angular Speed FL,Wheel Angular Speed FR,Wheel Angular Speed RL,Wheel Angular Speed RR,Wind Direction,Wind Speed,CG Distance,Lateral Velocity,Longitudinal Velocity,Lateral Acceleration,Longitudinal Acceleration
s,m,deg,deg,mm/s,mm/s,mm/s,mm/s,m,m,km/h,,,,,,,,,%,%,,kg/m3,C,kg,s,s,%,%,C,C,C,C,G,G,G,mm,deg,deg,deg,deg,m,m,m,,,,,,deg,deg,deg,deg/s,deg,deg/s,m/s,m/s,m/s,deg/s,%,,,rad/s,,,MJ,,,,,rpm,,l,,km/h,,,%,kJ,%,MJ,,,s,s,s,s,,l,hp,rpm,mm,mm,mm,mm,N.m,,,,,Hz,mm,mm,mm,mm,C,N.m,N.m,N.m,N.m,,s,deg,%,mm,mm,mm,mm,,,%,,,,,N,N,N,N,mm,mm,mm,mm,psi,psi,psi,psi,mm,mm,mm,mm,%,%,%,%,deg,deg,deg,deg,%,%,%,%,C,C,C,C,C,C,C,C,C,C,C,C,C,C,C,C,deg,deg,deg,deg,,rad/s,rad/s,rad/s,rad/s,deg,km/h,G,Km/h,Km/h,Km/h^2,Km/h^2
0.000,0.0,44.054620999961408,-78.681964600387815,-29.9,-42.8,23.6,-9.8,13642.9,13643,176.2,0,1,1,0,1,1,0,0,0,100,1,1.186,26.0,0.0,0.000,46.834,66.0,0.0,26.0,26.0,26.0,26.0,0.25,0.33,0.03,377.1,-2.48,-2.40,-1.37,-1.19,-740.42,689.74,5.7,0.00,0.00,0.00,0.00,0.00,-7.49,-7.49,-0.23,-0.77,0.19,-5.09,48.97,0.10,-0.37,-3.65,100.0,0,0,139.90,0,0,0.0,0,0,0,0,7462,0,30.00,4,176.2,0,0,0.0,0.0,0.0,0.0,1,0,0.027,0.027,46.834,17.023,0,110.00,435.8,8750,0.0,0.0,110.0,110.0,433.0,0.00,0,0,1,166.7,71.6,71.6,60.7,60.7,34.0,-0.04,34.91,-0.5,34.9,8,-389.380,-4.8,100.0,19.2,23.9,40.6,43.1,0,1,100.0,0.00,0.00,0.00,0.00,3803,4375,4789,5629,315.7,313.8,343.7,340.7,26.02,23.26,26.91,25.26,325.0,325.0,355.0,355.0,99.72,99.93,99.76,99.87,0.29,0.36,0.20,0.30,-0.1,-0.1,1.8,1.7,88.6,71.4,87.9,77.6,93.8,71.6,92.7,79.5,90.6,68.4,91.0,77.1,87.2,66.4,89.5,75.6,-0.27,0.27,0.07,0.04,0.00,149.99,150.21,139.90,139.90,88.0,25.5,0.4150903516103452
0.050,2.5,44.054600405496636,-78.681959384322496,-34.3,-118.8,-61.2,-51.0,13645.4,13645,176.8,0,1,1,0,1,1,0,0,0,100,1,1.186,26.0,0.0,-0.006,46.834,66.0,0.0,26.0,26.0,26.0,26.0,0.17,0.42,-0.35,382.5,-2.11,-2.15,-1.71,-0.91,-739.84,687.45,5.7,0.00,0.00,0.00,0.00,0.00,-7.49,-7.49,-0.24,-1.54,0.04,-1.63,49.12,0.16,-0.33,-3.24,100.0,0,0,140.27,0,0,0.0,0,0,0,0,7482,0,30.00,4,176.8,1,0,0.0,0.0,0.0,0.0,1,0,0.075,0.075,46.834,17.023,1,110.00,435.8,8750,0.0,0.0,110.0,110.0,433.0,0.00,0,0,1,333.3,80.7,80.7,63.9,63.9,34.0,2.48,17.10,-4.2,31.8,8,-389.430,-4.7,100.0,17.5,18.0,37.6,40.6,0,1,100.0,0.00,0.00,0.00,0.00,1475,2513,5562,5298,321.0,318.3,341.8,341.7,26.02,23.26,26.91,25.26,325.0,325.0,355.0,355.0,99.72,99.93,99.76,99.87,0.41,0.36,0.20,0.34,-0.0,-0.1,1.9,1.7,88.6,71.4,87.9,77.6,93.7,71.5,92.6,79.5,90.5,68.4,91.0,77.0,87.2,66.4,89.5,75.6,-0.26,0.27,0.07,0.05,0.00,150.24,150.51,140.27,140.27,88.0,25.5,0.5725382083319854,164.92658358005585,41.771798436972965
0.100,4.9,44.054579811031857,-78.681954168257192,15.7,-43.6,7.0,-43.7,13647.9,13648,177.3,0,1,1,0,1,1,0,0,0,100,1,1.186,26.0,0.0,-0.006,46.834,66.0,0.0,26.0,26.0,26.0,26.0,0.12,0.18,-0.24,384.4,-1.54,-2.44,-2.18,-0.68,-739.26,685.16,5.7,0.00,0.00,0.00,0.00,0.00,-7.49,-7.49,-0.47,-5.41,0.11,6.25,49.26,0.19,-0.44,-2.85,100.0,0,0,141.55,0,0,0.0,0,0,0,0,7550,0,30.00,4,177.3,0,0,0.0,0.0,0.0,0.0,1,0,0.123,0.123,46.834,17.023,0,110.00,435.8,8750,0.0,0.0,110.0,110.0,433.0,0.00,0,0,1,333.3,76.6,76.6,75.2,75.2,34.0,4.54,23.58,-3.1,12.7,8,-389.480,-3.7,100.0,18.3,15.8,37.9,38.4,0,1,100.0,0.00,0.00,0.00,0.00,4206,3254,2338,3232,314.1,316.9,349.2,347.4,26.02,23.26,26.91,25.26,325.0,325.0,355.0,355.0,99.72,99.93,99.76,99.87,0.26,0.35,0.19,0.30,-0.0,-0.1,2.2,2.1,88.6,71.4,87.9,77.6,93.6,71.5,92.6,79.4,90.4,68.3,90.9,77.0,87.1,66.4,89.4,75.6,-0.22,0.20,0.08,0.04,0.00,150.83,150.88,141.55,141.55,88.0,25.5,0.32310988842807026,169.96800754209968,43.21220529140011,158.4447528489386,46.81322319564991
0.150,7.4,44.054557957516835,-78.681948592463229,-33.7,275.3,-137.1,-114.4,13650.3,13650,177.9,0,1,1,0,1,1,0,0,0,100,1,1.186,26.0,0.0,-0.009,46.834,66.0,0.0,26.0,26.0,26.0,26.0,0.31,0.39,-0.20,381.4,-2.28,-2.63,-1.34,-1.66,-738.64,682.73,5.7,0.00,0.00,0.00,0.00,0.01,-7.49,-7.49,-0.55,1.06,0.11,-5.11,49.42,0.23,-0.42,-4.11,100.0,0,0,141.39,0,0,0.0,0,0,0,0,7542,0,30.00,4,177.9,1,0,0.0,0.0,0.0,0.0,1,0,0.174,0.174,46.834,17.023,1,110.00,435.8,8750,0.0,0.0,110.0,110.0,433.0,0.00,0,0,1,166.7,70.9,70.9,59.5,59.5,34.0,1.63,45.33,7.8,31.8,8,-389.530,-3.0,100.0,16.6,29.5,31.1,32.7,0,1,100.0,0.00,0.00,0.00,0.00,2432,4969,6153,3869,319.2,311.4,340.4,345.3,26.02,23.26,26.91,25.26,325.0,325.0,355.0,355.0,99.72,99.93,99.76,99.87,0.32,0.39,0.31,0.50,-0.1,-0.1,2.2,1.8,88.6,71.4,88.0,77.6,93.5,71.5,92.5,79.4,90.3,68.3,90.9,77.0,87.0,66.4,89.4,75.5,-0.17,0.18,0.08,0.07,0.00,151.33,151.60,141.39,141.39,88.0,25.5,0.5368426212587819,180.7710588649497,46.453120756537956,10.803051265947943,14.404068544271382
0.200,9.9,44.054534665087239,-78.681942567008463,99.5,-36.1,63.3,289.1,13652.8,13653,178.5,0,1,1,0,1,1,0,0,0,100,1,1.186,26.0,0.0,-0.009,46.834,66.0,0.0,26.0,26.0,26.0,26.0,0.33,0.28,0.22,375.7,-3.16,-3.08,-1.12,-1.78,-737.97,680.14,5.7,0.00,0.00,0.00,0.00,0.01,-7.49,-7.49,-0.50,1.45,-0.19,-10.38,49.59,0.22,-0.42,-3.36,100.0,0,0,141.82,0,0,0.0,0,0,0,0,7565,0,30.00,4,178.5,0,0,0.0,0.0,0.0,0.0,0,0,0.228,0.228,46.834,17.023,0,110.00,435.8,8750,0.0,0.0,110.0,110.0,433.0,0.00,0,0,1,166.7,67.5,67.5,62.8,62.8,34.0,-0.25,52.56,9.5,40.6,8,-389.580,-2.7,100.0,21.6,27.7,34.2,47.1,0,1,100.0,0.00,0.00,0.00,0.00,2639,5070,4842,4712,317.8,310.0,343.5,343.0,26.02,23.26,26.91,25.26,325.0,325.0,355.0,355.0,99.72,99.93,99.76,99.87,0.36,0.41,0.34,0.45,-0.0,-0.1,1.9,1.7,88.6,71.4,88.0,77.7,93.5,71.5,92.5,79.4,90.3,68.3,90.8,77.0,87.0,66.4,89.3,75.5,-0.13,0.16,0.07,0.03,0.00,152.00,152.25,141.82,141.82,88.0,25.5,0.4854894437575343,171.04831266869448,44.65261214582725,-144.0406845891789,-25.207120663754594
0.250,12.4,44.054515239740553,-78.681937440875316,-5.7,-83.5,121.1,-129.2,13655.3,13655,179.0,0,1,1,0,1,1,0,0,0,100,1,1.186,26.0,0.0,-0.009,46.834,66.0,0.0,26.0,26.0,26.0,26.0,0.30,0.37,0.20,374.9,-2.82,-2.65,-1.44,-1.66,-737.40,677.98,5.7,0.00,0.00,0.00,0.00,0.01,-7.49,-7.49,-0.45,0.61,-0.48,-1.03,49.74,0.19,-0.36,-2.18,100.0,0,0,141.60,0,0,0.0,0,0,0,0,7553,0,30.00,4,179.0,1,0,0.0,0.0,0.0,0.0,0,0,0.273,0.273,46.834,17.023,1,110.00,435.8,8750,0.0,0.0,110.0,110.0,433.0,0.00,0,0,1,333.3,70.1,70.1,59.3,59.3,34.0,-2.83,31.83,0.3,57.5,8,-389.630,-2.7,100.0,21.3,23.6,40.3,40.7,0,1,100.0,0.00,0.00,0.00,0.00,4850,3876,6556,6610,313.5,314.6,339.3,338.6,26.02,23.26,26.91,25.27,325.0,325.0,355.0,355.0,99.72,99.93,99.76,99.87,0.29,0.36,0.22,0.39,-0.1,-0.1,1.6,1.4,88.6,71.4,88.0,77.7,93.4,71.4,92.4,79.4,90.2,68.3,90.8,77.0,86.9,66.3,89.3,75.5,-0.16,0.16,0.06,0.05,0.00,152.45,152.59,141.60,141.60,88.0,25.5,0.5166236541235796,166.36699040603182,43.9324086901625,115.23254750063558,39.61118806997874
0.300,14.8,44.054493116429050,-78.681931595284880,60.0,-50.6,-48.7,29.5,13657.8,13658,179.6,0,1,1,0,1,1,0,0,0,100,1,1.186,26.0,0.0,-0.012,46.834,66.0,0.0,26.0,26.0,26.0,26.0,0.19,0.36,0.00,376.8,-1.50,-1.55,-2.03,-1.55,-736.75,675.52,5.7,0.00,0.00,0.00,0.00,0.01,-7.49,-7.49,-0.40,1.10,-0.31,6.06,49.90,0.17,-0.34,-1.87,100.0,0,0,142.38,0,0,0.0,0,0,0,0,7595,0,30.00,4,179.6,0,0,0.0,0.0,0.0,0.0,0,0,0.324,0.324,46.834,17.023,0,110.00,435.8,8750,0.0,0.0,110.0,110.0,433.0,0.00,0,0,1,333.3,70.6,70.6,68.8,68.8,34.0,4.93,19.88,-12.3,40.4,8,-389.680,-3.5,100.0,24.3,21.0,37.8,42.1,0,1,100.0,0.00,0.00,0.00,0.00,4447,3394,5106,6026,314.0,316.4,343.1,339.7,26.02,23.26,26.92,25.27,325.0,325.0,355.0,355.0,99.72,99.93,99.76,99.87,0.26,0.31,0.12,0.27,-0.1,-0.1,1.7,1.6,88.6,71.4,88.0,77.7,93.3,71.4,92.4,79.4,90.1,68.2,90.8,77.0,86.8,66.3,89.2,75.5,-0.19,0.20,0.06,0.04,0.00,152.93,152.99,142.38,142.38,88.0,25.5,0.4070626487409524,182.57156741875804,48.61373095282512,61.217291170898136,25.20712009473087
0.350,17.4,44.054469644135132,-78.681925300033640,-45.3,121.6,25.1,20.6,13660.3,13660,180.2,0,1,1,0,1,1,0,0,0,100,1,1.186,26.0,0.0,-0.015,46.834,66.0,0.0,26.0,26.0,26.0,26.0,0.20,0.34,-0.07,375.9,-2.27,-2.32,-1.75,-0.33,-736.05,672.91,5.7,0.00,0.00,0.00,0.00,0.01,-7.49,-7.49,-0.38,1.00,-0.00,1.95,50.06,0.16,-0.39,-3.08,100.0,0,0,143.12,0,0,0.0,0,0,0,0,7634,0,30.00,4,180.2,1,0,0.0,0.0,0.0,0.0,0,0,0.378,0.378,46.834,17.023,1,110.00,435.8,8750,0.0,0.0,110.0,110.0,433.0,0.00,0,0,1,166.7,69.1,69.1,58.4,58.4,34.0,1.13,38.38,-7.3,19.8,8,-389.740,-4.7,100.0,22.0,27.1,39.1,43.2,0,1,100.0,0.00,0.00,0.00,0.00,2686,4750,5446,5119,318.3,312.1,342.4,342.5,26.02,23.26,26.92,25.27,325.0,325.0,355.0,355.0,99.72,99.93,99.76,99.87,0.30,0.34,0.16,0.27,-0.1,-0.0,1.9,1.7,88.6,71.4,88.0,77.7,93.2,71.4,92.3,79.4,90.0,68.2,90.7,77.0,86.8,66.3,89.2,75.5,-0.25,0.26,0.06,0.03,0.00,153.34,153.58,143.12,143.12,88.0,25.5,0.4006245124802026,172.48871952312163,46.45312069963558,-151.2427185768027,-28.80813651951918
0.400,19.9,44.054450038924124,-78.681919994036164,-42.0,-76.8,-20.0,49.1,13662.8,13663,180.7,0,1,1,0,1,1,0,0,0,100,1,1.186,26.0,0.0,-0.015,46.834,66.0,0.0,26.0,26.0,26.0,26.0,0.30,0.37,0.07,375.9,-2.73,-1.98,-0.94,-1.52,-735.46,670.73,5.7,0.00,0.00,0.00,0.00,0.01,-7.49,-7.49,-0.38,-1.24,0.04,-2.07,50.21,0.18,-0.38,-3.48,100.0,0,0,142.99,0,0,0.0,0,0,0,0,7627,0,30.00,4,180.7,0,0,0.0,0.0,0.0,0.0,0,0,0.423,0.423,46.834,17.023,0,110.00,435.8,8750,0.0,0.0,110.0,110.0,433.0,0.00,0,0,1,333.3,72.2,72.2,60.0,60.0,34.0,1.97,45.28,4.9,57.7,8,-389.780,-5.3,100.0,19.9,23.3,38.1,45.6,0,1,100.0,0.00,0.00,0.00,0.00,2267,5127,5069,6841,319.3,311.3,342.7,337.0,26.02,23.26,26.92,25.27,325.0,325.0,355.0,355.0,99.72,99.93,99.76,99.87,0.39,0.44,0.22,0.37,-0.0,-0.1,1.6,1.5,88.6,71.4,88.0,77.7,93.2,71.3,92.3,79.4,90.0,68.2,90.7,77.0,86.7,66.3,89.2,75.5,-0.30,0.29,0.06,0.04,0.00,153.66,154.04,142.99,142.99,88.0,25.5,0.48145612468842885,167.44729556107777,45.732917300873204,57.616273608061874,25.20712009473108
0.450,22.4,44.054427825680456,-78.681913878649240,-78.2,-36.4,3.6,-171.1,13665.3,13665,181.3,0,1,1,0,1,1,0,0,0,100,1,1.186,26.0,0.0,-0.018,46.834,66.0,0.0,26.0,26.0,26.0,26.0,0.23,0.39,-0.37,382.4,-2.54,-3.14,-2.47,-1.23,-734.78,668.26,5.7,0.00,0.00,0.00,0.00,0.01,-7.49,-7.49,-0.49,-2.51,-0.28,-5.02,50.36,0.20,-0.40,-3.39,100.0,0,0,143.84,0,0,0.0,0,0,0,0,7673,0,30.00,4,181.3,1,0,0.0,0.0,0.0,0.0,0,0,0.474,0.474,46.834,17.023,1,110.00,435.8,8750,0.0,0.0,110.0,110.0,433.0,0.00,0,0,1,333.3,79.9,79.9,64.4,64.4,34.0,3.03,11.25,-2.5,44.4,8,-389.830,-4.4,100.0,16.0,21.5,38.3,37.1,0,1,100.0,0.00,0.00,0.00,0.00,2810,1525,4424,5832,318.7,320.9,342.7,340.4,26.02,23.26,26.92,25.27,325.0,325.0,355.0,355.0,99.72,99.93,99.76,99.87,0.39,0.40,0.33,0.42,-0.1,-0.0,2.0,1.7,88.6,71.4,88.0,77.7,93.1,71.3,92.3,79.3,89.9,68.2,90.6,76.9,86.6,66.2,89.1,75.5,-0.27,0.27,0.06,0.05,0.00,154.06,154.26,143.84,143.84,88.0,25.5,0.5847221562417487,178.25034688392782,48.97383270910869,61.21729088638631,21.606102531895246
0.500,24.9,44.054405522504631,-78.681907763262316,-23.5,-144.5,-105.3,8.1,13667.8,13668,181.8,0,1,1,0,1,1,0,0,0,100,1,1.186,26.0,0.0,-0.018,46.834,66.0,0.0,26.0,26.0,26.0,26.0,0.21,0.20,-0.56,388.6,-2.36,-3.03,-1.56,-2.58,-734.10,665.78,5.7,0.00,0.00,0.00,0.00,0.02,-7.49,-7.49,-0.73,-5.96,-0.39,-1.55,50.50,0.21,-0.46,-2.65,100.0,0,0,145.10,0,0,0.0,0,0,0,0,7740,0,30.00,4,181.8,0,0,0.0,0.0,0.0,0.0,0,0,0.525,0.525,46.834,17.023,0,110.00,435.8,8750,0.0,0.0,110.0,110.0,433.0,0.00,0,0,1,333.3,83.9,83.9,77.3,77.3,34.0,2.11,11.28,0.2,18.7,8,-389.880,-3.2,100.0,14.8,14.2,33.0,37.5,0,1,100.0,0.00,0.00,0.00,0.00,2413,1561,3268,2564,319.3,320.6,347.8,347.7,26.02,23.26,26.92,25.27,325.0,325.0,355.0,355.0,99.72,99.93,99.76,99.87,0.35,0.38,0.24,0.35,-0.1,-0.1,2.3,2.2,88.6,71.4,88.0,77.7,93.0,71.3,92.2,79.3,89.8,68.1,90.6,76.9,86.5,66.2,89.1,75.4,-0.18,0.19,0.07,0.06,0.00,154.41,154.68,145.10,145.10,88.0,25.5,0.6306346010171024,173.5690246497164,47.89352755406273,-43.21220534830246,-3.6010175628356933
0.550,27.4,44.054384478379049,-78.681901917671880,29.4,38.6,-81.5,-163.0,13670.4,13670,182.3,0,1,1,0,1,1,0,0,0,100,1,1.186,26.0,0.0,-0.021,46.834,66.0,0.0,26.0,26.0,26.0,26.0,0.18,0.26,-0.36,388.6,-3.17,-2.02,-1.66,-1.91,-733.45,663.44,5.7,0.00,0.00,0.00,0.00,0.02,-7.49,-7.49,-0.94,-2.88,-0.17,6.49,50.64,0.23,-0.47,-2.29,100.0,0,0,145.69,0,0,0.0,0,0,0,0,7771,0,30.00,4,182.3,1,0,0.0,0.0,0.0,0.0,0,0,0.573,0.573,46.834,17.023,1,110.00,435.8,8750,0.0,0.0,110.0,110.0,433.0,0.00,0,0,1,333.3,79.4,79.4,81.5,81.5,34.0,-7.65,15.95,-1.2,28.3,8,-389.930,-1.8,100.0,16.3,16.2,28.9,29.3,0,1,100.0,0.00,0.00,0.00,0.00,3433,2738,2497,4189,317.3,317.6,349.3,344.2,26.02,23.26,26.92,25.27,325.0,325.0,355.0,355.0,99.72,99.93,99.76,99.87,0.19,0.26,0.20,0.35,-0.0,-0.1,2.4,2.4,88.6,71.3,88.0,77.7,92.9,71.2,92.2,79.3,89.7,68.1,90.5,76.9,86.5,66.2,89.0,75.4,-0.10,0.10,0.07,0.07,0.00,155.02,155.20,145.69,145.69,88.0,25.5,0.4791659420284376,173.92912634909757,48.61373095282512,61.21729060187363,25.207119525707355
0.600,30.0,44.054362085271066,-78.681895622420640,45.8,-11.1,-32.4,135.4,13672.9,13673,182.9,0,1,1,0,1,1,0,0,0,100,1,1.186,26.0,0.0,-0.021,46.834,66.0,0.0,26.0,26.0,26.0,26.0,0.12,0.33,-0.25,385.8,-1.72,-0.78,-1.28,-0.78,-732.75,660.95,5.7,0.00,0.00,0.00,0.00,0.02,-7.49,-7.49,-1.01,-1.97,0.21,7.97,50.81,0.24,-0.41,-1.84,100.0,0,0,145.24,0,0,0.0,0,0,0,0,7747,0,30.00,4,182.9,0,0,0.0,0.0,0.0,0.0,0,0,0.624,0.624,46.834,17.023,0,110.00,435.8,8750,0.0,0.0,110.0,110.0,433.0,0.00,0,0,1,166.7,79.3,79.3,82.2,82.2,34.0,0.66,8.70,-0.9,26.4,8,-389.980,-1.7,100.0,18.6,15.6,27.3,36.1,0,1,100.0,0.00,0.00,0.00,0.00,3067,2339,3406,4663,317.3,319.2,346.2,342.9,26.02,23.25,26.92,25.27,325.0,325.0,355.0,355.0,99.72,99.93,99.76,99.87,0.22,0.25,0.17,0.35,-0.0,-0.0,1.8,1.7,88.6,71.3,88.0,77.7,92.8,71.2,92.1,79.3,89.7,68.0,90.5,76.9,86.4,66.1,89.0,75.4,-0.09,0.08,0.08,0.06,0.00,155.63,155.73,145.24,145.24,88.0,25.5,0.4310452412450461,179.69075370990376,50.414239506633464,10.803051550459202,7.202034556647519
0.650,32.5,44.054339602230918,-78.681889327169401,80.3,190.4,57.9,1.2,13675.5,13675,183.4,0,1,1,0,1,1,0,0,0,100,1,1.186,26.0,0.0,-0.024,46.834,66.0,0.0,26.0,26.0,26.0,26.0,0.18,0.26,0.07,378.6,-2.69,-1.40,-1.47,0.46,-732.05,658.45,5.7,0.00,0.00,0.00,0.00,0.02,-7.49,-7.49,-1.08,1.31,0.60,6.93,50.97,0.24,-0.44,-2.38,100.0,0,0,145.94,0,0,0.0,0,0,0,0,7785,0,30.00,4,183.4,1,0,0.0,0.0,0.0,0.0,0,0,0.675,0.675,46.834,17.023,1,110.00,435.8,8750,0.0,0.0,110.0,110.0,433.0,0.00,0,0,1,166.7,65.7,65.7,71.4,71.4,34.0,-6.23,44.66,-1.9,13.6,8,-390.030,-1.9,100.0,22.6,25.1,30.2,36.2,0,1,100.0,0.00,0.00,0.00,0.00,3971,6397,3811,4390,315.4,308.2,346.4,344.1,26.02,23.25,26.92,25.27,325.0,325.0,355.0,355.0,99.72,99.93,99.76,99.87,0.20,0.33,0.18,0.34,-0.0,-0.1,1.9,1.8,88.6,71.3,88.0,77.7,92.8,71.2,92.0,79.2,89.6,68.0,90.4,76.9,86.3,66.1,88.9,75.4,-0.10,0.10,0.08,0.05,0.00,156.16,156.57,145.94,145.94,88.0,25.5,0.323882694814033,175.0094315041435,49.333934408489874,-43.212205063790634,-3.6010169938119674
0.700,35.1,44.054318378241014,-78.681883301714635,1.1,91.3,135.8,138.0,13678.0,13678,184.0,0,1,1,0,1,1,0,0,0,100,1,1.186,26.0,0.0,-0.024,46.834,66.0,0.0,26.0,26.0,26.0,26.0,0.27,0.31,0.22,372.4,-3.00,-1.67,-2.06,-0.99,-731.38,656.09,5.6,0.00,0.00,0.00,0.00,0.02,-7.49,-7.49,-0.88,4.15,0.72,-1.70,51.13,0.24,-0.34,-2.50,100.0,0,0,145.38,0,0,0.0,0,0,0,0,7755,0,30.00,4,184.0,0,0,0.0,0.0,0.0,0.0,1,0,0.723,0.723,46.834,17.023,0,110.00,435.8,8750,0.0,0.0,110.0,110.0,433.0,0.00,0,0,1,166.7,67.5,67.5,57.5,57.5,34.0,-0.74,35.07,-4.9,66.7,8,-390.080,-2.0,100.0,22.7,29.7,37.0,43.1,0,1,100.0,0.00,0.00,0.00,0.00,2456,4810,5629,7724,318.8,311.7,341.3,335.6,26.02,23.25,26.92,25.27,325.0,325.0,355.0,355.0,99.72,99.93,99.76,99.87,0.32,0.35,0.25,0.44,-0.1,-0.0,1.3,1.2,88.6,71.3,88.0,77.7,92.7,71.1,92.0,79.2,89.5,68.0,90.4,76.9,86.3,66.1,88.9,75.4,-0.11,0.12,0.06,0.05,0.00,156.72,156.99,145.38,145.38,88.0,25.5,0.4662617290749907,175.3695332035247,50.05413780725227,57.61627332355005,25.207119525707355
0.750,37.6,44.054295805268708,-78.681876826599080,-85.6,-156.3,123.2,123.2,13680.6,13681,184.6,0,1,1,0,1,1,0,0,0,100,1,1.186,26.0,0.0,-0.027,46.834,66.0,0.0,26.0,26.0,26.0,26.0,0.21,0.32,-0.15,376.0,-2.23,-1.97,-1.83,-0.86,-730.66,653.58,5.6,0.00,0.00,0.00,0.00,0.02,-7.49,-7.49,-0.87,-2.99,0.44,-6.55,51.28,0.22,-0.36,-1.55,100.0,0,0,146.16,0,0,0.0,0,0,0,0,7796,0,30.00,4,184.6,1,0,0.0,0.0,0.0,0.0,1,0,0.774,0.774,46.834,17.023,1,110.00,435.8,8750,0.0,0.0,110.0,110.0,433.0,0.00,0,0,1,166.7,77.4,77.4,58.9,58.9,34.0,1.39,14.70,0.7,35.7,8,-390.130,-1.2,100.0,18.4,21.9,43.2,49.2,0,1,100.0,0.00,0.00,0.00,0.00,2407,2477,5130,5426,319.1,318.5,342.6,340.9,26.02,23.25,26.93,25.27,325.0,325.0,355.0,355.0,99.72,99.93,99.76,99.87,0.31,0.30,0.29,0.37,-0.1,0.0,1.5,1.5,88.6,71.3,88.0,77.7,92.6,71.1,92.0,79.2,89.4,68.0,90.3,76.8,86.2,66.1,88.8,75.4,-0.06,0.07,0.05,0.02,0.00,156.99,157.03,146.16,146.16,88.0,25.5,0.4110960958218893,180.7710588364985,51.85464636106061,7.202034272135904,7.202034556647519
0.800,40.2,44.054273232296403,-78.681870351483511,150.6,15.6,-101.7,-176.0,13683.1,13683,185.1,0,1,1,0,1,1,0,0,0,100,1,1.186,26.0,0.0,-0.030,46.834,66.0,0.0,26.0,26.0,26.0,26.0,0.12,0.25,0.06,375.8,-2.98,-2.51,-1.21,-0.89,-729.94,651.07,5.6,0.00,0.00,0.00,0.00,0.03,-7.49,-7.49,-1.05,-0.75,0.32,1.73,51.42,0.20,-0.46,-1.03,100.0,0,0,147.26,0,0,0.0,0,0,0,0,7855,0,30.00,4,185.1,0,0,0.0,0.0,0.0,0.0,1,0,0.825,0.825,46.834,17.023,0,110.00,435.8,8750,0.0,0.0,110.0,110.0,433.0,0.00,0,0,1,333.3,65.4,65.4,68.6,68.6,34.0,-14.70,38.05,-0.4,14.9,8,-390.180,0.0,100.0,25.9,22.6,38.1,40.4,0,1,100.0,0.00,0.00,0.00,0.00,4998,5170,4189,3305,312.5,311.2,344.8,346.8,26.02,23.25,26.93,25.27,325.0,325.0,355.0,355.0,99.72,99.93,99.76,99.87,0.15,0.25,0.18,0.29,-0.1,-0.1,1.9,1.8,88.6,71.3,88.0,77.7,92.5,71.1,91.9,79.2,89.4,67.9,90.3,76.8,86.1,66.0,88.8,75.4,0.01,0.01,0.07,0.05,0.00,157.65,157.74,147.26,147.26,88.0,25.5,0.28372521918222215,176.0897366307383,50.77434126291702,-39.611187785466484,-3.6010169938120384
0.850,42.8,44.054251828442176,-78.681864146164429,-69.8,59.9,64.3,-13.7,13685.7,13686,185.7,0,1,1,0,1,1,0,0,0,100,1,1.186,26.0,0.0,-0.030,46.834,66.0,0.0,26.0,26.0,26.0,26.0,0.09,0.36,0.14,373.2,-2.51,-2.89,-2.06,-1.96,-729.25,648.69,5.6,0.00,0.00,0.00,0.00,0.03,-7.49,-7.49,-0.95,1.83,0.42,1.34,51.59,0.17,-0.36,-0.43,100.0,0,0,146.56,0,0,0.0,0,0,0,0,7818,0,30.00,4,185.7,1,0,0.0,0.0,0.0,0.0,1,0,0.873,0.873,46.834,17.023,1,110.00,435.8,8750,0.0,0.0,110.0,110.0,433.0,0.00,0,0,1,166.7,69.9,69.9,56.2,56.2,34.0,-13.90,19.82,-20.3,50.9,8,-390.230,1.7,100.0,22.4,25.6,41.3,39.7,0,1,100.0,0.00,0.00,0.00,0.00,4141,3627,6673,6115,315.6,315.0,338.5,338.4,26.02,23.25,26.93,25.27,325.0,325.0,355.0,355.0,99.72,99.93,99.76,99.87,0.04,0.08,0.11,0.28,-0.0,-0.0,1.3,1.2,88.6,71.3,88.1,77.7,92.5,71.0,91.9,79.2,89.3,67.9,90.2,76.8,86.1,66.0,88.7,75.3,0.10,-0.09,0.06,0.05,0.00,158.16,158.19,146.56,146.56,88.0,25.5,0.3966106403010388,176.80994005795185,51.494544661679406,64.81830759568595,21.606101962871662
0.900,45.4,44.054229075605548,-78.681857491184545,-2.1,-42.1,-37.5,121.5,13688.3,13688,186.2,0,1,1,0,1,1,0,0,0,100,1,1.186,26.0,0.0,-0.033,46.834,66.0,0.0,26.0,26.0,26.0,26.0,0.11,0.27,-0.06,375.6,-2.66,-2.21,-1.74,-1.87,-728.51,646.16,5.5,0.00,0.00,0.00,0.00,0.03,-7.49,-7.49,-0.92,0.17,0.49,-2.23,51.73,0.13,-0.38,0.59,100.0,0,0,147.68,0,0,0.0,0,0,0,0,7877,0,30.00,4,186.2,0,0,0.0,0.0,0.0,0.0,1,0,0.924,0.924,46.834,17.023,0,110.00,435.8,8750,0.0,0.0,110.0,110.0,433.0,0.00,0,0,1,333.3,71.8,71.8,61.3,61.3,34.0,-6.67,18.65,-10.9,32.3,8,-390.280,3.4,100.0,22.3,23.5,39.4,45.8,0,1,100.0,0.00,0.00,0.00,0.00,1898,4701,4817,5130,320.1,312.5,344.2,341.7,26.02,23.25,26.93,25.28,325.0,325.0,355.0,355.0,99.72,99.93,99.76,99.87,0.01,0.03,0.08,0.20,-0.0,-0.1,1.6,1.6,88.6,71.3,88.1,77.7,92.4,71.0,91.8,79.2,89.2,67.9,90.2,76.8,86.0,66.0,88.7,75.3,0.19,-0.19,0.06,0.05,0.00,158.50,158.55,147.68,147.68,88.0,25.5,0.29765752132274437,182.57156739030688,52.934951459204186,7.202033987623793,0.0
0.950,48.0,44.054206232836762,-78.681850926136832,22.0,125.8,81.4,-103.0,13690.9,13691,186.7,0,1,1,0,1,1,0,0,0,100,1,1.186,26.0,0.0,-0.033,46.834,66.0,0.0,26.0,26.0,26.0,26.0,0.01,0.33,0.02,373.9,-2.51,-2.18,-0.81,-1.49,-727.78,643.62,5.5,0.00,0.00,0.00,0.00,0.03,-7.49,-7.49,-0.86,2.89,0.24,-6.18,51.88,0.07,-0.38,1.99,100.0,0,0,148.14,0,0,0.0,0,0,0,0,7902,0,30.00,4,186.7,1,0,0.0,0.0,0.0,0.0,1,0,0.975,0.975,46.834,17.023,1,110.00,435.8,8750,0.0,0.0,110.0,110.0,433.0,0.00,0,0,1,333.3,68.9,68.9,55.3,55.3,34.0,-11.07,6.12,-6.2,26.3,8,-390.330,5.5,100.0,23.4,29.8,43.5,40.7,0,1,100.0,0.00,0.00,0.00,0.00,2224,3528,4582,5447,319.0,314.8,343.1,341.3,26.02,23.25,26.93,25.28,325.0,325.0,355.0,355.0,99.72,99.93,99.76,99.87,-0.12,-0.13,0.02,0.14,0.0,-0.0,1.5,1.6,88.6,71.3,88.1,77.7,92.3,71.0,91.8,79.2,89.1,67.9,90.1,76.8,85.9,65.9,88.6,75.3,0.31,-0.30,0.07,0.04,0.00,159.15,158.99,148.14,148.14,88.0,25.5,0.3307567081708246,177.53014345671423,51.494544661679406,-46.81322205760239,-10.80305098143576
1.000,50.6,44.054184739050378,-78.681844630885578,-133.6,-301.1,71.4,140.4,13693.5,13694,187.3,0,1,1,0,1,1,0,0,0,100,1,1.186,26.0,0.0,-0.036,46.834,66.0,0.0,26.0,26.0,26.0,26.0,-0.14,0.28,0.09,377.5,-2.02,-2.32,-1.65,-1.63,-727.08,641.23,5.5,0.00,0.00,0.00,0.00,0.03,-7.49,-7.49,-0.91,-5.47,-0.20,-8.21,52.03,-0.02,-0.38,3.37,100.0,0,0,148.03,0,0,0.0,0,0,0,0,7896,0,30.00,4,187.3,0,0,0.0,0.0,0.0,0.0,1,0,1.023,1.023,46.834,17.023,0,110.00,435.8,8750,0.0,0.0,110.0,110.0,433.0,0.00,0,0,1,333.3,81.5,81.5,58.2,58.2,34.0,-22.12,0.92,-27.1,12.7,8,-390.380,6.2,100.0,16.7,14.8,47.1,47.7,0,1,100.0,0.00,0.00,0.00,0.00,3626,1843,5558,4209,316.6,319.5,340.3,343.8,26.02,23.25,26.93,25.28,325.0,325.0,355.0,355.0,99.72,99.93,99.76,99.87,-0.25,-0.23,-0.08,-0.02,-0.0,-0.0,1.3,1.3,88.6,71.3,88.1,77.7,92.2,70.9,91.7,79.1,89.1,67.8,90.1,76.8,85.8,65.9,88.6,75.3,0.35,-0.37,0.04,0.03,0.00,159.46,159.18,148.03,148.03,88.0,25.5,0.3257299494980466,177.89024518454664,51.85464636106061,68.41932515852193,14.404067975247798
1.050,53.2,44.054161806349427,-78.681837975905708,171.9,19.3,-211.6,-372.4,13696.1,13696,187.8,0,1,1,0,1,1,0,0,0,100,1,1.186,26.0,0.0,-0.036,46.834,66.0,0.0,26.0,26.0,26.0,26.0,-0.30,0.36,-0.20,381.4,-1.88,-2.35,-1.43,-1.52,-726.34,638.68,5.5,0.00,0.00,0.00,0.00,0.03,-7.49,-7.49,-1.07,0.03,-0.23,6.55,52.17,-0.13,-0.41,5.79,100.0,0,0,149.33,0,0,0.0,0,0,0,0,7965,0,30.00,4,187.8,1,0,0.0,0.0,0.0,0.0,1,0,1.074,1.074,46.834,17.023,1,110.00,435.8,8750,0.0,0.0,110.0,110.0,433.0,0.00,0,0,1,333.3,72.6,72.6,76.2,76.2,34.0,-43.40,-2.62,-31.6,-0.6,8,-390.430,6.2,100.0,25.3,15.7,36.5,29.1,0,1,100.0,0.00,0.00,0.00,0.00,5069,2903,4521,4420,312.4,318.1,344.1,343.4,26.02,23.25,26.93,25.28,325.0,325.0,355.0,355.0,99.72,99.93,99.76,99.87,-0.41,-0.36,-0.38,-0.24,-0.1,-0.1,1.8,2.2,88.6,71.3,88.1,77.7,92.2,70.9,91.7,79.1,89.0,67.8,90.1,76.7,85.8,65.9,88.5,75.3,0.36,-0.37,0.06,0.07,0.00,160.17,159.58,149.33,149.33,88.0,25.5,0.5095095681142798,184.37207597256642,52.934951459204186,18.005085538082994,-10.803050981435902
1.100,55.8,44.054138693784154,-78.681831410857981,166.2,280.1,89.3,139.0,13698.7,13699,188.3,0,1,1,0,1,1,0,0,0,100,1,1.186,26.0,0.0,-0.036,46.834,66.0,0.0,26.0,26.0,26.0,26.0,-0.42,0.27,0.20,370.8,-2.79,-3.11,-1.22,-1.58,-725.61,636.11,5.4,0.00,0.00,0.00,0.00,0.03,-7.49,-7.49,-0.90,6.53,0.14,6.97,52.31,-0.21,-0.40,6.46,100.0,0,0,149.51,0,0,0.0,0,0,0,0,7975,0,30.00,4,188.3,0,0,0.0,0.0,0.0,0.0,1,0,1.125,1.125,46.834,17.023,0,110.00,435.8,8750,0.0,0.0,110.0,110.0,433.0,0.00,0,0,1,166.7,58.0,58.0,63.9,63.9,34.0,-57.80,-1.50,-48.3,-6.9,8,-390.480,4.9,100.0,33.6,29.7,40.9,36.0,0,1,100.0,0.00,0.00,0.00,0.00,5537,4214,5360,4803,311.1,313.0,341.9,343.1,26.02,23.25,26.94,25.28,325.0,325.0,355.0,355.0,99.72,99.93,99.76,99.87,-0.45,-0.39,-0.52,-0.37,-0.1,0.0,1.4,1.7,88.6,71.3,88.1,77.7,92.1,70.9,91.7,79.1,89.0,67.7,90.0,76.7,85.7,65.8,88.5,75.3,0.31,-0.29,0.06,0.05,0.00,160.85,160.29,149.51,149.51,88.0,25.5,0.5378661543544081,179.69075373835494,50.77434126291702,-43.21220534830246,-25.20711895668356
1.150,58.4,44.054116930201289,-78.681825295471057,-25.3,69.4,239.5,320.3,13701.4,13701,188.8,0,1,1,0,1,1,0,0,0,100,1,1.186,26.0,0.0,-0.042,46.834,66.0,0.0,26.0,26.0,26.0,26.0,-0.41,0.22,0.69,360.0,-2.52,-1.89,-1.82,-1.80,-724.93,633.69,5.4,0.00,0.00,0.00,0.00,0.04,-7.49,-7.49,-0.59,5.89,0.25,-4.69,52.46,-0.23,-0.36,4.80,100.0,0,0,149.39,0,0,0.0,0,0,0,0,7969,0,30.00,4,188.8,1,0,0.0,0.0,0.0,0.0,1,0,1.173,1.173,46.834,17.023,1,110.00,435.8,8750,0.0,0.0,110.0,110.0,433.0,0.00,0,0,1,166.7,52.9,52.9,46.3,46.3,34.0,-65.85,-2.84,-63.6,-2.9,8,-390.530,3.2,100.0,32.4,33.2,52.9,52.0,0,1,100.0,0.00,0.00,0.00,0.00,6956,6635,6675,6192,308.2,307.2,339.8,338.8,26.02,23.25,26.94,25.28,325.0,325.0,355.0,355.0,99.72,99.93,99.76,99.87,-0.36,-0.25,-0.40,-0.31,-0.0,-0.0,1.0,1.3,88.6,71.3,88.1,77.7,92.1,70.9,91.6,79.1,88.9,67.7,90.0,76.7,85.7,65.8,88.5,75.3,0.22,-0.18,0.03,0.02,0.00,161.27,160.80,149.39,149.39,88.0,25.5,0.8322259308625272,180.05085543773617,50.41423956353583,64.81830788019835,7.202033987623864
1.200,61.1,44.054093727703858,-78.681818820355488,100.2,91.6,44.7,-7.4,13704.0,13704,189.3,0,1,1,0,1,1,0,0,0,100,1,1.186,26.0,0.0,-0.042,46.834,66.0,0.0,26.0,26.0,26.0,26.0,-0.34,0.32,0.77,355.1,-2.87,-3.32,-1.34,-1.22,-724.21,631.11,5.4,0.00,0.00,0.00,0.00,0.04,-7.49,-7.49,-0.16,9.49,-0.13,-10.78,52.60,-0.23,-0.32,3.23,100.0,0,0,149.54,0,0,0.0,0,0,0,0,7976,0,30.00,4,189.3,0,0,0.0,0.0,0.0,0.0,0,0,1.224,1.224,46.834,17.023,0,110.00,435.8,8750,0.0,0.0,110.0,110.0,433.0,0.00,0,0,1,333.3,47.9,47.9,35.7,35.7,34.0,-60.86,29.06,-83.2,-5.2,8,-390.580,1.0,100.0,37.4,37.8,55.1,51.7,0,1,100.0,0.00,0.00,0.00,0.00,7097,6866,9817,7268,308.3,306.1,331.9,336.6,26.03,23.25,26.94,25.28,325.0,325.0,355.0,355.0,99.72,99.93,99.76,99.87,-0.26,-0.11,-0.32,-0.23,-0.0,-0.1,1.0,1.2,88.7,71.3,88.1,77.8,92.0,70.9,91.6,79.1,88.9,67.7,90.0,76.7,85.7,65.8,88.5,75.2,0.12,-0.04,0.01,0.02,0.00,161.68,161.47,149.54,149.54,88.0,25.5,0.900499861188218,186.17258452637478,51.494544661679406,14.404068544270956,-10.803052119483212
1.250,63.7,44.054070435274262,-78.681812435172091,-60.3,-155.4,123.6,57.3,13706.6,13707,189.9,0,1,1,0,1,1,0,0,0,100,1,1.186,26.0,0.0,-0.042,46.834,66.0,0.0,26.0,26.0,26.0,26.0,-0.32,0.31,0.43,360.4,-3.42,-0.87,-1.50,-2.58,-723.50,628.52,5.5,0.00,0.00,0.00,0.00,0.04,-7.49,-7.49,0.29,5.61,-0.47,-2.92,52.75,-0.19,-0.32,1.90,100.0,0,0,149.90,0,0,0.0,0,0,0,0,7996,0,30.00,4,189.9,1,0,0.0,0.0,0.0,0.0,0,0,1.275,1.275,46.834,17.023,1,110.00,435.8,8750,0.0,0.0,110.0,110.0,433.0,0.00,0,0,1,333.3,61.7,61.7,36.4,36.4,34.0,-31.83,-4.54,-69.7,21.9,8,-390.630,1.3,100.0,34.4,30.0,61.3,54.5,0,1,100.0,0.00,0.00,0.00,0.00,4085,3741,8864,8010,315.1,314.4,334.2,334.4,26.03,23.25,26.94,25.28,325.0,325.0,355.0,355.0,99.72,99.93,99.76,99.87,-0.21,-0.19,-0.27,-0.22,-0.0,-0.1,1.0,1.1,88.7,71.3,88.2,77.8,92.0,70.8,91.6,79.1,88.8,67.7,90.0,76.7,85.6,65.8,88.4,75.2,0.09,-0.05,0.01,0.02,0.00,161.74,161.65,149.90,149.90,88.0,25.5,0.6191930232165088,181.49126229216327,49.33393435158751,14.404068259759129,-10.803051550459415
1.300,66.3,44.054048401894917,-78.681806499649497,-55.1,-36.5,-109.8,-113.1,13709.3,13709,190.3,0,1,1,0,1,1,0,0,0,100,1,1.186,26.0,0.0,-0.042,46.834,66.0,0.0,26.0,26.0,26.0,26.0,-0.27,0.22,0.13,368.1,-2.28,-3.57,-1.54,-1.95,-722.84,626.07,5.5,0.00,0.00,0.00,0.00,0.04,-7.49,-7.49,0.34,0.49,-0.51,3.65,52.87,-0.13,-0.52,1.24,100.0,0,0,150.95,0,0,0.0,0,0,0,0,8052,0,30.00,4,190.3,0,0,0.0,0.0,0.0,0.0,0,0,1.323,1.323,46.834,17.023,0,110.00,435.8,8750,0.0,0.0,110.0,110.0,433.0,0.00,0,0,1,166.7,60.5,60.5,51.6,51.6,34.0,-43.84,14.22,-27.2,6.7,8,-390.680,0.9,100.0,31.6,28.2,55.8,48.9,0,1,100.0,0.00,0.00,0.00,0.00,5821,4247,4797,4603,310.3,313.7,342.4,343.3,26.03,23.25,26.95,25.28,325.0,325.0,355.0,355.0,99.72,99.93,99.76,99.87,-0.25,-0.17,-0.19,-0.19,-0.1,-0.0,1.4,1.5,88.7,71.3,88.2,77.8,91.9,70.8,91.6,79.1,88.8,67.7,89.9,76.7,85.6,65.8,88.4,75.2,0.09,-0.06,0.02,0.02,0.00,162.07,161.94,150.95,150.95,88.0,25.5,0.37175260590882214,187.6129913523507,50.414239506633464,118.8335644944479,25.20712009473101
1.350,69.0,44.054023580618598,-78.681799844669612,-16.8,-55.0,-194.2,-72.4,13711.9,13712,190.8,0,1,1,0,1,1,0,0,0,100,1,1.186,26.0,0.0,-0.045,46.834,66.0,0.2,26.0,26.0,26.0,26.0,-0.21,0.27,0.22,371.5,-2.82,-2.97,-1.38,-2.36,-722.10,623.31,5.5,0.00,0.00,0.00,0.00,0.04,-7.49,-7.49,0.45,2.15,-0.30,5.38,53.02,-0.10,-0.49,1.52,100.0,0,0,151.05,0,0,0.0,0,0,0,0,8057,0,30.00,4,190.8,1,0,0.0,0.0,0.0,0.0,0,0,1.377,1.377,46.834,17.023,1,110.00,435.8,8750,0.0,0.0,110.0,110.0,433.0,0.00,0,0,1,166.7,62.2,62.2,60.9,60.9,34.0,-51.17,11.36,-37.3,17.7,8,-390.740,0.7,100.0,30.8,25.4,46.1,45.3,0,1,100.0,0.00,0.00,0.00,0.00,6451,3860,5908,5606,309.2,315.0,340.4,340.9,26.03,23.25,26.95,25.28,325.0,325.0,355.0,355.0,99.72,99.93,99.76,99.87,-0.22,-0.12,-0.24,-0.13,-0.1,-0.0,1.3,1.4,88.7,71.3,88.2,77.8,91.9,70.8,91.5,79.1,88.7,67.7,89.9,76.7,85.5,65.7,88.4,75.2,0.07,-0.05,0.05,0.03,0.00,162.66,162.47,151.05,151.05,88.0,25.5,0.4066939881532551,193.37461874160806,51.85464636106061,-100.82847895636462,-32.40915351333115
1.400,71.6,44.054000108324679,-78.681793549418373,-156.6,25.6,-28.0,-21.8,13714.6,13715,191.3,0,1,1,0,1,1,0,0,0,100,1,1.186,26.0,0.0,-0.048,46.834,66.0,2.0,26.0,26.0,26.0,26.0,-0.04,0.27,0.06,375.9,-2.36,-3.00,-2.00,-1.70,-721.40,620.70,5.6,0.00,0.00,0.00,0.00,0.04,-7.49,-7.49,0.64,3.25,-0.03,1.93,53.15,-0.09,-0.37,0.25,100.0,0,0,151.06,0,0,0.0,0,0,0,0,8058,0,30.00,4,191.3,0,0,0.0,0.0,0.0,0.0,0,0,1.428,1.428,46.834,17.023,0,110.00,435.8,8750,0.0,0.0,110.0,110.0,433.0,0.00,0,0,1,166.7,71.9,71.9,48.1,48.1,34.0,-3.04,18.75,-53.8,13.5,8,-390.790,-2.0,100.0,22.9,26.7,44.7,44.2,0,1,92.6,0.00,0.00,0.00,0.00,1246,4128,7092,5669,322.2,312.8,338.1,340.4,26.03,23.25,26.95,25.29,325.0,325.0,355.0,355.0,99.72,99.93,99.76,99.87,0.03,-0.03,-0.21,-0.09,-0.1,-0.1,1.2,1.3,88.7,71.3,88.2,77.8,91.8,70.7,91.5,79.0,88.7,67.6,89.8,76.7,85.4,65.7,88.3,75.2,-0.09,0.09,0.05,0.04,0.00,162.57,162.86,151.06,151.06,88.0,25.5,0.2794637722496424,177.53014345671423,47.17332415530035,-154.843735855126,-46.8132220576026
1.450,74.3,44.053979244063427,-78.681788063556567,-183.0,-161.1,47.0,19.1,13717.2,13717,191.6,0,1,1,0,1,1,0,0,0,100,1,1.186,26.0,0.0,-0.051,46.834,66.0,8.7,26.0,26.0,26.0,26.0,0.04,0.05,-0.32,382.9,-2.97,-1.99,-1.96,-1.02,-720.79,618.38,5.6,0.00,0.00,0.00,0.00,0.05,-7.49,-7.49,0.56,-5.24,-0.14,-4.16,53.21,-0.06,-0.38,-1.18,100.0,0,0,150.91,0,0,0.0,0,0,0,0,8050,0,30.00,4,191.6,1,0,0.0,0.0,0.0,0.0,0,0,1.473,1.473,46.834,17.023,1,110.00,435.8,8750,0.0,0.0,110.0,110.0,433.0,0.00,0,0,1,333.3,82.9,82.9,60.2,60.2,34.0,-5.22,6.51,-12.2,16.7,8,-390.830,-5.3,100.0,13.8,18.7,47.1,45.1,0,1,70.3,0.00,0.00,0.00,0.00,2495,1530,3043,5675,319.2,320.6,347.1,340.2,26.03,23.25,26.95,25.29,325.0,325.0,355.0,355.0,99.72,99.93,99.76,99.87,0.16,0.18,-0.02,0.04,-0.6,-0.5,1.1,1.0,88.7,71.3,88.2,77.8,91.7,70.7,91.4,79.0,88.6,67.6,89.8,76.6,85.4,65.7,88.3,75.2,-0.28,0.27,0.04,0.04,0.00,162.05,161.88,150.91,150.91,88.0,25.5,0.3263433774416144,177.89024515609546,47.17332415530035,108.03051351301207,32.40915351333115
1.500,77.0,44.053955681837351,-78.681781768305328,62.4,-133.7,-298.9,-191.0,13719.9,13720,191.4,0,1,1,0,1,1,0,0,0,100,1,1.186,26.0,0.0,-0.051,46.834,66.0,31.4,26.0,26.0,26.0,26.0,0.13,-0.43,-0.30,388.8,-1.30,-2.48,-1.94,-1.24,-720.09,615.76,5.7,0.00,0.00,0.00,0.00,0.05,-7.49,-7.49,0.20,-7.94,-0.34,1.04,53.14,-0.01,-0.48,-2.58,100.0,0,0,149.76,0,0,0.0,0,0,0,0,7989,0,30.00,4,191.4,0,0,0.0,0.0,0.0,0.0,0,0,1.524,1.524,46.834,17.023,0,110.00,435.8,8750,0.0,0.0,110.0,110.0,433.0,0.00,0,0,1,333.3,79.1,79.1,77.7,77.7,34.0,13.03,23.86,-20.3,7.7,8,-390.880,-9.9,100.0,16.9,12.0,32.1,35.6,0,1,40.9,0.00,0.00,0.00,0.00,4336,3215,4289,2268,314.7,316.1,344.9,348.9,26.03,23.25,26.95,25.29,325.0,325.0,355.0,355.0,99.72,99.93,99.76,99.87,0.41,0.49,-0.05,0.09,-1.2,-2.3,0.7,0.5,88.7,71.3,88.2,77.8,91.6,70.6,91.4,79.0,88.5,67.5,89.7,76.6,85.3,65.6,88.2,75.1,-0.53,0.52,0.07,0.06,0.00,160.47,159.45,149.76,149.76,88.0,25.5,0.5401851534427802,188.33319480801543,50.414239506633464,36.0101713606781,18.005084969059695
1.550,79.6,44.053932209543433,-78.681775473054088,139.9,309.0,-72.5,-181.6,13722.5,13723,190.1,0,1,1,0,1,1,0,0,0,100,1,1.186,26.0,0.0,-0.054,46.834,66.0,63.6,26.0,26.0,26.0,26.0,0.38,-1.13,0.03,380.9,-2.47,-2.90,-0.74,-1.20,-719.39,613.15,5.7,0.00,0.00,0.00,0.00,0.05,-7.49,-7.49,-0.09,-2.92,0.03,9.94,52.77,0.09,-0.63,-6.47,100.0,0,0,147.14,0,0,0.0,0,0,0,0,7849,0,30.00,4,190.1,1,0,0.0,0.0,0.0,0.0,0,0,1.575,1.575,46.834,17.023,1,110.00,435.8,8750,0.0,0.0,110.0,110.0,433.0,0.00,0,0,1,333.3,59.5,59.5,76.8,76.8,34.0,15.20,67.35,-1.5,33.6,8,-390.930,-13.3,100.0,23.9,27.4,28.5,26.5,0,1,19.0,0.00,0.00,0.00,0.00,7016,6367,3241,5215,308.5,307.4,347.4,341.6,26.03,23.25,26.95,25.29,325.0,325.0,355.0,355.0,99.72,99.93,99.76,99.87,0.49,0.65,0.08,0.26,-2.3,-2.4,-0.5,-0.7,88.7,71.3,88.2,77.8,91.6,70.7,91.3,78.9,88.5,67.6,89.6,76.5,85.3,65.7,88.1,75.1,-0.75,0.75,0.08,0.07,0.00,158.23,158.00,147.14,147.14,88.0,25.5,1.1925602710135867,181.49126229216327,48.97383265220632,-93.62644525325237,-14.404068544271453
1.600,82.2,44.053910356028410,-78.681769537531494,57.4,128.7,-36.2,265.4,13725.1,13725,187.9,0,1,1,0,1,1,0,0,0,100,1,1.186,26.0,0.0,-0.054,46.834,66.0,91.8,26.0,26.0,26.0,26.0,0.48,-1.52,0.12,376.6,-2.69,-2.04,-1.50,-1.35,-718.73,610.72,5.7,0.00,0.00,0.00,0.00,0.05,-7.49,-7.49,-0.16,-2.39,0.37,-0.46,52.14,0.22,-0.77,-7.79,100.0,0,0,144.11,0,0,0.0,0,0,0,0,7687,0,30.00,4,187.9,0,0,0.0,0.0,0.0,0.0,0,0,1.623,1.623,46.834,17.023,0,110.00,435.8,8750,0.0,0.0,110.0,110.0,433.0,0.00,0,0,1,333.3,58.7,58.7,72.2,72.2,34.0,2.49,52.61,3.2,59.8,8,-390.980,-14.4,100.0,26.8,33.9,26.7,39.8,0,1,5.9,0.00,0.00,0.00,0.00,3982,6262,3905,6185,315.6,307.1,346.0,339.2,26.03,23.25,26.95,25.29,325.0,325.0,355.0,355.0,99.72,99.93,99.76,99.87,0.78,0.85,0.30,0.49,-7.6,-3.9,-1.7,-1.2,88.7,71.3,88.2,77.8,91.6,70.7,91.2,78.9,88.5,67.6,89.6,76.5,85.3,65.7,88.1,75.1,-0.82,0.82,0.09,0.04,0.00,146.76,153.26,143.57,144.64,88.0,25.5,1.5984992962150468,178.9705502826902,48.97383265220632,-3.6010172783235816,10.803051550459486
1.650,84.8,44.053887513259625,-78.681763242280255,17.9,-23.5,-7.1,-26.8,13727.7,13728,184.8,1,1,1,0,1,1,0,0,0,100,1,1.186,26.0,0.0,-0.057,46.834,66.0,100.0,26.0,26.0,26.0,26.0,0.42,-1.97,-0.08,378.1,-3.36,-2.46,-2.11,-1.28,-718.03,608.18,5.8,0.00,0.00,0.00,0.00,0.05,-7.49,-7.49,-0.43,-5.91,0.37,-2.38,51.26,0.40,-1.03,-7.90,100.0,0,0,138.35,0,0,0.0,0,0,0,0,7379,0,30.00,4,184.8,1,0,0.0,0.0,0.0,0.0,0,0,1.674,1.674,46.834,17.023,1,110.00,435.8,8750,0.0,0.0,110.0,110.0,433.0,0.00,0,0,1,333.3,54.9,54.9,79.8,79.8,34.0,-1.35,37.68,1.7,30.8,8,-391.030,-15.3,100.0,27.7,32.7,26.3,38.4,0,1,0.0,0.00,0.00,0.00,0.00,5298,7936,1565,3550,311.2,303.9,351.1,345.3,26.03,23.25,26.95,25.29,325.0,325.0,355.0,355.0,99.72,99.93,99.76,99.87,1.09,1.17,0.59,0.71,-12.5,-6.5,-4.8,-2.6,88.7,71.3,88.2,77.8,91.7,70.9,91.1,78.9,88.6,67.8,89.5,76.5,85.4,65.8,88.0,75.0,-0.85,0.88,0.09,0.05,0.00,141.58,147.96,136.52,140.17,88.0,25.5,2.0158620984581264,181.1311605643309,50.05413780725227,-61.21729060187391,-3.6010164247882415
1.700,87.3,44.053865120151634,-78.681757036961173,32.6,34.0,-125.9,-246.5,13730.2,13730,181.4,0,1,1,0,1,1,0,0,0,100,1,1.186,26.0,0.0,-0.057,46.834,66.0,100.0,26.0,26.0,26.0,26.0,0.52,-1.95,-0.14,382.4,-2.62,-3.25,-2.03,-1.05,-717.34,605.69,5.8,0.00,0.00,0.00,0.00,0.05,-7.49,-7.49,-0.61,-1.80,0.29,0.98,50.32,0.62,-1.11,-11.47,100.0,0,0,134.04,0,0,0.0,0,0,0,0,7150,0,30.00,4,181.4,0,0,0.0,0.0,0.0,0.0,1,0,1.725,1.725,46.834,17.023,0,110.00,435.8,8750,0.0,0.0,110.0,110.0,433.0,0.00,0,0,1,333.3,55.7,55.7,86.3,86.3,34.0,3.51,22.40,2.6,36.1,8,-391.080,-17.3,100.0,29.3,34.4,20.0,26.1,0,1,0.0,0.00,0.00,0.00,0.00,5379,5954,2688,4078,311.3,308.3,349.5,344.9,26.03,23.25,26.95,25.29,325.0,325.0,355.0,355.0,99.72,99.93,99.76,99.87,1.30,1.37,0.87,1.11,-8.4,-7.0,-7.0,-3.7,88.7,71.3,88.2,77.8,91.8,71.0,91.1,78.8,88.7,67.9,89.5,76.5,85.4,66.0,88.0,75.0,-0.98,0.99,0.11,0.08,0.00,140.64,143.60,131.47,136.61,88.0,25.5,2.0229928324143907,172.8488212225028,48.613731009727495,-111.63153022231228,-14.404067975247727
1.750,89.8,44.053844345822540,-78.681751101438564,-98.4,-98.1,-39.0,-1.0,13732.7,13733,178.6,0,1,1,0,1,1,0,0,0,100,1,1.186,26.0,0.0,-0.060,46.834,66.0,100.0,26.0,26.0,26.0,26.0,0.40,-1.59,-0.42,388.1,-3.26,-2.81,-1.84,-0.55,-716.68,603.38,5.8,0.00,0.00,0.00,0.00,0.05,-7.49,-7.49,-0.74,-3.10,0.30,-1.13,49.54,0.86,-1.09,-10.08,100.0,0,0,130.38,0,0,0.0,0,0,0,0,6955,0,30.00,4,178.6,1,0,0.0,0.0,0.0,0.0,1,0,1.773,1.773,46.834,17.023,1,110.00,435.8,8750,0.0,0.0,110.0,110.0,433.0,0.00,0,0,1,333.3,65.4,65.4,88.5,88.5,34.0,0.53,-4.54,1.1,23.4,8,-391.130,-19.4,100.0,24.4,29.5,18.1,26.1,0,1,0.0,0.00,0.00,0.00,0.00,3195,5087,1940,3226,316.9,311.2,350.8,347.0,26.03,23.25,26.95,25.29,325.0,325.0,355.0,355.0,99.71,99.93,99.76,99.87,1.76,1.82,1.14,1.36,-9.0,-10.8,-8.1,-4.5,88.7,71.3,88.2,77.8,91.9,71.2,91.1,78.8,88.7,68.1,89.4,76.5,85.5,66.1,87.9,75.0,-1.10,1.08,0.11,0.08,0.00,136.04,139.82,127.42,133.33,88.0,25.5,1.6924833824885845,169.96800754209968,48.613731009727495,-10.803051265947943,14.404067975247727
1.800,92.2,44.053822672171833,-78.681744896119483,34.1,0.0,-72.8,-105.2,13735.1,13735,175.7,0,1,1,0,1,1,0,0,0,100,1,1.186,26.0,0.0,-0.063,46.834,66.0,100.0,26.0,26.0,26.0,26.0,0.60,-1.81,-0.14,387.6,-2.60,-2.33,-2.00,-2.04,-715.99,600.97,5.8,0.00,0.00,0.00,0.00,0.06,-7.49,-7.49,-0.87,-0.23,0.27,1.23,48.74,1.09,-1.02,-12.25,100.0,0,0,123.91,0,0,0.0,0,0,0,0,6610,0,30.00,4,175.7,0,0,0.0,0.0,0.0,0.0,1,0,1.824,1.824,46.834,17.023,0,110.00,435.8,8750,0.0,0.0,110.0,110.0,433.0,0.00,0,0,1,166.7,58.9,58.9,92.8,92.8,34.0,-2.55,7.41,-0.5,7.2,8,-391.180,-22.4,100.0,26.1,29.5,14.5,20.8,0,1,0.0,0.00,0.00,0.00,0.00,5307,6870,1433,2356,311.7,306.3,351.4,349.3,26.03,23.25,26.95,25.28,325.0,325.0,355.0,355.0,99.71,99.93,99.76,99.87,2.12,2.24,1.47,1.71,-10.0,-8.4,-12.0,-6.8,88.7,71.3,88.2,77.8,92.0,71.4,91.0,78.8,88.8,68.2,89.4,76.5,85.6,66.3,87.9,75.0,-1.27,1.26,0.11,0.10,0.00,133.76,137.36,119.76,128.06,88.0,25.5,1.9119884936892273,171.768516095908,50.05413780725227,-68.41932515852136,3.6010164247882415
1.850,94.6,44.053801448181936,-78.681738600868243,45.2,162.1,67.4,107.8,13737.5,13738,172.2,0,1,1,0,1,1,0,0,0,100,1,1.186,26.0,0.0,-0.066,46.834,66.0,100.0,26.0,26.0,26.0,26.0,0.94,-2.10,0.04,379.7,-2.93,-2.55,-1.49,-0.99,-715.29,598.61,5.8,0.00,0.00,0.00,0.00,0.06,-7.49,-7.49,-0.69,4.39,0.36,1.19,47.75,1.30,-0.87,-14.85,100.0,0,0,126.73,0,0,0.0,0,0,0,0,6760,0,30.00,4,172.2,1,0,0.0,0.0,0.0,0.0,1,0,1.875,1.875,46.834,17.023,1,110.00,435.8,8750,0.0,0.0,110.0,110.0,433.0,0.00,0,0,1,333.3,53.9,53.9,78.6,78.6,34.0,-3.05,32.39,10.7,38.6,8,-391.230,-23.5,100.0,28.4,37.6,17.8,26.2,0,1,0.0,0.00,0.00,0.00,0.00,4584,8043,3288,5027,314.2,303.8,346.6,342.6,26.03,23.25,26.95,25.28,325.0,325.0,355.0,355.0,99.71,99.92,99.76,99.87,2.39,2.54,1.81,2.09,-10.3,-6.9,-6.6,-5.3,88.7,71.3,88.2,77.8,92.1,71.6,91.0,78.9,89.0,68.5,89.4,76.5,85.7,66.5,87.9,75.1,-1.34,1.36,0.10,0.08,0.00,130.04,137.25,125.15,128.32,88.0,25.5,2.301130157118454,163.12607502624755,48.97383265220632,-72.02034215233311,7.202033987623864
1.900,97.0,44.053781932903085,-78.681732665345649,-166.6,-45.4,144.3,268.1,13739.9,13740,169.2,0,1,1,0,1,1,0,0,0,100,1,1.186,26.0,0.0,-0.066,46.834,66.0,100.0,26.0,26.0,26.0,26.0,0.91,-1.52,-0.07,380.0,-3.89,-0.39,-2.30,-1.55,-714.63,596.44,5.9,0.00,0.00,0.00,0.00,0.06,-7.49,-7.49,-0.61,-1.91,0.47,-1.42,46.91,1.37,-0.83,-9.72,100.0,0,0,126.69,0,0,0.0,0,0,0,0,6758,0,30.00,4,169.2,0,0,0.0,0.0,0.0,0.0,1,0,1.923,1.923,46.834,17.023,0,110.00,435.8,8750,0.0,0.0,110.0,110.0,433.0,0.00,0,0,1,333.3,63.4,63.4,71.6,71.6,34.0,-1.39,-4.95,8.5,79.7,8,-391.280,-23.5,100.0,20.0,35.3,25.0,39.6,0,1,0.0,0.00,0.00,0.00,0.00,2198,7819,1509,5270,319.7,305.4,350.8,341.8,26.03,23.25,26.95,25.28,325.0,325.0,355.0,355.0,99.71,99.92,99.76,99.87,2.74,2.80,1.91,2.08,-11.6,-9.5,-4.6,-2.8,88.7,71.3,88.2,77.8,92.2,71.8,91.0,78.9,89.0,68.6,89.4,76.6,85.7,66.7,87.9,75.1,-1.37,1.37,0.09,0.06,0.00,124.01,130.77,124.91,128.47,88.0,25.5,1.7729636206081614,164.5664818806747,50.774341206014654,-18.005085538083563,21.606103100918972
1.950,99.3,44.053760349184543,-78.681725920433607,28.1,-40.1,-83.1,-140.9,13742.2,13742,166.1,1,1,1,0,1,1,0,0,0,100,1,1.186,26.0,0.0,-0.069,46.834,66.0,100.0,26.0,26.0,26.0,26.0,0.66,-1.56,-0.25,383.6,-3.48,-3.47,-2.38,-0.81,-713.88,594.04,5.9,0.00,0.00,0.00,0.00,0.06,-7.49,-7.49,-0.80,-3.80,0.09,-8.35,46.07,1.27,-0.91,-5.86,100.0,0,0,121.79,0,0,0.0,0,0,0,0,6496,0,30.00,4,166.1,1,0,0.0,0.0,0.0,0.0,1,0,1.977,1.977,46.834,17.023,1,110.00,435.8,8750,0.0,0.0,110.0,110.0,433.0,0.00,0,0,1,166.7,61.5,61.5,84.3,84.3,34.0,-4.00,-8.18,0.7,41.8,8,-391.330,-23.2,100.0,21.4,33.3,20.9,32.5,0,1,0.0,0.00,0.00,0.00,0.00,4779,6125,969,3668,313.5,308.7,353.0,345.5,26.03,23.25,26.95,25.28,325.0,325.0,355.0,355.0,99.71,99.92,99.76,99.87,2.73,2.87,1.74,1.90,-11.1,-12.4,-7.9,-3.6,88.7,71.3,88.2,77.8,92.3,72.1,91.0,78.9,89.1,68.9,89.3,76.6,85.8,66.9,87.8,75.1,-1.34,1.33,0.11,0.06,0.00,124.37,123.36,118.37,125.21,88.0,25.5,1.7122207801565779,161.3255664724392,51.134442962298216,-158.4447528489389,-21.606102531895317
2.000,101.5,44.053741643295140,-78.681719894978841,142.7,20.7,-80.9,-97.9,13744.5,13744,163.1,0,1,1,0,1,1,0,0,0,100,1,1.186,26.0,0.0,-0.072,46.834,66.0,100.0,26.0,26.0,26.0,26.0,0.62,-1.70,-0.11,383.1,-3.47,-3.99,-2.03,-1.20,-713.21,591.96,5.9,0.00,0.00,0.00,0.00,0.06,-7.49,-7.49,-0.89,0.33,-0.16,-2.29,45.24,1.21,-0.93,-9.78,100.0,0,0,117.31,0,0,0.0,0,0,0,0,6257,0,30.00,4,163.1,0,0,0.0,0.0,0.0,0.0,1,0,2.025,2.025,46.834,17.023,0,110.00,435.8,8750,0.0,0.0,110.0,110.0,433.0,0.00,0,0,1,333.3,56.5,56.5,88.7,88.7,34.0,-4.44,-7.45,-0.9,18.9,8,-391.380,-22.8,100.0,28.6,34.3,16.8,27.6,0,1,0.0,0.00,0.00,0.00,0.00,5833,5695,2330,2859,311.7,309.2,349.5,347.9,26.03,23.25,26.95,25.28,325.0,325.0,355.0,355.0,99.71,99.92,99.76,99.87,2.46,2.60,1.71,1.91,-11.3,-10.2,-10.4,-5.2,88.7,71.3,88.2,77.8,92.4,72.3,90.9,78.9,89.2,69.1,89.3,76.6,85.9,67.1,87.8,75.1,-1.31,1.32,0.11,0.07,0.00,122.46,124.28,113.76,120.85,88.0,25.5,1.8128706517564896,148.7220065957808,48.61373095282512,-111.6315305068241,-7.202034556647519
2.050,103.8,44.053723207202218,-78.681713779591931,-157.3,-98.4,78.3,16.9,13746.7,13747,160.3,1,1,1,0,1,1,0,0,0,100,1,1.186,26.0,0.0,-0.075,46.834,66.0,99.1,26.0,26.0,26.0,26.0,0.69,-1.51,-0.30,386.0,-2.77,-2.62,-1.71,-2.27,-712.53,589.91,5.9,0.00,0.00,0.00,0.00,0.06,-7.49,-7.49,-0.94,-3.37,0.04,4.57,44.45,1.28,-0.87,-7.85,100.0,0,0,117.94,0,0,0.0,0,0,0,0,6291,0,30.00,4,160.3,1,0,0.0,0.0,0.0,0.0,1,0,2.073,2.073,46.834,17.023,1,110.00,435.8,8750,0.0,0.0,110.0,110.0,433.0,0.00,0,0,1,333.3,68.9,68.9,80.6,80.6,34.0,-1.29,-7.04,3.1,66.4,8,-391.430,-22.7,100.0,20.7,29.4,20.8,28.5,0,1,0.0,0.00,0.00,0.00,0.00,2237,5227,2408,5029,320.3,310.9,349.4,341.6,26.03,23.25,26.95,25.28,325.0,325.0,355.0,355.0,99.71,99.92,99.76,99.87,2.65,2.71,1.73,1.97,-12.9,-10.6,-7.7,-3.6,88.7,71.3,88.2,77.8,92.5,72.5,90.9,79.0,89.3,69.2,89.3,76.6,86.0,67.3,87.8,75.2,-1.32,1.31,0.09,0.08,0.00,120.43,125.88,115.01,120.88,88.0,25.5,1.6870684633410702,150.16241342175678,50.414239506633464,28.80813680403122,32.40915465137853
2.100,105.9,44.053704141584177,-78.681707304476362,77.8,68.6,-143.3,-28.8,13748.9,13749,157.4,1,1,1,0,1,1,0,0,0,100,1,1.186,26.0,0.0,-0.078,46.834,66.0,85.7,26.0,26.0,26.0,26.0,0.85,-1.47,-0.13,385.3,-2.95,-2.50,-2.12,-1.55,-711.81,587.79,5.9,0.00,0.00,0.00,0.00,0.06,-7.49,-7.49,-1.10,-0.62,0.21,3.07,43.66,1.21,-0.94,-9.90,100.0,0,0,112.57,0,0,0.0,0,0,0,0,6004,0,30.00,4,157.4,0,0,0.0,0.0,0.0,0.0,1,0,2.124,2.124,46.834,17.023,0,110.00,435.8,8750,0.0,0.0,110.0,110.0,433.0,0.00,0,0,1,166.7,57.0,57.0,91.9,91.9,34.0,3.22,48.84,-0.0,32.5,8,-391.480,-22.1,100.0,24.6,32.9,13.6,27.1,0,1,0.0,0.00,0.00,0.00,0.00,4907,8148,181,2741,313.1,303.3,354.5,347.9,26.03,23.26,26.95,25.28,325.0,325.0,355.0,355.0,99.71,99.92,99.76,99.87,2.48,2.60,1.77,1.94,-8.3,-6.1,-13.6,-3.1,88.7,71.3,88.2,77.8,92.6,72.7,90.9,79.0,89.3,69.4,89.3,76.6,86.0,67.4,87.7,75.2,-1.29,1.27,0.12,0.08,0.00,122.26,126.74,106.28,118.85,88.0,25.5,1.7030267173476756,151.60282027618393,51.854646417962975,-61.21729060187363,7.202034556647519
2.150,108.1,44.053685345762609,-78.681700829360793,42.1,215.2,46.2,33.5,13751.0,13751,154.4,1,1,1,0,1,1,0,0,0,100,1,1.186,26.0,0.0,-0.081,46.834,66.0,85.7,26.0,26.0,26.0,26.0,1.10,-1.74,0.31,378.8,-2.58,-1.95,-1.43,0.08,-711.09,585.70,5.9,0.00,0.00,0.00,0.00,0.07,-7.49,-7.49,-0.83,8.20,0.20,-4.29,42.83,1.19,-0.80,-15.35,100.0,0,0,113.94,0,0,0.0,0,0,0,0,6078,0,30.00,4,154.4,1,0,0.0,0.0,0.0,0.0,1,0,2.175,2.175,46.834,17.023,1,110.00,435.8,8750,0.0,0.0,110.0,110.0,433.0,0.00,0,0,1,333.3,52.4,52.4,76.3,76.3,34.0,-1.74,108.73,3.0,62.3,8,-391.530,-20.6,100.0,26.7,43.6,15.9,28.7,0,1,0.0,0.00,0.00,0.00,0.00,2962,8432,2228,5464,317.4,301.7,349.4,341.5,26.03,23.26,26.95,25.28,325.0,325.0,355.0,355.0,99.71,99.92,99.76,99.87,2.30,2.40,1.94,2.22,-13.3,-4.0,-7.7,-4.0,88.7,71.4,88.2,77.8,92.6,72.8,90.9,79.0,89.4,69.6,89.2,76.6,86.1,67.6,87.7,75.2,-1.21,1.23,0.11,0.07,0.00,112.35,126.89,110.63,117.26,88.0,25.5,2.081754068087775,144.04068436156942,51.134442962298216,-72.0203421523334,21.60610196287159
2.200,110.2,44.053668168719938,-78.681694534109553,-24.9,-27.1,197.8,258.5,13753.1,13753,151.6,0,1,1,0,1,1,0,0,0,100,1,1.186,26.0,0.0,-0.081,46.834,66.0,79.8,26.0,26.0,26.0,26.0,1.25,-1.51,0.30,373.5,-3.28,-2.34,-1.99,-1.27,-710.39,583.79,5.9,0.00,0.00,0.00,0.00,0.07,-7.49,-7.49,-0.52,4.82,0.00,-4.10,42.04,1.16,-0.68,-14.95,100.0,0,0,114.85,0,0,0.0,0,0,0,0,6126,0,30.00,4,151.6,0,0,0.0,0.0,0.0,0.0,0,0,2.223,2.223,46.834,17.023,0,110.00,435.8,8750,0.0,0.0,110.0,110.0,433.0,0.00,0,0,1,333.3,53.5,53.5,67.5,67.5,34.0,-2.26,101.69,19.7,99.4,8,-391.580,-19.9,100.0,25.4,42.3,25.8,41.6,0,1,0.0,0.00,0.00,0.00,0.00,3521,8386,2579,5432,316.1,302.6,349.0,340.3,26.03,23.26,26.95,25.28,325.0,325.0,355.0,355.0,99.71,99.92,99.76,99.87,2.22,2.33,2.01,2.20,-10.7,-4.2,-4.0,-1.7,88.7,71.4,88.2,77.8,92.7,73.0,90.9,79.0,89.4,69.7,89.2,76.7,86.1,67.7,87.7,75.2,-1.15,1.17,0.08,0.04,0.00,114.13,124.58,113.49,116.21,88.0,25.5,1.983078414990189,144.4007860609506,54.015256614250134,14.404068259759981,50.41423905141457
2.250,112.3,44.053649282966212,-78.681687339536708,-46.3,-32.3,24.6,47.9,13755.2,13755,148.7,0,1,1,0,1,1,0,0,0,100,1,1.186,26.0,0.0,-0.084,46.834,66.0,78.1,26.0,26.0,26.0,26.0,1.26,-1.43,0.18,374.6,-3.80,-2.51,-1.97,-1.25,-709.59,581.69,5.9,0.00,0.00,0.00,0.00,0.07,-7.49,-7.49,-0.29,2.54,-0.30,-6.91,41.23,1.05,-0.67,-13.50,100.0,0,0,113.41,0,0,0.0,0,0,0,0,6050,0,30.00,4,148.7,1,0,0.0,0.0,0.0,0.0,0,0,2.277,2.277,46.834,17.023,1,110.00,435.8,8750,0.0,0.0,110.0,110.0,433.0,0.00,0,0,1,166.7,57.8,57.8,65.5,65.5,34.0,12.38,70.99,45.5,88.0,8,-391.630,-22.1,100.0,23.1,40.6,27.0,44.0,0,1,0.0,0.00,0.00,0.00,0.00,3683,6553,3857,5292,316.0,307.1,345.9,341.4,26.03,23.26,26.94,25.28,325.0,325.0,355.0,355.0,99.71,99.92,99.76,99.87,2.29,2.34,1.90,2.07,-6.3,-4.4,-2.3,-2.2,88.7,71.4,88.2,77.8,92.7,73.1,90.8,79.1,89.5,69.8,89.2,76.7,86.2,67.8,87.7,75.3,-1.25,1.26,0.09,0.05,0.00,117.45,121.07,112.91,113.91,88.0,25.5,1.914392854144624,145.48109118754542,56.17586686743967,-100.82847895636462,-3.6010169938118963
2.300,114.3,44.053631836127060,-78.681680504692508,-140.7,-277.4,6.8,-19.6,13757.2,13757,146.4,1,1,1,0,1,1,0,0,0,100,1,1.186,26.0,0.0,-0.081,46.834,66.0,78.1,26.0,26.0,26.0,26.0,0.74,-1.02,-0.28,385.1,-2.84,-1.94,-2.38,-0.73,-708.83,579.75,6.0,0.00,0.00,0.00,0.00,0.07,-7.49,-7.49,-0.38,-6.05,-0.50,-5.80,40.61,0.95,-0.71,-6.66,100.0,0,0,110.33,0,0,0.0,0,0,0,0,5885,0,30.00,4,146.4,0,0,0.0,0.0,0.0,0.0,0,0,2.328,2.328,46.834,17.023,0,110.00,435.8,8750,0.0,0.0,110.0,110.0,433.0,0.00,0,0,1,166.7,74.9,74.9,77.9,77.9,34.0,-0.57,4.58,3.0,87.3,8,-391.690,-28.2,100.0,16.1,26.8,27.4,43.1,0,1,0.0,0.00,0.00,0.00,0.00,1241,3812,723,5158,321.6,314.3,353.1,341.4,26.03,23.26,26.94,25.28,325.0,325.0,355.0,355.0,99.71,99.92,99.76,99.87,2.72,2.68,1.60,1.72,-16.0,-7.8,-4.3,-1.6,88.7,71.4,88.2,77.8,92.8,73.2,90.8,79.1,89.5,69.9,89.2,76.7,86.2,67.9,87.6,75.3,-1.58,1.55,0.09,0.04,0.00,105.62,113.90,108.27,112.39,88.0,25.5,1.290891165048394,134.31793816531413,53.655154914868945,-136.83865003253203,-18.005084969059766
2.350,116.3,44.053615738270310,-78.681673939644782,60.4,13.1,-148.9,-325.6,13759.2,13759,144.1,1,1,1,0,1,1,0,0,0,100,1,1.186,26.0,0.0,-0.081,46.834,66.0,77.3,26.0,26.0,26.0,26.0,0.70,-1.41,-0.28,388.0,-2.82,-2.66,-2.26,0.29,-708.10,577.96,6.0,0.00,0.00,0.00,0.00,0.07,-7.49,-7.49,-0.73,-5.64,-0.85,-5.32,39.96,0.83,-0.83,-8.42,100.0,0,0,106.70,0,0,0.0,0,0,0,0,5692,0,30.00,4,144.1,1,0,0.0,0.0,0.0,0.0,0,0,2.376,2.376,46.834,17.023,1,110.00,435.8,8750,0.0,0.0,110.0,110.0,433.0,0.00,0,0,1,166.7,65.1,65.1,86.9,86.9,34.0,-3.82,21.40,0.5,22.5,8,-391.730,-37.2,100.0,19.1,27.4,19.9,26.8,0,1,0.0,0.00,0.00,0.00,0.00,4398,6895,189,3182,314.3,306.5,354.1,348.1,26.03,23.26,26.94,25.28,325.0,325.0,355.0,355.0,99.71,99.92,99.76,99.87,2.96,3.07,1.49,1.55,-12.2,-6.7,-5.3,-4.3,88.7,71.4,88.1,77.8,92.8,73.3,90.7,79.1,89.5,70.0,89.1,76.7,86.2,68.0,87.6,75.3,-2.09,2.06,0.10,0.08,0.00,110.75,114.76,104.88,108.53,88.0,25.5,1.5989058759038943,131.7972261842922,54.3753583705337,-14.40406854427124,25.20712009473087
2.400,118.3,44.053598920956283,-78.681666924936252,46.3,-25.1,-142.9,-136.2,13761.2,13761,141.7,0,1,1,0,1,1,0,0,0,100,1,1.186,26.0,0.0,-0.078,46.834,66.0,71.0,26.0,26.0,26.0,26.0,0.74,-1.34,-0.31,391.5,-3.03,-2.31,-1.55,-1.06,-707.32,576.09,6.0,0.00,0.00,0.00,0.00,0.07,-7.49,-7.49,-0.83,-1.36,-0.97,0.85,39.30,0.91,-0.72,-13.31,100.0,0,0,103.73,0,0,0.0,0,0,0,0,5533,0,30.00,4,141.7,0,0,0.0,0.0,0.0,0.0,0,0,2.427,2.427,46.834,17.023,0,110.00,435.8,8750,0.0,0.0,110.0,110.0,433.0,0.00,0,0,1,166.7,69.1,69.1,93.0,93.0,34.0,-0.70,-7.25,0.0,43.9,8,-391.780,-44.0,100.0,21.4,26.2,12.8,20.0,0,1,0.0,0.00,0.00,0.00,0.00,3115,4821,1968,3725,317.3,312.7,350.3,345.6,26.03,23.26,26.94,25.28,325.0,325.0,355.0,355.0,99.71,99.92,99.76,99.87,3.35,3.37,1.64,1.90,-8.4,-9.9,-9.3,-3.4,88.7,71.4,88.1,77.8,92.9,73.5,90.7,79.1,89.6,70.2,89.1,76.7,86.3,68.1,87.5,75.3,-2.54,2.47,0.11,0.09,0.00,108.99,108.97,99.98,107.47,88.0,25.5,1.56182585456894,132.877531310887,56.17586692434203,-93.62644496874069,-10.803051550459557
2.450,120.2,44.053582553303052,-78.681659910227722,14.5,-17.8,22.1,114.5,13763.1,13763,139.2,0,1,1,0,1,1,0,0,0,100,1,1.186,26.0,0.0,-0.078,46.834,66.0,62.2,26.0,26.0,26.0,26.0,0.89,-1.30,-0.19,388.3,-2.61,-3.00,-2.33,0.02,-706.54,574.27,6.0,0.00,0.00,0.00,0.00,0.07,-7.49,-7.49,-1.00,-3.42,-0.73,8.19,38.59,0.98,-0.76,-14.84,100.0,0,0,104.10,0,0,0.0,0,0,0,0,5553,0,30.00,4,139.2,1,0,0.0,0.0,0.0,0.0,0,0,2.478,2.478,46.834,17.023,1,110.00,435.8,8750,0.0,0.0,110.0,110.0,433.0,0.00,0,0,1,166.7,66.0,66.0,95.2,95.2,34.0,-5.72,-2.20,3.5,65.6,8,-391.830,-47.3,100.0,22.2,25.3,13.9,25.7,0,1,0.0,0.00,0.00,0.00,0.00,4716,5416,1508,4374,313.8,310.4,351.9,344.1,26.03,23.26,26.94,25.28,325.0,325.0,355.0,355.0,99.71,99.92,99.76,99.87,3.52,3.58,1.75,1.97,-10.0,-7.9,-6.3,-2.0,88.7,71.4,88.1,77.8,92.9,73.6,90.7,79.1,89.7,70.3,89.0,76.7,86.3,68.3,87.5,75.3,-2.74,2.68,0.12,0.08,0.00,106.38,109.75,101.28,106.92,88.0,25.5,1.5868837386525831,122.43458168741815,53.29505321548774,-126.03559876658409,-21.606103100918972
2.500,122.1,44.053568344021684,-78.681653614976483,83.9,112.5,-123.7,55.1,13765.0,13765,137.3,0,1,1,0,1,1,0,0,0,100,1,1.186,26.0,0.0,-0.078,46.834,66.0,47.1,26.0,26.0,26.0,26.0,1.22,-0.88,-0.08,386.8,-3.11,-2.25,-2.23,-0.32,-705.84,572.69,6.0,0.00,0.00,0.00,0.00,0.07,-7.49,-7.49,-1.03,2.65,-0.16,13.82,38.08,1.03,-0.76,-22.24,100.0,0,0,100.10,0,0,0.0,0,0,0,0,5339,0,30.00,4,137.3,0,0,0.0,0.0,0.0,0.0,0,0,2.523,2.523,46.834,17.023,0,110.00,435.8,8750,0.0,0.0,110.0,110.0,433.0,0.00,0,0,1,333.3,61.1,61.1,95.5,95.5,34.0,9.97,89.75,-0.2,78.3,8,-391.880,-47.8,100.0,26.3,30.9,7.7,28.5,0,1,0.0,0.00,0.00,0.00,0.00,1767,7650,603,4599,319.7,304.4,353.7,343.3,26.03,23.26,26.94,25.28,325.0,325.0,355.0,355.0,99.71,99.92,99.76,99.87,3.41,3.41,2.03,2.24,-4.5,-3.2,-11.7,-1.4,88.7,71.4,88.1,77.8,93.0,73.7,90.6,79.1,89.7,70.4,89.0,76.7,86.4,68.4,87.5,75.3,-2.78,2.73,0.13,0.08,0.00,109.57,114.48,93.78,106.40,88.0,25.5,1.5063864046120439,120.2739714342286,54.015256614250134,28.808137088542765,54.01525661425012
2.550,124.0,44.053552515961414,-78.681646420403638,-239.5,85.3,112.3,128.9,13766.9,13767,135.6,0,1,1,0,1,1,0,0,0,100,1,1.186,26.0,0.0,-0.075,46.834,66.0,26.0,26.0,26.0,26.0,26.0,1.30,-0.70,-0.08,385.9,-3.27,-1.81,-1.68,-0.95,-705.04,570.93,6.0,0.00,0.00,0.00,0.00,0.07,-7.49,-7.49,-0.82,3.60,0.27,0.91,37.63,1.23,-0.60,-25.89,100.0,0,0,102.79,0,0,0.0,0,0,0,0,5483,0,30.00,4,135.6,1,0,0.0,0.0,0.0,0.0,0,0,2.574,2.574,46.834,17.023,1,110.00,435.8,8750,0.0,0.0,110.0,110.0,433.0,0.00,0,0,1,333.3,69.0,69.0,76.9,76.9,34.0,-0.10,93.51,9.7,93.3,8,-391.930,-47.1,100.0,14.4,35.2,13.3,34.9,0,1,0.0,0.00,0.00,0.00,0.00,188,6800,1749,5332,324.5,306.1,350.7,340.7,26.02,23.26,26.94,25.28,325.0,325.0,355.0,355.0,99.71,99.92,99.76,99.87,3.69,3.57,2.59,2.82,-11.2,-1.8,-5.0,-1.4,88.7,71.4,88.1,77.8,92.9,73.8,90.6,79.1,89.7,70.5,88.9,76.7,86.3,68.5,87.4,75.3,-2.77,2.69,0.12,0.06,0.00,100.55,114.53,100.20,105.38,88.0,25.5,1.4786480311419619,125.31539539627242,58.69657887691275,-7.202034272135478,46.813222626626185
2.600,125.9,44.053537047629796,-78.681638956034305,-90.4,-220.0,112.2,95.2,13768.8,13769,134.7,0,1,1,0,1,1,0,0,0,100,1,1.186,26.0,0.0,-0.075,46.834,66.0,8.4,26.0,26.0,26.0,26.0,1.14,-0.31,-0.30,389.9,-3.97,-1.96,-2.59,0.02,-704.21,569.21,6.0,0.00,0.00,0.00,0.00,0.08,-7.49,-7.49,-0.80,-2.89,0.06,-7.44,37.38,1.37,-0.50,-19.16,100.0,0,0,104.28,0,0,0.0,0,0,0,0,5562,0,30.00,4,134.7,0,0,0.0,0.0,0.0,0.0,0,0,2.625,2.625,46.834,17.023,0,110.00,435.8,8750,0.0,0.0,110.0,110.0,433.0,0.00,0,0,1,333.3,84.2,84.2,76.1,76.1,34.0,0.00,40.55,22.3,128.1,8,-391.980,-47.0,100.0,9.8,24.2,18.9,39.7,0,1,0.0,0.00,0.00,0.00,0.00,0,4245,1866,6871,325.0,313.9,350.4,338.0,26.02,23.26,26.94,25.28,325.0,325.0,355.0,355.0,99.71,99.92,99.76,99.87,0.00,4.09,2.80,2.96,0.0,-1.1,-0.9,-0.7,88.6,71.4,88.1,77.8,92.9,73.9,90.5,79.2,89.6,70.6,88.9,76.8,86.3,68.5,87.4,75.4,-2.75,2.67,0.12,0.05,0.00,87.12,113.96,103.38,105.18,88.0,25.5,1.2188929403356146,119.55376800701505,58.69657887691275,-68.41932515852136,14.40406797524794
2.650,127.7,44.053522658484098,-78.681631761461460,37.2,-46.0,-45.6,-78.2,13770.6,13771,134.0,0,1,1,0,1,1,0,0,0,100,1,1.186,26.0,0.0,-0.075,46.834,66.0,1.1,26.0,26.0,26.0,26.0,1.11,-0.35,-0.29,390.4,-2.62,-2.34,-2.32,-0.23,-703.41,567.61,6.0,0.00,0.00,0.00,0.00,0.08,-7.49,-7.49,-1.02,-4.27,-0.38,-8.09,37.19,1.40,-0.50,-19.19,100.0,0,0,104.47,0,0,0.0,0,0,0,0,5573,0,30.00,4,134.0,1,0,0.0,0.0,0.0,0.0,0,0,2.673,2.673,46.834,17.023,1,110.00,435.8,8750,0.0,0.0,110.0,110.0,433.0,0.00,0,0,1,333.3,77.3,77.3,86.3,86.3,34.0,-2.16,46.26,11.0,62.5,8,-392.030,-49.0,100.0,11.7,21.9,16.6,35.8,0,1,5.9,0.00,0.00,0.00,0.00,1856,5132,1085,3887,320.4,311.6,352.5,345.1,26.02,23.26,26.94,25.28,325.0,325.0,355.0,355.0,99.71,99.92,99.76,99.87,4.37,4.34,2.84,2.95,-10.1,-0.3,-0.1,-0.2,88.6,71.4,88.1,77.8,92.9,74.0,90.5,79.2,89.6,70.6,88.8,76.8,86.3,68.6,87.3,75.4,-2.86,2.78,0.11,0.05,0.00,103.20,114.19,103.84,105.11,88.0,25.5,1.199458211026962,118.47346288042029,60.13698567443755,10.803051265947943,54.01525661425026
2.700,129.6,44.053507459948960,-78.681623937363497,64.6,153.0,21.2,-152.3,13772.5,13773,133.7,0,1,1,0,1,1,0,0,0,100,1,1.186,26.0,0.0,-0.075,46.834,66.0,0.0,26.0,26.0,26.0,26.0,1.74,0.00,-0.01,384.7,-2.43,-3.21,-2.25,-1.54,-702.54,565.92,6.0,0.00,0.00,0.00,0.00,0.08,-7.49,-7.49,-1.08,2.17,-0.47,4.88,37.10,1.45,-0.44,-25.22,100.0,0,0,105.19,0,0,0.0,0,0,0,0,5611,0,30.00,4,133.7,0,0,0.0,0.0,0.0,0.0,1,0,2.724,2.724,46.834,17.023,0,110.00,435.8,8750,0.0,0.0,110.0,110.0,433.0,0.00,0,0,1,333.3,68.3,68.3,72.3,72.3,34.0,17.83,70.12,57.5,79.5,8,-392.080,-54.7,100.0,14.9,29.5,17.7,28.1,0,1,15.1,0.00,0.00,0.00,0.00,2363,7367,4116,4896,319.7,305.0,345.5,342.3,26.02,23.27,26.94,25.28,325.0,325.0,355.0,355.0,99.71,99.92,99.76,99.87,4.34,4.38,2.98,3.19,-0.2,-0.3,1.7,0.3,88.6,71.4,88.1,77.7,92.8,74.1,90.5,79.2,89.6,70.8,88.8,76.8,86.2,68.7,87.3,75.4,-3.17,3.08,0.10,0.08,0.00,112.38,114.55,104.77,105.63,88.0,25.5,1.7400287353949073,120.63407313360985,64.09810453833778,-32.40915408235509,43.21220563281436
2.750,131.4,44.053492531210303,-78.681615753536875,0.1,63.2,-11.7,348.3,13774.4,13774,133.5,0,1,1,0,1,1,0,0,0,100,1,1.186,26.0,0.0,-0.075,46.834,66.0,0.0,26.0,26.0,26.0,26.0,1.72,0.03,-0.06,380.2,-3.63,-1.81,-2.74,0.02,-701.63,564.26,6.0,0.00,0.00,0.00,0.00,0.08,-7.49,-7.49,-0.85,4.86,0.13,8.14,37.04,1.49,-0.37,-26.83,100.0,0,0,105.43,0,0,0.0,0,0,0,0,5624,0,30.00,4,133.5,1,0,0.0,0.0,0.0,0.0,1,0,2.775,2.775,46.834,17.023,1,110.00,435.8,8750,0.0,0.0,110.0,110.0,433.0,0.00,0,0,1,333.3,70.0,70.0,74.6,74.6,34.0,2.59,56.02,24.2,159.4,8,-392.130,-59.7,100.0,14.9,32.7,17.1,45.6,0,1,11.9,0.00,0.00,0.00,0.00,538,6307,2282,8261,323.3,307.9,349.8,333.5,26.02,23.27,26.94,25.28,325.0,325.0,355.0,355.0,99.71,99.92,99.76,99.87,4.72,4.55,3.10,3.27,0.0,-0.2,2.3,0.4,88.6,71.4,88.1,77.8,92.8,74.2,90.4,79.3,89.5,70.9,88.8,76.9,86.2,68.8,87.3,75.5,-3.48,3.36,0.10,0.03,0.00,112.26,114.45,105.43,105.43,88.0,25.5,1.7213076424625553,115.23254747218478,64.45820623771898,-68.41932487400996,25.207119525707213
