Time,Distance,GPS Latitude,GPS Longitude,Damper Velocity (Calc) FL,Damper Velocity (Calc) FR,Damper Velocity (Calc) RL,Damper Velocity (Calc) RR,Corr Dist,Corr Dist (Unstretched),Corr Speed,ABS Active,ABS Enabled,AID Allow Tire Blankets,AID Auto Blip,AID Auto Clutch,AID Auto Shift,AID Fuel Rate,AID Ideal Line,AID Mech Damage,AID Stability,AID Tire Wear Rate,Air Density,Air Temp,Ballast,Best Lap Delta,Best Lap Time,Brake Bias,Brake Pos,Brake Temp FL,Brake Temp FR,Brake Temp RL,Brake Temp RR,CG Accel Lateral,CG Accel Longitudinal,CG Accel Vertical,CG Height,Camber FL,Camber FR,Camber RL,Camber RR,Car Coord X,Car Coord Y,Car Coord Z,Car Damage Front,Car Damage Left,Car Damage Rear,Car Damage Right,Car Pos Norm,Caster FL,Caster FR,Chassis Pitch Angle,Chassis Pitch Rate,Chassis Roll Angle,Chassis Roll Rate,Chassis Velocity X,Chassis Velocity Y,Chassis Velocity Z,Chassis Yaw Rate,Clutch Pos,DRS Active,DRS Available,Drive Train Speed,ERS Heat Charging,ERS Is Charging,ERS Max Energy,ERS Power Level,ERS Recovery Level,Engine Brake Setting,Engine Limiter,Engine RPM,Flags,Fuel Level,Gear,Ground Speed,HR Sample Clock,In Pit,KERS Charge,KERS Deployed Energy,KERS Input,KERS Max Energy,LR Sample Clock,Lap Invalidated,Lap Time,Lap Time2,Last Lap Time,Last Sector Time,MR Sample Clock,Max Fuel,Max Power,Max RPM,Max Sus Travel FL,Max Sus Travel FR,Max Sus Travel RL,Max Sus Travel RR,Max Torque,Max Turbo Boost,Num Tires Off Track,Penalties Enabled,Position,Raw Data Sample Rate,Ride Height FL,Ride Height FR,Ride Height RL,Ride Height RR,Road Temp,Self Align Torque FL,Self Align Torque FR,Self Align Torque RL,Self Align Torque RR,Session Lap Count,Session Time Left,Steering Angle,Surface Grip,Suspension Travel FL,Suspension Travel FR,Suspension Travel RL,Suspension Travel RR,TC Active,TC Enabled,Throttle Pos,Tire Dirt Level FL,Tire Dirt Level FR,Tire Dirt Level RL,Tire Dirt Level RR,Tire Load FL,Tire Load FR,Tire Load RL,Tire Load RR,Tire Loaded Radius FL,Tire Loaded Radius FR,Tire Loaded Radius RL,Tire Loaded Radius RR,Tire Pressure FL,Tire Pressure FR,Tire Pressure RL,Tire Pressure RR,Tire Radius FL,Tire Radius FR,Tire Radius RL,Tire Radius RR,Tire Rubber Grip FL,Tire Rubber Grip FR,Tire Rubber Grip RL,Tire Rubber Grip RR,Tire Slip Angle FL,Tire Slip Angle FR,Tire Slip Angle RL,Tire Slip Angle RR,Tire Slip Ratio FL,Tire Slip Ratio FR,Tire Slip Ratio RL,Tire Slip Ratio RR,Tire Temp Core FL,Tire Temp Core FR,Tire Temp Core RL,Tire Temp Core RR,Tire Temp Inner FL,Tire Temp Inner FR,Tire Temp Inner RL,Tire Temp Inner RR,Tire Temp Middle FL,Tire Temp Middle FR,Tire Temp Middle RL,Tire Temp Middle RR,Tire Temp Outer FL,Tire Temp Outer FR,Tire Temp Outer RL,Tire Temp Outer RR,Toe In FL,Toe In FR,Toe In RL,Toe In RR,Turbo Boost,Wheel Angular Speed FL,Wheel Angular Speed FR,Wheel Angular Speed RL,Wheel Angular Speed RR,Wind Direction,Wind Speed,CG Distance,Lateral Velocity,Longitudinal Velocity,Lateral Acceleration,Longitudinal Acceleration
s,m,deg,deg,mm/s,mm/s,mm/s,mm/s,m,m,km/h,,,,,,,,,%,%,,kg/m3,C,kg,s,s,%,%,C,C,C,C,G,G,G,mm,deg,deg,deg,deg,m,m,m,,,,,,deg,deg,deg,deg/s,deg,deg/s,m/s,m/s,m/s,deg/s,%,,,rad/s,,,MJ,,,,,rpm,,l,,km/h,,,%,kJ,%,MJ,,,s,s,s,s,,l,hp,rpm,mm,mm,mm,mm,N.m,,,,,Hz,mm,mm,mm,mm,C,N.m,N.m,N.m,N.m,,s,deg,%,mm,mm,mm,mm,,,%,,,,,N,N,N,N,mm,mm,mm,mm,psi,psi,psi,psi,mm,mm,mm,mm,%,%,%,%,deg,deg,deg,deg,%,%,%,%,C,C,C,C,C,C,C,C,C,C,C,C,C,C,C,C,deg,deg,deg,deg,,rad/s,rad/s,rad/s,rad/s,deg,km/h,G,Km/h,Km/h,Km/h^2,Km/h^2
0.000,0.0,44.054623428129744,-78.681942567008463,-31.1,-31.1,88.8,14.3,17092.4,17092,175.2,0,1,1,0,1,1,0,0,0,100,1,1.186,26.0,0.0,0.000,46.834,66.0,0.0,26.0,26.0,26.0,26.0,-0.09,0.36,0.11,376.6,-2.72,-2.26,-2.06,-1.92,-737.97,690.01,5.7,0.00,0.00,0.00,0.00,0.00,-7.49,-7.49,-0.39,-0.85,0.15,0.77,48.69,0.00,-0.41,1.91,100.0,0,0,138.99,0,0,0.0,0,0,0,0,7414,0,30.00,4,175.2,1,0,0.0,0.0,0.0,0.0,0,0,0.036,0.036,48.812,18.026,1,110.00,435.8,8750,0.0,0.0,110.0,110.0,433.0,0.00,0,0,1,333.3,70.0,70.0,61.8,61.8,34.0,-29.41,13.71,-27.2,19.3,10,-487.830,3.0,100.0,22.2,21.4,41.0,39.9,0,1,100.0,0.00,0.00,0.00,0.00,4574,4880,4850,5030,314.7,312.0,342.6,341.3,26.13,23.31,26.58,24.97,325.0,325.0,355.0,355.0,99.59,99.85,99.65,99.79,-0.18,-0.06,-0.12,0.00,-0.1,-0.1,1.6,1.7,89.3,71.7,85.9,75.8,94.8,72.3,90.2,78.4,91.3,69.2,88.7,75.9,87.8,67.3,87.5,74.5,0.19,-0.18,0.04,0.05,0.00,149.25,149.19,138.99,138.99,88.0,25.5,0.38704004960727256
0.050,2.4,44.054603283325775,-78.681936181825066,28.3,19.5,-33.5,-54.2,17094.8,17095,175.8,0,1,1,0,1,1,0,0,0,100,1,1.186,26.0,0.0,0.000,46.834,66.0,0.0,26.0,26.0,26.0,26.0,-0.13,0.32,0.04,378.3,-2.61,-2.72,-1.61,-1.73,-737.26,687.77,5.7,0.00,0.00,0.00,0.00,0.00,-7.49,-7.49,-0.33,2.13,0.21,2.00,48.84,-0.03,-0.36,2.58,100.0,0,0,139.36,0,0,0.0,0,0,0,0,7434,0,30.00,4,175.8,0,0,0.0,0.0,0.0,0.0,0,0,0.084,0.084,48.812,18.026,0,110.00,435.8,8750,0.0,0.0,110.0,110.0,433.0,0.00,0,0,1,333.3,71.1,71.1,67.9,67.9,34.0,-29.48,5.61,-24.7,18.5,10,-487.880,3.5,100.0,23.6,22.4,39.3,37.2,0,1,100.0,0.00,0.00,0.00,0.00,4363,2889,4512,5956,314.0,317.8,344.1,339.6,26.13,23.31,26.59,24.98,325.0,325.0,355.0,355.0,99.59,99.85,99.65,99.79,-0.19,-0.16,-0.19,-0.04,-0.0,-0.0,1.4,1.6,89.3,71.7,85.9,75.8,94.7,72.2,90.1,78.3,91.2,69.1,88.6,75.9,87.8,67.3,87.4,74.5,0.20,-0.20,0.05,0.05,0.00,149.94,149.64,139.36,139.36,88.0,25.5,0.3477067730142742,166.36699043448303,52.57484975982299
0.100,4.9,44.054581879471549,-78.681929436913023,-121.0,-38.6,44.1,79.8,17097.2,17097,176.4,0,1,1,0,1,1,0,0,0,100,1,1.186,26.0,0.0,0.000,46.834,66.0,0.0,26.0,26.0,26.0,26.0,-0.15,0.32,0.02,378.7,-1.97,-2.61,-1.33,-1.88,-736.51,685.39,5.7,0.00,0.00,0.00,0.00,0.00,-7.49,-7.49,-0.32,-2.13,0.12,-4.28,49.01,-0.06,-0.35,2.46,100.0,0,0,139.72,0,0,0.0,0,0,0,0,7453,0,30.00,4,176.4,1,0,0.0,0.0,0.0,0.0,0,0,0.135,0.135,48.812,18.026,1,110.00,435.8,8750,0.0,0.0,110.0,110.0,433.0,0.00,0,0,1,333.3,75.9,75.9,58.3,58.3,34.0,-22.69,3.33,-32.5,12.3,10,-487.930,5.2,100.0,17.6,20.5,41.5,41.2,0,1,100.0,0.00,0.00,0.00,0.00,3543,3312,6383,4225,315.6,316.5,339.4,343.4,26.13,23.31,26.59,24.98,325.0,325.0,355.0,355.0,99.59,99.85,99.65,99.79,-0.26,-0.22,-0.17,-0.06,-0.1,-0.0,1.5,1.6,89.3,71.7,85.9,75.9,94.6,72.2,90.1,78.3,91.1,69.1,88.6,75.9,87.7,67.3,87.4,74.5,0.28,-0.29,0.05,0.04,0.00,150.27,150.01,139.72,139.72,88.0,25.5,0.3539774004085572,171.40841439652687,54.015256614250134,7.202033987624077,-3.6010169938119674
0.150,7.3,44.054560475617329,-78.681922692000981,3.8,-101.3,-119.6,-71.4,17099.7,17100,176.9,0,1,1,0,1,1,0,0,0,100,1,1.186,26.0,0.0,-0.003,46.834,66.0,0.0,26.0,26.0,26.0,26.0,-0.21,0.34,-0.33,384.4,-2.35,-2.18,-2.80,-1.84,-735.76,683.01,5.7,0.00,0.00,0.00,0.00,0.01,-7.49,-7.49,-0.50,-4.04,0.04,-3.40,49.16,-0.09,-0.38,3.24,100.0,0,0,140.81,0,0,0.0,0,0,0,0,7511,0,30.00,4,176.9,0,0,0.0,0.0,0.0,0.0,0,0,0.186,0.186,48.812,18.026,0,110.00,435.8,8750,0.0,0.0,110.0,110.0,433.0,0.00,0,0,1,166.7,80.4,80.4,69.1,69.1,34.0,-16.94,-3.80,-44.9,7.1,10,-487.980,7.6,100.0,17.7,15.4,35.6,37.6,0,1,100.0,0.00,0.00,0.00,0.00,2252,2983,5586,4091,319.4,317.4,342.7,344.6,26.13,23.31,26.59,24.98,325.0,325.0,355.0,355.0,99.59,99.85,99.65,99.79,-0.41,-0.37,-0.28,-0.12,-0.0,-0.1,2.0,2.2,89.3,71.7,85.9,75.9,94.6,72.1,90.0,78.3,91.1,69.1,88.5,75.9,87.6,67.2,87.3,74.5,0.42,-0.42,0.07,0.05,0.00,150.60,150.41,140.81,140.81,88.0,25.5,0.5182663407939976,167.08719383324544,52.21474806044179,-32.409154366866915,-21.606102531895246
0.200,9.8,44.054540150949038,-78.681916396749742,91.6,20.3,10.0,-156.7,17102.2,17102,177.5,0,1,1,0,1,1,0,0,0,100,1,1.186,26.0,0.0,-0.003,46.834,66.0,0.0,26.0,26.0,26.0,26.0,-0.37,0.37,-0.16,383.5,-1.76,-2.25,-1.74,-1.51,-735.06,680.75,5.7,0.00,0.00,0.00,0.00,0.01,-7.49,-7.49,-0.65,-1.49,-0.06,2.95,49.31,-0.13,-0.43,5.66,100.0,0,0,141.45,0,0,0.0,0,0,0,0,7545,0,30.00,4,177.5,1,0,0.0,0.0,0.0,0.0,0,0,0.234,0.234,48.812,18.026,1,110.00,435.8,8750,0.0,0.0,110.0,110.0,433.0,0.00,0,0,1,333.3,73.6,73.6,74.1,74.1,34.0,-51.20,-10.68,-30.3,-0.5,10,-488.030,10.1,100.0,22.3,16.4,36.1,29.8,0,1,100.0,0.00,0.00,0.00,0.00,4854,3625,4216,3711,313.2,316.4,344.4,345.7,26.13,23.31,26.59,24.98,325.0,325.0,355.0,355.0,99.59,99.85,99.65,99.79,-0.64,-0.53,-0.38,-0.25,-0.0,-0.0,2.0,2.3,89.3,71.7,85.9,75.9,94.5,72.1,90.0,78.3,91.0,69.0,88.5,75.9,87.6,67.2,87.3,74.4,0.59,-0.58,0.06,0.06,0.00,151.33,150.78,141.45,141.45,88.0,25.5,0.5471745608121781,168.16749895984017,51.85464636106061,68.41932515852136,7.20203455664759
0.250,12.3,44.054518477298338,-78.681909741769857,113.5,123.2,35.7,48.0,17104.6,17105,178.0,0,1,1,0,1,1,0,0,0,100,1,1.186,26.0,0.0,-0.006,46.834,66.0,0.0,26.0,26.0,26.0,26.0,-0.53,0.28,0.18,375.4,-2.50,-2.69,-0.42,-1.62,-734.32,678.34,5.7,0.00,0.00,0.00,0.00,0.01,-7.49,-7.49,-0.59,3.73,0.01,1.66,49.46,-0.21,-0.42,8.24,100.0,0,0,141.51,0,0,0.0,0,0,0,0,7548,0,30.00,4,178.0,0,0,0.0,0.0,0.0,0.0,1,0,0.285,0.285,48.812,18.026,0,110.00,435.8,8750,0.0,0.0,110.0,110.0,433.0,0.00,0,0,1,333.3,61.9,61.9,66.4,66.4,34.0,-85.16,-17.15,-47.1,-5.7,10,-488.080,10.0,100.0,28.0,22.6,37.9,32.2,0,1,100.0,0.00,0.00,0.00,0.00,6625,5710,5918,4128,308.6,310.0,340.3,345.1,26.13,23.31,26.59,24.98,325.0,325.0,355.0,355.0,99.59,99.85,99.65,99.79,-0.68,-0.55,-0.55,-0.38,-0.1,-0.1,1.6,2.0,89.3,71.7,85.9,75.9,94.5,72.1,90.0,78.3,91.0,69.0,88.5,75.8,87.5,67.2,87.3,74.4,0.59,-0.60,0.07,0.07,0.00,152.20,151.51,141.51,141.51,88.0,25.5,0.6258594091327541,173.92912634909757,52.93495151610655,14.404068828783636,-14.404067975247798
0.300,14.8,44.054496713715473,-78.681903176722130,45.8,49.5,155.3,122.4,17107.1,17107,178.6,0,1,1,0,1,1,0,0,0,100,1,1.186,26.0,0.0,-0.009,46.834,66.0,0.0,26.0,26.0,26.0,26.0,-0.59,0.37,0.18,371.7,-2.48,-2.71,-2.40,-1.79,-733.59,675.92,5.7,0.00,0.00,0.00,0.00,0.01,-7.49,-7.49,-0.28,5.76,-0.01,-0.71,49.63,-0.31,-0.30,8.32,100.0,0,0,141.43,0,0,0.0,0,0,0,0,7544,0,30.00,4,178.6,1,0,0.0,0.0,0.0,0.0,1,0,0.336,0.336,48.812,18.026,1,110.00,435.8,8750,0.0,0.0,110.0,110.0,433.0,0.00,0,0,1,333.3,67.0,67.0,55.4,55.4,34.0,-44.30,-7.18,-115.2,-19.1,10,-488.130,7.6,100.0,30.3,25.0,45.6,38.3,0,1,100.0,0.00,0.00,0.00,0.00,4035,2396,8170,6797,314.7,317.9,336.0,338.4,26.13,23.31,26.59,24.98,325.0,325.0,355.0,355.0,99.59,99.85,99.65,99.79,-0.61,-0.59,-0.68,-0.50,-0.0,-0.1,1.2,1.7,89.3,71.7,86.0,75.9,94.4,72.1,89.9,78.3,90.9,69.0,88.5,75.8,87.5,67.1,87.2,74.4,0.48,-0.46,0.04,0.05,0.00,152.69,151.90,141.43,141.43,88.0,25.5,0.7193052203341778,169.60790584271854,50.41423956353583,14.40406854427124,-14.404068544271453
0.350,17.3,44.054476119250694,-78.681897151267364,-204.4,-132.5,129.7,120.1,17109.6,17110,179.2,0,1,1,0,1,1,0,0,0,100,1,1.186,26.0,0.0,-0.009,46.834,66.0,0.0,26.0,26.0,26.0,26.0,-0.49,0.33,0.01,375.7,-0.91,-3.07,-2.16,-1.76,-732.92,673.63,5.7,0.00,0.00,0.00,0.00,0.01,-7.49,-7.49,-0.26,-3.27,-0.19,-4.75,49.78,-0.35,-0.33,5.27,100.0,0,0,141.93,0,0,0.0,0,0,0,0,7571,0,30.00,4,179.2,0,0,0.0,0.0,0.0,0.0,1,0,0.384,0.384,48.812,18.026,0,110.00,435.8,8750,0.0,0.0,110.0,110.0,433.0,0.00,0,0,1,166.7,78.3,78.3,47.5,47.5,34.0,-16.60,-6.75,-87.8,-10.8,10,-488.180,6.2,100.0,20.1,18.4,52.1,44.3,0,1,100.0,0.00,0.00,0.00,0.00,2162,2591,7301,4414,318.9,317.3,337.2,343.5,26.13,23.30,26.60,24.98,325.0,325.0,355.0,355.0,99.59,99.85,99.65,99.79,-0.57,-0.59,-0.57,-0.49,-0.0,-0.1,1.5,1.7,89.3,71.7,86.0,75.9,94.3,72.0,89.9,78.3,90.9,68.9,88.4,75.8,87.4,67.1,87.2,74.4,0.36,-0.37,0.03,0.05,0.00,152.69,152.24,141.93,141.93,88.0,25.5,0.5908468498688979,175.3695332035247,51.494544661679406,64.81830759568595,7.202033418600209
0.400,19.8,44.054452916753263,-78.681890316423164,-59.9,-104.0,-244.4,-184.2,17112.1,17112,179.8,0,1,1,0,1,1,0,0,0,100,1,1.186,26.0,0.0,-0.009,46.834,66.0,0.0,26.0,26.0,26.0,26.0,-0.29,0.40,-0.44,386.4,-1.84,-2.41,-1.42,-2.28,-732.16,671.05,5.7,0.00,0.00,0.00,0.00,0.01,-7.49,-7.49,-0.51,-5.70,-0.27,-1.14,49.94,-0.39,-0.38,4.64,100.0,0,0,142.81,0,0,0.0,0,0,0,0,7618,0,30.00,4,179.8,1,0,0.0,0.0,0.0,0.0,1,0,0.438,0.438,48.812,18.026,1,110.00,435.8,8750,0.0,0.0,110.0,110.0,433.0,0.00,0,0,1,166.7,86.1,86.1,68.5,68.5,34.0,-9.05,-3.72,-42.8,-8.4,10,-488.230,6.4,100.0,17.1,13.2,39.9,35.1,0,1,100.0,0.00,0.00,0.00,0.00,1166,1449,4517,4635,322.0,322.8,343.9,342.4,26.13,23.30,26.60,24.98,325.0,325.0,355.0,355.0,99.59,99.85,99.65,99.78,-0.66,-0.65,-0.63,-0.52,-0.0,-0.1,1.8,2.2,89.3,71.6,86.0,75.9,94.3,72.0,89.9,78.2,90.8,68.9,88.4,75.8,87.4,67.0,87.2,74.4,0.37,-0.38,0.06,0.06,0.00,152.96,152.55,142.81,142.81,88.0,25.5,0.6615889962809237,176.08973660228713,51.13444290539585,-86.42441069660492,-43.21220563281429
0.450,22.3,44.054432142424169,-78.681884380900570,-26.1,19.0,-54.7,-146.4,17114.6,17115,180.3,0,1,1,0,1,1,0,0,0,100,1,1.186,26.0,0.0,-0.015,46.834,66.0,0.0,26.0,26.0,26.0,26.0,-0.42,0.28,-0.31,387.6,-1.72,-2.70,-1.13,-2.00,-731.50,668.74,5.7,0.00,0.00,0.00,0.00,0.02,-7.49,-7.49,-0.83,-5.64,-0.44,-2.31,50.07,-0.41,-0.48,5.44,100.0,0,0,144.08,0,0,0.0,0,0,0,0,7686,0,30.00,4,180.3,0,0,0.0,0.0,0.0,0.0,1,0,0.486,0.486,48.812,18.026,0,110.00,435.8,8750,0.0,0.0,110.0,110.0,433.0,0.00,0,0,1,333.3,79.4,79.4,73.1,73.1,34.0,-51.41,-12.60,-25.4,-3.9,10,-488.280,7.6,100.0,15.8,14.2,37.2,27.8,0,1,100.0,0.00,0.00,0.00,0.00,4506,3234,3183,2138,314.6,317.0,346.5,349.0,26.13,23.30,26.60,24.98,325.0,325.0,355.0,355.0,99.59,99.85,99.65,99.78,-0.79,-0.68,-0.65,-0.53,-0.1,-0.1,2.3,2.6,89.3,71.6,86.0,75.9,94.2,71.9,89.9,78.2,90.7,68.8,88.4,75.8,87.3,67.0,87.2,74.4,0.44,-0.43,0.06,0.08,0.00,153.54,153.04,144.08,144.08,88.0,25.5,0.5923681287847954,166.7270921338642,47.17332409839798,-36.010170791655014,-32.40915351333122
0.500,24.8,44.054411278162910,-78.681878535310133,370.4,137.2,-120.6,-36.9,17117.1,17117,180.7,0,1,1,0,1,1,0,0,0,100,1,1.186,26.0,0.0,-0.012,46.834,66.0,0.0,26.0,26.0,26.0,26.0,-0.64,0.30,0.09,378.9,-2.16,-3.45,-1.33,-1.73,-730.85,666.42,5.7,0.00,0.00,0.00,0.00,0.02,-7.49,-7.49,-0.83,4.62,-0.60,-0.93,50.21,-0.46,-0.48,8.81,100.0,0,0,144.31,0,0,0.0,0,0,0,0,7697,0,30.00,4,180.7,1,0,0.0,0.0,0.0,0.0,1,0,0.534,0.534,48.812,18.026,1,110.00,435.8,8750,0.0,0.0,110.0,110.0,433.0,0.00,0,0,1,333.3,60.5,60.5,82.6,82.6,34.0,-105.56,-9.66,-62.3,-11.0,10,-488.330,7.6,100.0,34.3,21.0,31.1,25.9,0,1,100.0,0.00,0.00,0.00,0.00,7572,3328,5576,3238,306.1,316.1,341.9,347.0,26.13,23.30,26.60,24.98,325.0,325.0,355.0,355.0,99.59,99.85,99.65,99.78,-0.78,-0.67,-0.83,-0.66,-0.1,-0.1,2.1,2.5,89.3,71.6,86.0,75.9,94.2,71.9,89.8,78.2,90.7,68.8,88.3,75.8,87.3,67.0,87.1,74.3,0.46,-0.45,0.08,0.08,0.00,154.72,153.66,144.31,144.31,88.0,25.5,0.7125307010929424,172.48871952312163,47.89352755406273,118.83356477895973,14.40406911329518
0.550,27.3,44.054389064919242,-78.681872419923209,-205.2,-61.8,382.8,247.1,17119.6,17120,181.4,0,1,1,0,1,1,0,0,0,100,1,1.186,26.0,0.0,-0.015,46.834,66.0,0.0,26.0,26.0,26.0,26.0,-0.62,0.37,0.03,375.0,-2.40,-2.90,-1.17,-2.39,-730.17,663.95,5.7,0.00,0.00,0.00,0.00,0.02,-7.49,-7.49,-0.56,1.56,-0.42,5.29,50.39,-0.50,-0.31,6.49,100.0,0,0,143.47,0,0,0.0,0,0,0,0,7653,0,30.00,4,181.4,0,0,0.0,0.0,0.0,0.0,1,0,0.585,0.585,48.812,18.026,0,110.00,435.8,8750,0.0,0.0,110.0,110.0,433.0,0.00,0,0,1,333.3,76.5,76.5,50.1,50.1,34.0,-37.89,-9.22,-120.9,-20.9,10,-488.380,5.7,100.0,24.0,17.9,50.3,38.3,0,1,100.0,0.00,0.00,0.00,0.00,3434,2495,8348,5123,317.2,319.2,334.3,342.0,26.14,23.30,26.60,24.98,325.0,325.0,355.0,355.0,99.59,99.85,99.65,99.78,-0.76,-0.73,-0.89,-0.73,-0.0,-0.1,1.3,1.6,89.3,71.6,86.0,75.9,94.1,71.9,89.8,78.2,90.6,68.8,88.3,75.7,87.2,67.0,87.1,74.3,0.35,-0.34,0.03,0.05,0.00,154.57,154.18,143.47,143.47,88.0,25.5,0.7226340706055867,178.61044861176018,48.613731009727495,18.005085538082994,-14.404068544271453
0.600,29.8,44.054366671811252,-78.681866394468443,28.9,60.9,-97.9,-11.6,17122.2,17122,181.9,0,1,1,0,1,1,0,0,0,100,1,1.186,26.0,0.0,-0.015,46.834,66.0,0.0,26.0,26.0,26.0,26.0,-0.45,0.25,-0.12,377.9,-2.31,-2.58,-1.22,-1.97,-729.50,661.46,5.7,0.00,0.00,0.00,0.00,0.02,-7.49,-7.49,-0.58,0.84,-0.26,1.93,50.52,-0.46,-0.38,5.79,100.0,0,0,144.96,0,0,0.0,0,0,0,0,7732,0,30.00,4,181.9,1,0,0.0,0.0,0.0,0.0,1,0,0.636,0.636,48.812,18.026,1,110.00,435.8,8750,0.0,0.0,110.0,110.0,433.0,0.00,0,0,1,333.3,70.7,70.7,65.8,65.8,34.0,-47.74,-10.35,-31.9,-13.2,10,-488.430,4.4,100.0,25.5,21.0,45.4,37.7,0,1,100.0,0.00,0.00,0.00,0.00,4212,2883,3421,3848,314.3,317.2,346.4,345.1,26.14,23.30,26.60,24.98,325.0,325.0,355.0,355.0,99.59,99.85,99.65,99.78,-0.66,-0.63,-0.71,-0.65,-0.0,-0.1,1.7,2.2,89.4,71.6,86.0,75.9,94.1,71.8,89.8,78.2,90.6,68.8,88.3,75.7,87.2,66.9,87.1,74.3,0.28,-0.26,0.06,0.05,0.00,155.15,154.58,144.96,144.96,88.0,25.5,0.5285830114561004,174.28922807692993,46.45312069963558,-39.61118835449071,-28.80813765756656
0.650,32.3,44.054345537753512,-78.681860818674494,-107.6,-212.3,-1.3,52.0,17124.7,17125,182.5,0,1,1,0,1,1,0,0,0,100,1,1.186,26.0,0.0,-0.018,46.834,66.0,0.0,26.0,26.0,26.0,26.0,-0.54,0.30,-0.03,380.1,-2.12,-2.68,-1.19,-2.24,-728.88,659.11,5.7,0.00,0.00,0.00,0.00,0.02,-7.49,-7.49,-0.63,-4.68,-0.36,-0.43,50.69,-0.42,-0.34,3.08,100.0,0,0,144.30,0,0,0.0,0,0,0,0,7697,0,30.00,4,182.5,0,0,0.0,0.0,0.0,0.0,1,0,0.684,0.684,48.812,18.026,0,110.00,435.8,8750,0.0,0.0,110.0,110.0,433.0,0.00,0,0,1,166.7,81.7,81.7,63.5,63.5,34.0,-45.87,-3.28,-76.3,-7.9,10,-488.480,3.4,100.0,20.1,10.4,45.3,40.3,0,1,100.0,0.00,0.00,0.00,0.00,4388,1474,6850,3831,314.2,322.0,337.7,344.3,26.14,23.30,26.61,24.98,325.0,325.0,355.0,355.0,99.59,99.85,99.65,99.78,-0.60,-0.59,-0.64,-0.52,-0.0,-0.1,1.4,1.4,89.4,71.6,86.0,75.9,94.0,71.8,89.8,78.2,90.5,68.7,88.3,75.7,87.1,66.9,87.1,74.3,0.20,-0.21,0.03,0.04,0.00,155.38,154.88,144.30,144.30,88.0,25.5,0.6184658438426491,174.6493297763111,45.73291724397084,64.81830759568567,0.0
0.700,34.9,44.054323054713365,-78.681854973084057,-78.3,18.3,-186.1,-213.5,17127.2,17127,182.9,0,1,1,0,1,1,0,0,0,100,1,1.186,26.0,0.0,-0.021,46.834,66.0,0.0,26.0,26.0,26.0,26.0,-0.36,0.37,-0.53,389.0,-1.98,-2.29,-1.40,-2.10,-728.23,656.61,5.7,0.00,0.00,0.00,0.00,0.02,-7.49,-7.49,-0.91,-5.00,-0.08,7.04,50.82,-0.39,-0.41,3.41,100.0,0,0,146.13,0,0,0.0,0,0,0,0,7795,0,30.00,4,182.9,1,0,0.0,0.0,0.0,0.0,1,0,0.735,0.735,48.812,18.026,1,110.00,435.8,8750,0.0,0.0,110.0,110.0,433.0,0.00,0,0,1,166.7,85.3,85.3,72.2,72.2,34.0,-22.98,-3.91,-47.8,-3.7,10,-488.530,3.7,100.0,16.2,11.3,36.0,29.6,0,1,100.0,0.00,0.00,0.00,0.00,2572,1495,5150,1941,318.7,321.7,342.3,349.6,26.14,23.30,26.61,24.98,325.0,325.0,355.0,355.0,99.59,99.85,99.65,99.78,-0.59,-0.58,-0.66,-0.57,-0.1,-0.1,2.4,2.5,89.4,71.6,86.0,75.9,93.9,71.7,89.7,78.1,90.5,68.7,88.2,75.7,87.1,66.8,87.0,74.3,0.21,-0.22,0.07,0.06,0.00,155.52,155.42,146.13,146.13,88.0,25.5,0.7398648525237566,180.7710588364985,46.45312069963558,14.404068259760265,-10.803050981435902
0.750,37.4,44.054300391808901,-78.681849217425778,-59.0,86.5,-74.6,-25.4,17129.8,17130,183.5,0,1,1,0,1,1,0,0,0,100,1,1.186,26.0,0.0,-0.021,46.834,66.0,0.0,26.0,26.0,26.0,26.0,-0.26,0.26,-0.55,389.1,-2.35,-2.39,-2.02,-2.61,-727.59,654.09,5.6,0.00,0.00,0.00,0.00,0.02,-7.49,-7.49,-1.18,-5.55,0.04,-2.80,50.98,-0.37,-0.45,2.71,100.0,0,0,146.64,0,0,0.0,0,0,0,0,7822,0,30.00,4,183.5,0,0,0.0,0.0,0.0,0.0,0,0,0.786,0.786,48.812,18.026,0,110.00,435.8,8750,0.0,0.0,110.0,110.0,433.0,0.00,0,0,1,166.7,82.6,82.6,77.3,77.3,34.0,-29.43,-5.45,-21.3,-0.4,10,-488.580,3.7,100.0,13.2,15.6,32.3,28.3,0,1,100.0,0.00,0.00,0.00,0.00,3046,2104,2893,3259,317.9,319.2,348.7,345.5,26.14,23.29,26.61,24.98,325.0,325.0,355.0,355.0,99.59,99.85,99.65,99.78,-0.61,-0.53,-0.54,-0.41,-0.1,-0.1,2.3,2.6,89.4,71.6,86.0,75.9,93.8,71.7,89.7,78.1,90.4,68.6,88.2,75.7,87.0,66.8,87.0,74.3,0.22,-0.22,0.08,0.08,0.00,156.11,155.89,146.64,146.64,88.0,25.5,0.6615889962809237,176.08973660228713,44.65261214582725,-39.611187785466484,-21.606102531895317
0.800,40.0,44.054279077886839,-78.681843821496145,343.3,160.3,-72.2,21.3,17132.3,17132,184.0,0,1,1,0,1,1,0,0,0,100,1,1.186,26.0,0.0,-0.024,46.834,66.0,0.0,26.0,26.0,26.0,26.0,-0.36,0.24,0.15,377.9,-1.62,-2.88,-0.40,-1.56,-726.99,651.72,5.6,0.00,0.00,0.00,0.00,0.03,-7.49,-7.49,-1.31,1.84,-0.15,-3.98,51.12,-0.33,-0.51,4.26,100.0,0,0,146.94,0,0,0.0,0,0,0,0,7838,0,30.00,4,184.0,1,0,0.0,0.0,0.0,0.0,0,0,0.834,0.834,48.812,18.026,1,110.00,435.8,8750,0.0,0.0,110.0,110.0,433.0,0.00,0,0,1,166.7,58.6,58.6,81.5,81.5,34.0,-66.26,4.09,-23.2,-3.6,10,-488.630,2.4,100.0,30.4,23.6,28.7,29.4,0,1,100.0,0.00,0.00,0.00,0.00,6957,5661,3833,2894,307.9,309.5,346.1,347.5,26.14,23.29,26.61,24.98,325.0,325.0,355.0,355.0,99.59,99.85,99.65,99.78,-0.47,-0.28,-0.54,-0.38,-0.1,-0.1,2.2,2.3,89.4,71.6,86.1,75.9,93.8,71.7,89.7,78.1,90.3,68.6,88.2,75.7,87.0,66.8,86.9,74.2,0.17,-0.15,0.09,0.07,0.00,157.10,156.85,146.94,146.94,88.0,25.5,0.45793012567421243,176.80994005795185,44.29251044644605,68.41932515852108,3.6010175628356933
0.850,42.6,44.054256235118046,-78.681838155770023,22.2,35.0,388.9,146.6,17134.9,17135,184.6,0,1,1,0,1,1,0,0,0,100,1,1.186,26.0,0.0,-0.024,46.834,66.0,0.0,26.0,26.0,26.0,26.0,-0.47,0.36,0.37,366.9,-2.91,-3.37,-0.63,-1.38,-726.36,649.18,5.6,0.00,0.00,0.00,0.00,0.03,-7.49,-7.49,-0.97,6.46,-0.04,7.10,51.30,-0.32,-0.32,3.29,100.0,0,0,145.64,0,0,0.0,0,0,0,0,7769,0,30.00,4,184.6,0,0,0.0,0.0,0.0,0.0,0,0,0.885,0.885,48.812,18.026,0,110.00,435.8,8750,0.0,0.0,110.0,110.0,433.0,0.00,0,0,1,166.7,62.6,62.6,53.8,53.8,34.0,-52.65,10.13,-77.0,-20.9,10,-488.680,-1.9,100.0,31.5,25.4,48.1,36.7,0,1,100.0,0.00,0.00,0.00,0.00,5911,4105,7521,8326,311.1,314.3,336.4,334.0,26.14,23.29,26.61,24.98,325.0,325.0,355.0,355.0,99.59,99.85,99.65,99.78,-0.31,-0.21,-0.61,-0.39,-0.0,-0.1,1.0,1.4,89.4,71.6,86.1,75.9,93.7,71.6,89.6,78.1,90.3,68.6,88.1,75.6,86.9,66.7,86.9,74.2,-0.06,0.08,0.04,0.05,0.00,157.51,157.28,145.64,145.64,88.0,25.5,0.6981403870282824,182.93166911813924,45.01271390211082,14.404068259759697,-10.803051550459415
0.900,45.1,44.054233392349261,-78.681832579976060,-109.5,-25.3,46.6,201.0,17137.5,17137,185.2,0,1,1,0,1,1,0,0,0,100,1,1.186,26.0,0.0,-0.027,46.834,66.0,0.0,26.0,26.0,26.0,26.0,-0.15,0.33,-0.05,371.7,-2.58,-2.91,-2.12,-1.00,-725.74,646.64,5.5,0.00,0.00,0.00,0.00,0.03,-7.49,-7.49,-0.77,2.62,0.18,4.04,51.45,-0.25,-0.29,-0.19,100.0,0,0,146.68,0,0,0.0,0,0,0,0,7824,0,30.00,4,185.2,1,0,0.0,0.0,0.0,0.0,0,0,0.936,0.936,48.812,18.026,1,110.00,435.8,8750,0.0,0.0,110.0,110.0,433.0,0.00,0,0,1,333.3,73.0,73.0,52.2,52.2,34.0,-7.30,7.58,-55.8,-9.6,10,-488.730,-5.3,100.0,26.0,24.1,50.4,46.8,0,1,100.0,0.00,0.00,0.00,0.00,2062,2427,6137,6579,319.6,319.0,340.7,339.9,26.14,23.29,26.61,24.98,325.0,325.0,355.0,355.0,99.59,99.85,99.65,99.78,0.01,-0.06,-0.38,-0.27,-0.0,-0.0,1.4,1.5,89.4,71.6,86.1,75.9,93.7,71.6,89.6,78.0,90.2,68.5,88.1,75.6,86.8,66.7,86.9,74.2,-0.28,0.28,0.03,0.03,0.00,157.69,157.65,146.68,146.68,88.0,25.5,0.3659234892706398,178.25034688392782,43.21220529140011,-39.611188069978596,-18.005086107107076
0.950,47.7,44.054211718698554,-78.681827363910756,-211.8,-116.7,-39.3,31.8,17140.1,17140,185.7,0,1,1,0,1,1,0,0,0,100,1,1.186,26.0,0.0,-0.027,46.834,66.0,0.0,26.0,26.0,26.0,26.0,0.01,0.26,-0.10,377.0,-2.01,-2.40,-1.41,-1.94,-725.16,644.23,5.5,0.00,0.00,0.00,0.00,0.03,-7.49,-7.49,-0.89,-6.12,0.18,-2.87,51.60,-0.13,-0.36,-2.61,100.0,0,0,147.13,0,0,0.0,0,0,0,0,7848,0,30.00,4,185.7,0,0,0.0,0.0,0.0,0.0,0,0,0.984,0.984,48.812,18.026,0,110.00,435.8,8750,0.0,0.0,110.0,110.0,433.0,0.00,0,0,1,333.3,80.2,80.2,53.2,53.2,34.0,-4.61,15.20,-20.7,10.4,10,-488.780,-5.2,100.0,15.4,18.3,48.5,48.4,0,1,100.0,0.00,0.00,0.00,0.00,2429,3016,4935,3504,319.2,316.7,342.1,345.2,26.14,23.29,26.61,24.99,325.0,325.0,355.0,355.0,99.59,99.85,99.65,99.78,0.08,0.13,-0.10,-0.06,-0.0,-0.0,1.6,1.4,89.4,71.6,86.1,75.9,93.6,71.5,89.6,78.0,90.1,68.5,88.1,75.6,86.8,66.7,86.9,74.2,-0.30,0.30,0.04,0.04,0.00,157.81,158.04,147.13,147.13,88.0,25.5,0.2787471972953271,178.97055031114138,43.21220529140011,64.81830788019778,14.404068544271382
1.000,50.3,44.054188696065445,-78.681821788116793,71.8,4.8,-282.7,-255.6,17142.6,17143,186.2,0,1,1,0,1,1,0,0,0,100,1,1.186,26.0,0.0,-0.030,46.834,66.0,0.0,26.0,26.0,26.0,26.0,0.03,0.31,-0.14,379.5,-2.17,-2.52,-1.11,-0.84,-724.54,641.67,5.5,0.00,0.00,0.00,0.00,0.03,-7.49,-7.49,-1.13,-2.93,0.10,-1.25,51.74,-0.01,-0.42,-3.05,100.0,0,0,148.01,0,0,0.0,0,0,0,0,7895,0,30.00,4,186.2,1,0,0.0,0.0,0.0,0.0,0,0,1.035,1.035,48.812,18.026,1,110.00,435.8,8750,0.0,0.0,110.0,110.0,433.0,0.00,0,0,1,333.3,70.9,70.9,72.8,72.8,34.0,-24.24,25.97,-7.9,16.6,10,-488.830,-2.2,100.0,19.0,18.5,34.3,35.6,0,1,100.0,0.00,0.00,0.00,0.00,6120,4641,4154,4964,310.7,313.0,344.9,342.9,26.14,23.29,26.62,24.99,325.0,325.0,355.0,355.0,99.59,99.85,99.65,99.78,-0.01,0.13,0.00,0.16,-0.1,-0.1,2.1,1.9,89.4,71.6,86.1,75.9,93.5,71.5,89.5,78.0,90.1,68.4,88.0,75.6,86.7,66.6,86.8,74.2,-0.16,0.15,0.07,0.06,0.00,158.43,158.65,148.01,148.01,88.0,25.5,0.34146742157927745,184.7321776719476,44.65261214582725,61.217290886386024,14.404068544271382
1.050,52.9,44.054165583500172,-78.681816212322843,315.2,255.8,-2.3,-11.3,17145.2,17145,186.8,0,1,1,0,1,1,0,0,0,100,1,1.186,26.0,0.0,-0.030,46.834,66.0,0.0,26.0,26.0,26.0,26.0,0.03,0.41,0.34,369.4,-2.67,-3.91,-1.32,-1.48,-723.92,639.10,5.5,0.00,0.00,0.00,0.00,0.03,-7.49,-7.49,-1.00,7.53,0.21,3.79,51.89,0.10,-0.44,-1.77,100.0,0,0,148.15,0,0,0.0,0,0,0,0,7902,0,30.00,4,186.8,0,0,0.0,0.0,0.0,0.0,0,0,1.086,1.086,48.812,18.026,0,110.00,435.8,8750,0.0,0.0,110.0,110.0,433.0,0.00,0,0,1,333.3,54.0,54.0,67.8,67.8,34.0,-41.38,34.68,-13.9,34.7,10,-488.880,2.0,100.0,34.8,31.3,34.2,35.0,0,1,100.0,0.00,0.00,0.00,0.00,6456,5390,6609,6060,308.9,310.6,339.7,340.0,26.14,23.29,26.62,24.99,325.0,325.0,355.0,355.0,99.59,99.85,99.65,99.78,-0.11,0.01,0.04,0.21,-0.0,-0.0,1.8,1.7,89.4,71.6,86.1,75.9,93.4,71.5,89.5,78.0,90.0,68.4,88.0,75.6,86.6,66.6,86.8,74.2,0.12,-0.07,0.07,0.05,0.00,159.33,159.39,148.15,148.15,88.0,25.5,0.5334791467339656,185.09227939977998,44.65261214582725,10.803051550459202,3.6010175628356933
1.100,55.5,44.054142470934899,-78.681810636528880,-95.6,16.3,327.8,366.8,17147.8,17148,187.4,0,1,1,0,1,1,0,0,0,100,1,1.186,26.0,0.0,-0.030,46.834,66.0,0.0,26.0,26.0,26.0,26.0,0.03,0.28,0.48,362.4,-3.53,-2.89,-1.79,-2.25,-723.30,636.53,5.5,0.00,0.00,0.00,0.00,0.03,-7.49,-7.49,-0.59,6.62,0.44,1.61,52.05,0.12,-0.32,0.73,100.0,0,0,147.96,0,0,0.0,0,0,0,0,7893,0,30.00,4,187.4,1,0,0.0,0.0,0.0,0.0,0,0,1.137,1.137,48.812,18.026,1,110.00,435.8,8750,0.0,0.0,110.0,110.0,433.0,0.00,0,0,1,166.7,60.3,60.3,45.2,45.2,34.0,-34.17,20.15,-26.7,47.9,10,-488.930,2.6,100.0,30.0,32.1,50.6,53.4,0,1,100.0,0.00,0.00,0.00,0.00,4989,4662,7456,6740,313.2,312.4,336.6,337.3,26.14,23.29,26.62,24.99,325.0,325.0,355.0,355.0,99.59,99.85,99.65,99.78,-0.09,-0.03,0.04,0.13,-0.1,-0.0,1.1,1.1,89.4,71.6,86.1,75.9,93.4,71.4,89.5,78.0,89.9,68.4,88.0,75.6,86.6,66.6,86.8,74.2,0.19,-0.15,0.03,0.02,0.00,159.77,159.76,147.96,147.96,88.0,25.5,0.556506963119061,185.81248282699352,45.01271390211082,14.404068259759413,7.202033987623935
1.150,58.1,44.054119178505303,-78.681804970802759,-2.4,-33.3,-18.6,14.6,17150.5,17150,187.9,0,1,1,0,1,1,0,0,0,100,1,1.186,26.0,0.0,-0.033,46.834,66.0,0.0,26.0,26.0,26.0,26.0,0.00,0.25,0.41,364.1,-2.95,-3.62,-2.59,-1.84,-722.67,633.94,5.4,0.00,0.00,0.00,0.00,0.04,-7.49,-7.49,-0.39,3.58,0.52,-2.30,52.20,0.06,-0.36,1.32,100.0,0,0,148.70,0,0,0.0,0,0,0,0,7932,0,30.00,4,187.9,0,0,0.0,0.0,0.0,0.0,0,0,1.188,1.188,48.812,18.026,0,110.00,435.8,8750,0.0,0.0,110.0,110.0,433.0,0.00,0,0,1,166.7,59.0,59.0,50.1,50.1,34.0,-27.42,35.33,-33.1,31.1,10,-488.980,1.8,100.0,29.9,30.5,49.7,54.1,0,1,100.0,0.00,0.00,0.00,0.00,5007,5549,5934,6325,312.7,309.4,341.1,338.7,26.14,23.29,26.62,24.99,325.0,325.0,355.0,355.0,99.59,99.85,99.65,99.78,-0.04,0.02,-0.00,0.06,-0.0,-0.0,1.2,1.3,89.4,71.6,86.1,75.9,93.3,71.4,89.4,78.0,89.9,68.4,87.9,75.6,86.5,66.5,86.7,74.2,0.12,-0.09,0.04,0.02,0.00,160.20,160.06,148.70,148.70,88.0,25.5,0.48020828814171873,186.53268622575592,45.37281554458964,-100.82847924087616,-25.207120663754665
1.200,60.7,44.054095886075714,-78.681799305076652,-0.3,-20.4,29.4,-78.0,17153.1,17153,188.4,0,1,1,0,1,1,0,0,0,100,1,1.186,26.0,0.0,-0.033,46.834,66.0,0.0,26.0,26.0,26.0,26.0,-0.04,0.29,0.58,364.4,-2.85,-2.98,-1.87,-2.72,-722.04,631.35,5.5,0.00,0.00,0.00,0.00,0.04,-7.49,-7.49,-0.21,3.15,0.43,0.39,52.35,0.02,-0.37,1.52,100.0,0,0,148.87,0,0,0.0,0,0,0,0,7941,0,30.00,4,188.4,1,0,0.0,0.0,0.0,0.0,0,0,1.239,1.239,48.812,18.026,1,110.00,435.8,8750,0.0,0.0,110.0,110.0,433.0,0.00,0,0,1,166.7,60.0,60.0,47.7,47.7,34.0,-29.60,27.88,-33.7,46.2,10,-489.030,1.6,100.0,29.9,29.4,51.1,50.2,0,1,100.0,0.00,0.00,0.00,0.00,5066,5588,6574,7109,312.5,310.1,338.8,336.2,26.14,23.29,26.62,24.99,325.0,325.0,355.0,355.0,99.59,99.85,99.65,99.78,-0.08,0.00,-0.06,0.01,-0.0,-0.1,1.1,1.2,89.4,71.6,86.1,76.0,93.2,71.4,89.4,78.0,89.8,68.3,87.9,75.6,86.4,66.5,86.7,74.2,0.11,-0.08,0.03,0.03,0.00,160.66,160.53,148.87,148.87,88.0,25.5,0.6496922348312314,175.7296349029059,42.49200183573535,-100.82847895636462,-28.808136519519252
1.250,63.3,44.054075291610935,-78.681794358807821,-101.4,-38.6,-5.6,-46.5,17155.7,17156,188.9,0,1,1,0,1,1,0,0,0,100,1,1.186,26.0,0.0,-0.033,46.834,66.0,0.0,26.0,26.0,26.0,26.0,-0.09,0.34,0.03,369.8,-1.94,-2.89,-1.66,-0.68,-721.49,629.06,5.5,0.00,0.00,0.00,0.00,0.04,-7.49,-7.49,-0.07,1.89,0.28,-4.16,52.48,-0.03,-0.35,1.41,100.0,0,0,149.35,0,0,0.0,0,0,0,0,7966,0,30.00,4,188.9,0,0,0.0,0.0,0.0,0.0,1,0,1.284,1.284,48.812,18.026,0,110.00,435.8,8750,0.0,0.0,110.0,110.0,433.0,0.00,0,0,1,333.3,68.1,68.1,46.8,46.8,34.0,-15.45,13.79,-35.1,8.7,10,-489.080,1.3,100.0,24.8,27.5,50.9,47.9,0,1,100.0,0.00,0.00,0.00,0.00,3867,3571,7227,6216,314.9,315.9,337.1,340.4,26.14,23.29,26.62,24.99,325.0,325.0,355.0,355.0,99.59,99.85,99.65,99.78,-0.06,-0.03,-0.07,0.00,-0.1,-0.0,1.3,1.3,89.4,71.6,86.2,76.0,93.2,71.4,89.4,78.0,89.7,68.3,87.9,75.5,86.4,66.5,86.7,74.1,0.08,-0.07,0.03,0.02,0.00,160.91,160.72,149.35,149.35,88.0,25.5,0.35298725189445584,176.44983833011946,42.49200189263772,122.43458177277205,28.80813765756649
1.300,66.0,44.054051819317024,-78.681788693081700,209.5,148.0,-74.2,-35.7,17158.3,17158,189.4,0,1,1,0,1,1,0,0,0,100,1,1.186,26.0,0.0,-0.033,46.834,66.0,0.0,26.0,26.0,26.0,26.0,-0.17,0.25,0.34,365.2,-2.79,-2.88,-1.50,-1.47,-720.86,626.45,5.5,0.00,0.00,0.00,0.00,0.04,-7.49,-7.49,0.06,6.54,-0.02,-7.41,52.61,-0.06,-0.44,1.93,100.0,0,0,150.44,0,0,0.0,0,0,0,0,8024,0,30.00,4,189.4,1,0,0.0,0.0,0.0,0.0,1,0,1.335,1.335,48.812,18.026,1,110.00,435.8,8750,0.0,0.0,110.0,110.0,433.0,0.00,0,0,1,333.3,49.9,49.9,53.7,53.7,34.0,-52.42,32.05,-27.5,6.7,10,-489.130,2.1,100.0,35.3,34.9,47.2,46.1,0,1,100.0,0.00,0.00,0.00,0.00,7349,6350,6261,3178,307.0,307.8,340.2,346.0,26.15,23.29,26.63,24.99,325.0,325.0,355.0,355.0,99.59,99.85,99.65,99.78,-0.14,0.00,-0.09,-0.04,-0.1,-0.0,1.6,1.6,89.4,71.6,86.2,76.0,93.1,71.3,89.3,78.0,89.7,68.3,87.8,75.5,86.3,66.5,86.6,74.1,0.13,-0.09,0.04,0.04,0.00,161.56,161.33,150.44,150.44,88.0,25.5,0.45497252664309307,187.9730930801831,45.372815601492,64.81830788019778,10.803051550459486
1.350,68.6,44.054028347023106,-78.681783027355578,121.1,8.2,198.6,177.4,17161.0,17161,189.9,0,1,1,0,1,1,0,0,0,100,1,1.186,26.0,0.0,-0.036,46.834,66.0,0.1,26.0,26.0,26.0,26.0,-0.30,0.25,0.80,355.4,-6.43,-2.05,-2.99,-1.42,-720.23,623.84,5.5,0.00,0.00,0.00,0.00,0.04,-7.49,-7.49,0.58,10.14,-0.11,1.16,52.75,-0.07,-0.32,2.78,100.0,0,0,150.03,0,0,0.0,0,0,0,0,8002,0,30.00,4,189.9,0,0,0.0,0.0,0.0,0.0,1,0,1.386,1.386,48.812,18.026,0,110.00,435.8,8750,0.0,0.0,110.0,110.0,433.0,0.00,0,0,1,333.3,48.7,48.7,39.6,39.6,34.0,-115.76,8.98,-99.0,11.2,10,-489.180,3.3,100.0,41.3,35.3,57.1,55.0,0,1,98.4,0.00,0.00,0.00,0.00,8527,6097,9356,7701,307.3,309.2,332.8,336.3,26.15,23.29,26.63,25.00,325.0,325.0,355.0,355.0,99.59,99.85,99.65,99.78,-0.40,-0.14,-0.21,-0.12,0.1,-0.0,1.0,1.2,89.4,71.6,86.2,76.0,93.1,71.3,89.3,78.0,89.6,68.3,87.8,75.5,86.3,66.5,86.6,74.1,0.23,-0.15,0.03,0.00,0.00,162.03,161.92,150.03,150.03,88.0,25.5,0.8902246907382428,182.93166911813924,43.572307047683665,-46.813222626626896,-21.6061031009189
1.400,71.2,44.054006133779446,-78.681777811290260,-359.8,-156.9,89.8,22.8,17163.6,17164,190.3,0,1,1,0,1,1,0,0,0,100,1,1.186,26.0,0.0,-0.039,46.834,66.0,0.8,26.0,26.0,26.0,26.0,-0.17,0.22,0.30,368.2,-2.86,-2.51,-1.32,-0.87,-719.65,621.37,5.6,0.00,0.00,0.00,0.00,0.04,-7.49,-7.49,0.91,0.94,-0.04,0.39,52.88,-0.07,-0.31,1.91,100.0,0,0,149.84,0,0,0.0,0,0,0,0,7993,0,30.00,4,190.3,1,0,0.0,0.0,0.0,0.0,1,0,1.434,1.434,48.812,18.026,1,110.00,435.8,8750,0.0,0.0,110.0,110.0,433.0,0.00,0,0,1,333.3,75.5,75.5,32.2,32.2,34.0,-6.90,-0.05,-51.6,1.5,10,-489.230,3.3,100.0,23.3,27.5,61.6,56.1,0,1,84.8,0.00,0.00,0.00,0.00,1377,1667,8530,7608,321.5,320.5,333.8,335.2,26.15,23.29,26.63,25.00,325.0,325.0,355.0,355.0,99.59,99.85,99.65,99.78,-0.15,-0.29,-0.16,-0.12,-0.1,0.0,0.8,0.9,89.4,71.6,86.2,76.0,93.0,71.3,89.3,78.0,89.6,68.3,87.8,75.5,86.2,66.4,86.6,74.1,0.20,-0.19,0.02,0.01,0.00,161.91,161.75,149.84,149.84,88.0,25.5,0.4090232267243512,183.29177081752042,43.21220529140011,118.83356477896001,21.606101962871733
1.450,73.9,44.053982571553369,-78.681772235496311,-263.4,-300.3,-377.2,-193.7,17166.2,17166,190.6,0,1,1,0,1,1,0,0,0,100,1,1.186,26.0,0.0,-0.039,46.834,66.0,2.7,26.0,26.0,26.0,26.0,-0.05,-0.01,-0.69,390.9,-2.22,-1.64,-1.83,-1.44,-719.03,618.75,5.6,0.00,0.00,0.00,0.00,0.05,-7.49,-7.49,0.50,-12.50,-0.12,-5.68,52.94,-0.07,-0.57,1.16,100.0,0,0,151.01,0,0,0.0,0,0,0,0,8055,0,30.00,4,190.6,0,0,0.0,0.0,0.0,0.0,1,0,1.485,1.485,48.812,18.026,0,110.00,435.8,8750,0.0,0.0,110.0,110.0,433.0,0.00,0,0,1,166.7,89.4,89.4,67.9,67.9,34.0,-3.03,-0.11,-5.8,2.1,10,-489.280,3.4,100.0,10.2,12.5,42.7,46.4,0,1,64.8,0.00,0.00,0.00,0.00,816,2309,1697,1537,323.3,319.2,350.7,350.5,26.15,23.29,26.63,25.00,325.0,325.0,355.0,355.0,99.59,99.85,99.65,99.78,-0.20,-0.19,-0.07,-0.08,-0.3,-0.2,1.5,1.5,89.4,71.6,86.2,76.0,92.9,71.2,89.2,77.9,89.5,68.2,87.7,75.5,86.1,66.4,86.5,74.1,0.21,-0.21,0.04,0.02,0.00,161.31,161.53,151.01,151.01,88.0,25.5,0.6918814927427962,194.81502559603524,45.73291724397084,61.217291170898136,10.803051550459415
1.500,76.5,44.053957480480562,-78.681766389905874,200.4,35.1,-410.1,-528.2,17168.9,17169,190.7,0,1,1,0,1,1,0,0,0,100,1,1.186,26.0,0.0,-0.042,46.834,66.0,8.0,26.0,26.0,26.0,26.0,-0.08,0.04,-0.50,395.8,-2.85,-3.40,-1.11,-1.17,-718.38,615.96,5.7,0.00,0.00,0.00,0.00,0.05,-7.49,-7.49,0.03,-4.00,-0.31,0.25,52.96,-0.11,-0.66,2.65,100.0,0,0,151.14,0,0,0.0,0,0,0,0,8062,0,30.00,4,190.7,1,0,0.0,0.0,0.0,0.0,1,0,1.539,1.539,48.812,18.026,1,110.00,435.8,8750,0.0,0.0,110.0,110.0,433.0,0.00,0,0,1,166.7,77.3,77.3,92.8,92.8,34.0,-28.45,8.95,-6.9,2.2,10,-489.330,2.9,100.0,20.2,14.2,22.2,20.0,0,1,42.9,0.00,0.00,0.00,0.00,3765,3197,1794,2374,316.5,316.6,350.9,348.1,26.15,23.29,26.63,25.00,325.0,325.0,355.0,355.0,99.59,99.85,99.65,99.78,-0.29,-0.17,-0.25,-0.09,-0.3,-0.5,1.6,1.9,89.4,71.6,86.2,76.0,92.8,71.2,89.2,77.9,89.4,68.2,87.7,75.5,86.1,66.3,86.5,74.0,0.19,-0.18,0.09,0.09,0.00,161.66,161.40,151.14,151.14,88.0,25.5,0.5079370039680118,189.41349993461023,44.29251044644605,-169.24780411488598,-43.21220449476698
1.550,79.2,44.053935267236895,-78.681761173840556,145.3,103.0,151.8,73.8,17171.5,17172,190.5,0,1,1,0,1,1,0,0,0,100,1,1.186,26.0,0.0,-0.042,46.834,66.0,16.9,26.0,26.0,26.0,26.0,-0.19,-0.30,0.02,384.2,-2.38,-2.77,-0.51,-2.30,-717.80,613.49,5.7,0.00,0.00,0.00,0.00,0.05,-7.49,-7.49,0.02,1.63,-0.12,9.46,52.90,-0.14,-0.58,3.05,100.0,0,0,148.88,0,0,0.0,0,0,0,0,7942,0,30.00,4,190.5,0,0,0.0,0.0,0.0,0.0,1,0,1.587,1.587,48.812,18.026,0,110.00,435.8,8750,0.0,0.0,110.0,110.0,433.0,0.00,0,0,1,166.7,65.4,65.4,78.8,78.8,34.0,-37.53,17.73,-24.1,10.7,10,-489.380,0.6,100.0,27.5,19.4,29.8,23.7,0,1,23.4,0.00,0.00,0.00,0.00,5231,5951,3521,4106,312.1,309.8,345.0,344.7,26.15,23.29,26.63,25.00,325.0,325.0,355.0,355.0,99.59,99.85,99.65,99.78,-0.25,-0.11,-0.42,-0.17,-0.6,-0.7,0.2,0.3,89.4,71.6,86.2,76.0,92.8,71.2,89.1,77.8,89.4,68.1,87.6,75.4,86.0,66.3,86.4,74.0,0.08,-0.08,0.08,0.07,0.00,161.39,161.38,148.88,148.88,88.0,25.5,0.3556683848755748,177.89024518454664,41.41169679449414,-64.81830816470989,-21.606102531895246
1.600,81.8,44.053913053993227,-78.681756047707395,-130.7,110.8,181.0,164.7,17174.2,17174,189.8,0,1,1,0,1,1,0,0,0,100,1,1.186,26.0,0.0,-0.042,46.834,66.0,32.4,26.0,26.0,26.0,26.0,-0.14,-0.52,-0.15,381.1,-2.85,-2.23,-1.55,-1.50,-717.23,611.02,5.7,0.00,0.00,0.00,0.00,0.05,-7.49,-7.49,0.11,-0.51,0.15,3.79,52.71,-0.16,-0.46,1.25,100.0,0,0,147.52,0,0,0.0,0,0,0,0,7869,0,30.00,4,189.8,1,0,0.0,0.0,0.0,0.0,1,0,1.635,1.635,48.812,18.026,1,110.00,435.8,8750,0.0,0.0,110.0,110.0,433.0,0.00,0,0,1,333.3,72.5,72.5,62.6,62.6,34.0,-13.39,7.10,-39.7,10.2,10,-489.430,-2.4,100.0,20.9,24.9,38.9,31.9,0,1,7.9,0.00,0.00,0.00,0.00,3186,3346,4797,6619,317.6,316.0,343.1,339.0,26.15,23.29,26.63,25.00,325.0,325.0,355.0,355.0,99.59,99.85,99.65,99.78,-0.08,-0.07,-0.34,-0.14,-2.0,-1.6,-0.3,-0.2,89.4,71.6,86.2,76.0,92.7,71.1,89.0,77.8,89.3,68.1,87.5,75.4,85.9,66.3,86.3,74.0,-0.11,0.11,0.07,0.07,0.00,158.48,158.76,147.52,147.52,88.0,25.5,0.5590169943749475,182.93166911813924,42.13190019325653,36.01017079165473,3.6010164247882415
1.650,84.4,44.053889581699316,-78.681750651777762,43.9,11.9,-66.3,117.0,17176.8,17177,188.3,0,1,1,0,1,1,0,0,0,100,1,1.186,26.0,0.0,-0.048,46.834,66.0,53.3,26.0,26.0,26.0,26.0,0.04,-1.08,-0.18,380.8,-2.90,-2.90,-1.25,-1.30,-716.63,608.41,5.8,0.00,0.00,0.00,0.00,0.05,-7.49,-7.49,-0.08,-4.23,-0.03,-5.59,52.28,-0.13,-0.62,-0.93,100.0,0,0,144.42,0,0,0.0,0,0,0,0,7704,0,30.00,4,188.3,0,0,0.0,0.0,0.0,0.0,1,0,1.686,1.686,48.812,18.026,0,110.00,435.8,8750,0.0,0.0,110.0,110.0,433.0,0.00,0,0,1,333.3,66.2,66.2,71.6,71.6,34.0,-9.90,28.42,-12.2,5.3,10,-489.480,-7.0,100.0,23.1,25.5,35.5,37.8,0,1,0.0,0.00,0.00,0.00,0.00,4841,4700,3140,3156,313.1,312.2,347.7,346.8,26.15,23.29,26.64,25.00,325.0,325.0,355.0,355.0,99.59,99.85,99.65,99.78,0.15,0.24,-0.16,-0.05,-2.2,-2.4,-1.6,-1.5,89.4,71.6,86.2,76.0,92.6,71.1,89.0,77.7,89.2,68.1,87.5,75.3,85.9,66.3,86.3,73.9,-0.36,0.36,0.08,0.04,0.00,156.63,156.17,144.42,144.42,88.0,25.5,1.095627673984187,181.49126226371212,41.771798436972965,-36.01017107616656,-7.202034556647519
1.700,87.0,44.053867728184294,-78.681745615576773,124.6,41.5,-38.2,-105.3,17179.4,17179,186.2,0,1,1,0,1,1,0,0,0,100,1,1.186,26.0,0.0,-0.048,46.834,66.0,78.1,26.0,26.0,26.0,26.0,0.15,-1.50,-0.02,378.5,-2.25,-2.60,-1.68,-2.50,-716.07,605.98,5.8,0.00,0.00,0.00,0.00,0.05,-7.49,-7.49,-0.26,-3.36,-0.18,0.66,51.66,-0.07,-0.79,-4.12,100.0,0,0,142.06,0,0,0.0,0,0,0,0,7577,0,30.00,4,186.2,1,0,0.0,0.0,0.0,0.0,1,0,1.734,1.734,48.812,18.026,1,110.00,435.8,8750,0.0,0.0,110.0,110.0,433.0,0.00,0,0,1,333.3,60.0,60.0,74.1,74.1,34.0,5.77,33.34,-14.9,21.0,10,-489.530,-11.6,100.0,29.3,27.6,33.6,32.5,0,1,0.0,0.00,0.00,0.00,0.00,5685,5288,4031,3861,311.0,310.5,345.9,344.6,26.15,23.29,26.64,25.00,325.0,325.0,355.0,355.0,99.59,99.85,99.65,99.78,0.37,0.49,-0.08,0.09,-3.0,-3.8,-2.1,-2.1,89.4,71.6,86.2,76.0,92.6,71.2,88.9,77.7,89.2,68.1,87.4,75.3,85.9,66.3,86.2,73.9,-0.62,0.65,0.07,0.07,0.00,153.00,152.22,141.97,142.14,88.0,25.5,1.5076140089558732,179.33065201052258,41.411696737591775,57.616273892573986,18.00508553808335
1.750,89.6,44.053844795483343,-78.681740309579297,-105.4,-30.6,-53.4,-20.8,17181.9,17182,183.4,0,1,1,0,1,1,0,0,0,100,1,1.186,26.0,0.0,-0.054,46.834,66.0,99.1,26.0,26.0,26.0,26.0,0.19,-1.56,-0.30,383.9,-3.03,-2.51,-1.24,-1.19,-715.48,603.43,5.8,0.00,0.00,0.00,0.00,0.05,-7.49,-7.49,-0.52,-7.88,-0.04,2.92,50.89,0.10,-0.92,-5.71,100.0,0,0,138.75,0,0,0.0,0,0,0,0,7401,0,30.00,4,183.4,0,0,0.0,0.0,0.0,0.0,0,0,1.785,1.785,48.812,18.026,0,110.00,435.8,8750,0.0,0.0,110.0,110.0,433.0,0.00,0,0,1,333.3,68.4,68.4,76.8,76.8,34.0,-0.61,-1.68,-1.9,17.7,10,-489.580,-17.2,100.0,24.1,26.0,31.0,31.5,0,1,0.0,0.00,0.00,0.00,0.00,3342,3954,2896,3649,316.3,314.2,347.7,345.3,26.15,23.29,26.64,25.00,325.0,325.0,355.0,355.0,99.59,99.85,99.65,99.78,0.86,0.87,0.12,0.31,-11.3,-11.0,-2.6,-2.7,89.4,71.6,86.2,76.0,92.7,71.3,88.9,77.7,89.3,68.2,87.4,75.3,85.9,66.4,86.2,73.9,-0.95,0.94,0.08,0.06,0.00,136.47,137.67,138.54,138.97,88.0,25.5,1.599906247253257,187.25288965296951,43.5723069907813,-57.616273608061874,-3.6010169938120384
1.800,92.1,44.053820963460787,-78.681734733785348,75.1,110.1,-297.1,-166.2,17184.4,17184,180.2,0,1,1,0,1,1,0,0,0,100,1,1.186,26.0,0.0,-0.057,46.834,66.0,100.0,26.0,26.0,26.0,26.0,0.38,-1.86,-0.31,385.7,-3.25,-2.43,-1.97,-0.95,-714.86,600.78,5.8,0.00,0.00,0.00,0.00,0.06,-7.49,-7.49,-0.90,-3.34,0.12,2.16,50.00,0.25,-1.10,-7.79,100.0,0,0,130.19,0,0,0.0,0,0,0,0,6945,0,30.00,4,180.2,1,0,0.0,0.0,0.0,0.0,0,0,1.839,1.839,48.812,18.026,1,110.00,435.8,8750,0.0,0.0,110.0,110.0,433.0,0.00,0,0,1,166.7,55.5,55.5,91.4,91.4,34.0,10.54,22.23,0.0,4.7,10,-489.630,-23.6,100.0,27.8,31.5,16.1,23.2,0,1,0.0,0.00,0.00,0.00,0.00,5355,7590,1100,1800,311.5,303.9,352.6,350.6,26.15,23.29,26.64,25.00,325.0,325.0,355.0,355.0,99.59,99.85,99.65,99.78,1.31,1.44,0.36,0.56,-6.8,-7.6,-8.8,-5.4,89.4,71.6,86.2,76.0,92.7,71.5,88.8,77.6,89.3,68.4,87.3,75.2,86.0,66.6,86.1,73.8,-1.31,1.32,0.12,0.08,0.00,142.21,142.61,127.43,132.96,88.0,25.5,1.9235643997537488,173.5690246497164,41.05159503821057,-169.24780383037444,-25.207119525707284
1.850,94.5,44.053801448181936,-78.681730057312990,-4.3,126.3,61.0,-34.1,17186.9,17187,177.2,0,1,1,0,1,1,0,0,0,100,1,1.186,26.0,0.0,-0.063,46.834,66.0,100.0,26.0,26.0,26.0,26.0,0.59,-2.06,0.01,381.9,-3.08,-2.40,-1.73,-0.71,-714.34,598.61,5.8,0.00,0.00,0.00,0.00,0.06,-7.49,-7.49,-0.90,0.92,0.03,-3.32,49.16,0.40,-1.05,-11.77,100.0,0,0,129.58,0,0,0.0,0,0,0,0,6912,0,30.00,4,177.2,0,0,0.0,0.0,0.0,0.0,0,0,1.884,1.884,48.812,18.026,0,110.00,435.8,8750,0.0,0.0,110.0,110.0,433.0,0.00,0,0,1,333.3,53.5,53.5,82.1,82.1,34.0,3.65,56.88,1.5,15.8,10,-489.680,-26.5,100.0,27.6,37.9,19.2,21.5,0,1,0.0,0.00,0.00,0.00,0.00,5258,7089,2177,4096,311.6,305.1,349.4,345.5,26.15,23.29,26.63,25.00,325.0,325.0,355.0,355.0,99.59,99.85,99.65,99.78,1.62,1.70,0.65,0.92,-8.4,-5.5,-7.0,-5.8,89.4,71.6,86.2,76.0,92.8,71.6,88.8,77.7,89.4,68.6,87.3,75.2,86.0,66.7,86.1,73.8,-1.50,1.52,0.11,0.08,0.00,137.33,142.79,127.84,131.32,88.0,25.5,2.1428485714114283,170.32810926993207,41.05159503821057,-14.404068544271524,14.404068544271453
1.900,97.0,44.053778425548821,-78.681724481519041,-32.9,-59.7,3.7,162.0,17189.3,17189,173.8,0,1,1,0,1,1,0,0,0,100,1,1.186,26.0,0.0,-0.063,46.834,66.0,100.0,26.0,26.0,26.0,26.0,0.61,-1.75,-0.22,382.7,-2.61,-2.08,-1.60,-1.03,-713.72,596.05,5.9,0.00,0.00,0.00,0.00,0.06,-7.49,-7.49,-0.87,-0.19,-0.27,-8.19,48.21,0.64,-0.98,-13.17,100.0,0,0,128.13,0,0,0.0,0,0,0,0,6834,0,30.00,4,173.8,1,0,0.0,0.0,0.0,0.0,0,0,1.938,1.938,48.812,18.026,1,110.00,435.8,8750,0.0,0.0,110.0,110.0,433.0,0.00,0,0,1,166.7,61.8,61.8,77.7,77.7,34.0,-0.80,10.10,4.9,34.9,10,-489.730,-28.0,100.0,26.0,34.9,19.3,29.6,0,1,0.0,0.00,0.00,0.00,0.00,2268,6052,3872,3830,319.1,308.6,346.0,345.3,26.15,23.29,26.63,25.00,325.0,325.0,355.0,355.0,99.59,99.85,99.65,99.78,2.04,2.09,1.04,1.27,-9.8,-8.1,-7.4,-3.9,89.4,71.6,86.2,76.0,92.9,71.8,88.8,77.7,89.5,68.7,87.3,75.3,86.1,66.9,86.1,73.9,-1.61,1.61,0.10,0.06,0.00,130.41,135.95,125.80,130.46,88.0,25.5,1.8662797217994949,172.12861779528924,42.49200189263772,-118.83356506347184,-7.202033987623935
1.950,99.3,44.053758460609174,-78.681719445318038,96.8,-12.6,47.2,-38.6,17191.7,17192,170.5,0,1,1,0,1,1,0,0,0,100,1,1.186,26.0,0.0,-0.069,46.834,66.0,100.0,26.0,26.0,26.0,26.0,0.71,-1.94,0.05,380.2,-2.75,-2.63,-1.05,-0.65,-713.16,593.83,5.9,0.00,0.00,0.00,0.00,0.06,-7.49,-7.49,-0.92,0.44,-0.49,0.52,47.30,0.90,-0.99,-16.03,100.0,0,0,126.23,0,0,0.0,0,0,0,0,6733,0,30.00,4,170.5,0,0,0.0,0.0,0.0,0.0,0,0,1.986,1.986,48.812,18.026,0,110.00,435.8,8750,0.0,0.0,110.0,110.0,433.0,0.00,0,0,1,333.3,52.6,52.6,86.4,86.4,34.0,3.91,-3.75,6.3,21.3,10,-489.780,-29.3,100.0,30.8,34.2,21.7,27.6,0,1,0.0,0.00,0.00,0.00,0.00,6280,7066,1436,3007,309.0,306.2,351.0,347.4,26.15,23.29,26.63,25.00,325.0,325.0,355.0,355.0,99.59,99.85,99.65,99.78,2.24,2.34,1.44,1.62,-8.5,-9.6,-5.1,-4.8,89.4,71.6,86.2,76.0,93.0,72.0,88.8,77.7,89.6,68.9,87.3,75.3,86.2,67.1,86.1,73.9,-1.67,1.67,0.09,0.08,0.00,132.16,131.81,125.19,127.28,88.0,25.5,2.066446224802378,158.4447527635849,40.33139163944818,-122.43458148826022,-7.202034556647519
2.000,101.6,44.053738855398166,-78.681714409117049,23.7,2.1,-33.5,70.6,17194.0,17194,167.2,0,1,1,0,1,1,0,0,0,100,1,1.186,26.0,0.0,-0.072,46.834,66.0,100.0,26.0,26.0,26.0,26.0,0.81,-1.87,0.12,379.6,-2.70,-1.80,-1.76,-1.05,-712.60,591.65,5.9,0.00,0.00,0.00,0.00,0.06,-7.49,-7.49,-0.76,3.19,-0.25,9.37,46.38,1.20,-0.91,-18.15,100.0,0,0,124.49,0,0,0.0,0,0,0,0,6640,0,30.00,4,167.2,1,0,0.0,0.0,0.0,0.0,0,0,2.034,2.034,48.812,18.026,1,110.00,435.8,8750,0.0,0.0,110.0,110.0,433.0,0.00,0,0,1,166.7,55.5,55.5,86.1,86.1,34.0,-4.27,-6.68,13.3,47.6,10,-489.830,-31.9,100.0,32.0,34.4,20.0,31.2,0,1,0.0,0.00,0.00,0.00,0.00,4970,5483,2980,4074,311.6,310.5,347.7,344.4,26.15,23.29,26.63,25.00,325.0,325.0,355.0,355.0,99.59,99.85,99.65,99.78,2.67,2.71,1.78,2.00,-10.1,-11.8,-5.7,-3.7,89.4,71.6,86.2,76.0,93.2,72.2,88.8,77.7,89.7,69.1,87.3,75.3,86.3,67.2,86.0,73.9,-1.81,1.82,0.09,0.06,0.00,126.41,125.55,122.78,126.19,88.0,25.5,2.041421073664128,159.88515964646322,41.771798436972965,32.4091543668672,36.01017107616691
2.050,103.9,44.053718530729867,-78.681709013187415,-317.0,-103.3,13.9,151.9,17196.3,17196,164.6,1,1,1,0,1,1,0,0,0,100,1,1.186,26.0,0.0,-0.075,46.834,66.0,100.0,26.0,26.0,26.0,26.0,0.73,-1.09,-0.30,385.9,-2.68,-2.12,-2.60,-1.39,-712.00,589.39,5.9,0.00,0.00,0.00,0.00,0.06,-7.49,-7.49,-0.80,-4.57,0.30,4.95,45.64,1.38,-0.87,-11.20,100.0,0,0,121.22,0,0,0.0,0,0,0,0,6466,0,30.00,4,164.6,0,0,0.0,0.0,0.0,0.0,0,0,2.085,2.085,48.812,18.026,0,110.00,435.8,8750,0.0,0.0,110.0,110.0,433.0,0.00,0,0,1,333.3,70.2,70.2,79.6,79.6,34.0,-1.35,-10.88,2.8,55.1,10,-489.880,-35.3,100.0,16.2,29.2,20.7,38.8,0,1,0.0,0.00,0.00,0.00,0.00,1852,6541,1425,3659,321.0,307.7,352.6,344.8,26.15,23.29,26.63,25.00,325.0,325.0,355.0,355.0,99.59,99.85,99.65,99.78,3.32,3.39,1.37,2.07,-12.3,-10.2,-5.8,-2.4,89.4,71.6,86.2,76.0,93.2,72.4,88.7,77.7,89.7,69.3,87.2,75.3,86.4,67.4,86.0,73.9,-2.06,2.00,0.11,0.06,0.00,119.20,125.39,117.43,125.02,88.0,25.5,1.3457340004622014,161.6856682002716,43.93240874706487,-57.616273892573986,18.005086107107005
2.100,106.2,44.053698475858056,-78.681703437393452,139.3,90.8,-214.1,-193.0,17198.5,17199,161.9,1,1,1,0,1,1,0,0,0,100,1,1.186,26.0,0.0,-0.081,46.834,66.0,100.0,26.0,26.0,26.0,26.0,1.03,-1.47,-0.11,385.0,-3.87,-2.03,-1.92,-0.82,-711.38,587.16,5.9,0.00,0.00,0.00,0.00,0.06,-7.49,-7.49,-0.94,0.91,0.36,-1.73,44.91,1.40,-0.89,-12.53,100.0,0,0,111.02,0,0,0.0,0,0,0,0,5922,0,30.00,4,161.9,1,0,0.0,0.0,0.0,0.0,0,0,2.136,2.136,48.812,18.026,1,110.00,435.8,8750,0.0,0.0,110.0,110.0,433.0,0.00,0,0,1,333.3,55.5,55.5,92.8,92.8,34.0,3.88,1.00,0.0,40.4,10,-489.930,-35.8,100.0,23.1,33.7,10.0,29.1,0,1,0.0,0.00,0.00,0.00,0.00,4692,9635,0,3344,313.4,299.6,355.0,346.7,26.15,23.29,26.63,25.00,325.0,325.0,355.0,355.0,99.59,99.85,99.65,99.78,3.45,3.58,0.00,2.26,-7.6,-8.0,0.0,-3.1,89.4,71.6,86.2,76.0,93.3,72.7,88.7,77.7,89.8,69.6,87.1,75.3,86.4,67.7,85.9,73.9,-2.09,2.05,0.11,0.08,0.00,125.59,127.53,99.11,122.92,88.0,25.5,1.7983047572644633,154.12353225720582,43.572307047683665,-68.41932515852193,14.404067975247727
2.150,108.4,44.053680039765133,-78.681698131395976,37.9,148.8,168.4,-3.4,17200.7,17201,158.9,1,1,1,0,1,1,0,0,0,100,1,1.186,26.0,0.0,-0.084,46.834,66.0,100.0,26.0,26.0,26.0,26.0,1.10,-2.03,0.17,377.8,-2.79,-2.03,-1.63,-1.17,-710.79,585.11,5.9,0.00,0.00,0.00,0.00,0.07,-7.49,-7.49,-0.75,4.40,0.04,-8.36,44.06,1.44,-0.76,-14.87,100.0,0,0,115.83,0,0,0.0,0,0,0,0,6178,0,30.00,4,158.9,0,0,0.0,0.0,0.0,0.0,0,0,2.184,2.184,48.812,18.026,0,110.00,435.8,8750,0.0,0.0,110.0,110.0,433.0,0.00,0,0,1,166.7,51.8,51.8,72.3,72.3,34.0,-3.70,4.93,3.6,28.5,10,-489.980,-34.1,100.0,25.0,41.2,18.4,28.9,0,1,0.0,0.00,0.00,0.00,0.00,4266,9284,3153,4717,314.8,299.3,347.3,343.1,26.15,23.30,26.63,25.00,325.0,325.0,355.0,355.0,99.59,99.85,99.65,99.78,3.41,3.50,2.23,2.50,-13.9,-7.8,-8.0,-5.8,89.4,71.6,86.2,76.0,93.4,72.9,88.7,77.8,89.9,69.8,87.2,75.4,86.5,67.9,86.0,74.0,-1.99,2.00,0.10,0.07,0.00,119.41,125.45,113.74,117.91,88.0,25.5,2.3151241867338346,154.8437356844194,45.37281554458964,14.404068259759697,43.212205063790634
2.200,110.5,44.053659805029000,-78.681692105941224,140.2,63.7,127.5,234.1,17202.9,17203,155.0,0,1,1,0,1,1,0,0,0,100,1,1.186,26.0,0.0,-0.087,46.834,66.0,100.0,26.0,26.0,26.0,26.0,1.30,-1.79,0.58,371.7,-3.87,-2.37,-1.80,-1.31,-710.12,582.86,5.9,0.00,0.00,0.00,0.00,0.07,-7.49,-7.49,-0.51,6.78,-0.15,-0.89,42.98,1.37,-0.83,-16.63,100.0,0,0,115.75,0,0,0.0,0,0,0,0,6174,0,30.00,4,155.0,1,0,0.0,0.0,0.0,0.0,0,0,2.238,2.238,48.812,18.026,1,110.00,435.8,8750,0.0,0.0,110.0,110.0,433.0,0.00,0,0,1,166.7,46.9,46.9,71.0,71.0,34.0,-2.05,30.85,9.7,75.1,10,-490.030,-32.1,100.0,32.0,44.4,24.8,40.6,0,1,0.0,0.00,0.00,0.00,0.00,4214,9251,2175,5396,314.3,300.2,349.7,341.9,26.15,23.30,26.63,25.00,325.0,325.0,355.0,355.0,99.59,99.85,99.65,99.78,3.13,3.25,2.27,2.42,-9.1,-6.7,-5.7,-3.1,89.4,71.6,86.2,76.0,93.5,73.2,88.7,77.9,90.0,70.0,87.2,75.4,86.6,68.1,86.0,74.0,-1.84,1.89,0.09,0.05,0.00,117.99,123.87,113.45,118.05,88.0,25.5,2.2870286399605932,155.5639390831818,47.89352755406273,-115.23254778514769,10.803051550459415
2.250,112.7,44.053641189071762,-78.681686170418615,-166.1,-152.4,79.4,34.9,17205.0,17205,151.9,1,1,1,0,1,1,0,0,0,100,1,1.186,26.0,0.0,-0.090,46.834,66.0,100.0,26.0,26.0,26.0,26.0,1.07,-1.50,0.07,376.3,-3.48,-2.09,-2.59,-1.71,-709.46,580.79,6.0,0.00,0.00,0.00,0.00,0.07,-7.49,-7.49,-0.23,2.11,-0.28,-1.95,42.13,1.32,-0.73,-11.36,100.0,0,0,115.37,0,0,0.0,0,0,0,0,6154,0,30.00,4,151.9,0,0,0.0,0.0,0.0,0.0,1,0,2.289,2.289,48.812,18.026,0,110.00,435.8,8750,0.0,0.0,110.0,110.0,433.0,0.00,0,0,1,166.7,64.1,64.1,62.8,62.8,34.0,-0.79,-8.23,59.1,100.9,10,-490.080,-32.2,100.0,23.7,36.7,28.8,42.4,0,1,0.0,0.00,0.00,0.00,0.00,1640,5443,4943,6402,321.3,310.0,343.1,338.5,26.15,23.30,26.63,25.00,325.0,325.0,355.0,355.0,99.59,99.84,99.65,99.78,3.27,3.27,2.10,2.29,-17.2,-11.2,-2.8,-2.9,89.4,71.6,86.2,76.0,93.6,73.4,88.7,77.9,90.1,70.2,87.2,75.5,86.7,68.3,85.9,74.1,-1.85,1.84,0.09,0.03,0.00,108.20,114.17,115.05,115.68,88.0,25.5,1.843854658046561,143.32048090590465,46.45312069963558,-194.45492364059305,-25.20712009473087
2.300,114.7,44.053624012029090,-78.681680504692508,-175.4,-237.3,-76.9,-17.8,17207.1,17207,149.7,1,1,1,0,1,1,0,0,0,100,1,1.186,26.0,0.0,-0.090,46.834,66.0,100.0,26.0,26.0,26.0,26.0,0.77,-1.49,-0.24,385.2,-2.85,-2.46,-1.82,-1.11,-708.83,578.88,6.0,0.00,0.00,0.00,0.00,0.07,-7.49,-7.49,-0.39,-7.00,-0.57,-9.94,41.52,1.14,-0.76,-4.02,100.0,0,0,111.25,0,0,0.0,0,0,0,0,5934,0,30.00,4,149.7,1,0,0.0,0.0,0.0,0.0,1,0,2.337,2.337,48.812,18.026,1,110.00,435.8,8750,0.0,0.0,110.0,110.0,433.0,0.00,0,0,1,166.7,72.6,72.6,74.4,74.4,34.0,-2.09,-9.93,14.0,33.1,10,-490.130,-35.0,100.0,15.0,24.9,24.9,41.5,0,1,0.0,0.00,0.00,0.00,0.00,2475,5785,2750,3112,319.2,308.8,348.3,346.6,26.15,23.30,26.63,25.00,325.0,325.0,355.0,355.0,99.59,99.84,99.65,99.78,3.53,3.54,1.71,1.88,-12.6,-10.7,-5.2,-3.8,89.4,71.6,86.2,76.0,93.6,73.6,88.7,77.9,90.1,70.4,87.1,75.5,86.7,68.5,85.9,74.1,-2.02,1.96,0.10,0.05,0.00,113.24,112.72,110.64,111.86,88.0,25.5,1.6942845097562569,136.1184467191225,45.37281554458964,-57.61627332355033,7.202034556647661
2.350,116.8,44.053607194715056,-78.681674838966387,106.8,43.7,-185.6,-380.0,17209.1,17209,147.3,1,1,1,0,1,1,0,0,0,100,1,1.186,26.0,0.0,-0.093,46.834,66.0,100.0,26.0,26.0,26.0,26.0,0.54,-1.21,-0.38,391.9,-3.10,-2.30,-1.29,-0.90,-708.20,577.01,6.0,0.00,0.00,0.00,0.00,0.07,-7.49,-7.49,-0.67,-2.91,-0.98,-7.46,40.87,1.02,-0.81,-7.26,100.0,0,0,102.94,0,0,0.0,0,0,0,0,5491,0,30.00,4,147.3,0,0,0.0,0.0,0.0,0.0,1,0,2.385,2.385,48.812,18.026,0,110.00,435.8,8750,0.0,0.0,110.0,110.0,433.0,0.00,0,0,1,166.7,65.8,65.8,92.8,92.8,34.0,-5.12,-10.87,-0.0,1.3,10,-490.180,-41.8,100.0,20.3,27.1,15.7,22.5,0,1,0.0,0.00,0.00,0.00,0.00,4530,6068,33,671,314.5,308.7,354.7,352.9,26.15,23.30,26.63,25.00,325.0,325.0,355.0,355.0,99.59,99.84,99.65,99.78,3.55,3.65,1.65,1.79,-10.5,-10.0,-12.3,-7.0,89.4,71.6,86.2,76.0,93.6,73.8,88.6,77.9,90.1,70.6,87.1,75.5,86.7,68.7,85.9,74.1,-2.36,2.32,0.12,0.09,0.00,110.45,116.77,99.44,106.44,88.0,25.5,1.3784411485442534,137.5588535735496,47.17332415530035,28.808136804030653,36.01017107616677
2.400,118.8,44.053589657943739,-78.681668723579463,13.2,-88.0,27.8,-30.6,17211.1,17211,144.8,1,1,1,0,1,1,0,0,0,100,1,1.186,26.0,0.0,-0.093,46.834,66.0,100.0,26.0,26.0,26.0,26.0,0.56,-1.44,-0.36,392.1,-2.99,-3.46,-1.31,-1.86,-707.52,575.06,6.0,0.00,0.00,0.00,0.00,0.07,-7.49,-7.49,-0.78,-3.93,-1.03,5.44,40.15,1.09,-0.71,-11.63,100.0,0,0,103.80,0,0,0.0,0,0,0,0,5537,0,30.00,4,144.8,1,0,0.0,0.0,0.0,0.0,1,0,2.436,2.436,48.812,18.026,1,110.00,435.8,8750,0.0,0.0,110.0,110.0,433.0,0.00,0,0,1,333.3,72.6,72.6,91.2,91.2,34.0,-3.09,-4.16,2.2,4.6,10,-490.230,-51.7,100.0,20.9,22.7,17.0,21.0,0,1,0.0,0.00,0.00,0.00,0.00,3299,3665,1950,3363,317.5,315.4,349.7,346.2,26.15,23.30,26.63,25.00,325.0,325.0,355.0,355.0,99.59,99.84,99.65,99.78,4.00,4.01,1.76,2.01,-13.3,-16.7,-7.9,-8.0,89.4,71.6,86.2,76.0,93.7,73.9,88.6,78.0,90.2,70.7,87.1,75.6,86.8,68.8,85.9,74.2,-2.96,2.88,0.11,0.10,0.00,104.10,105.66,103.12,104.48,88.0,25.5,1.5864425612041553,138.99926039952555,48.97383265220632,-10.803051550459486,18.005084969059695
2.450,120.8,44.053572480901067,-78.681662608192553,71.9,9.1,-100.2,91.8,17213.1,17213,142.3,1,1,1,0,1,1,0,0,0,100,1,1.186,26.0,0.0,-0.093,46.834,66.0,100.0,26.0,26.0,26.0,26.0,0.81,-1.61,-0.18,388.6,-2.58,-2.94,-1.79,-1.79,-706.84,573.15,6.0,0.00,0.00,0.00,0.00,0.07,-7.49,-7.49,-1.06,-4.64,-0.56,13.08,39.45,1.15,-0.79,-14.78,100.0,0,0,102.00,0,0,0.0,0,0,0,0,5441,0,30.00,4,142.3,0,0,0.0,0.0,0.0,0.0,1,0,2.487,2.487,48.812,18.026,0,110.00,435.8,8750,0.0,0.0,110.0,110.0,433.0,0.00,0,0,1,166.7,63.3,63.3,99.3,99.3,34.0,-7.08,-11.58,-0.6,14.4,10,-490.280,-62.7,100.0,24.5,23.1,12.0,25.6,0,1,0.0,0.00,0.00,0.00,0.00,5319,6542,1400,2523,311.3,308.4,351.7,348.2,26.15,23.30,26.63,25.00,325.0,325.0,355.0,355.0,99.59,99.84,99.65,99.78,4.53,4.63,1.90,2.11,-12.9,-12.7,-10.6,-5.6,89.4,71.6,86.2,76.0,93.8,74.1,88.6,78.0,90.3,70.8,87.1,75.6,86.9,68.9,85.8,74.2,-3.56,3.48,0.12,0.09,0.00,103.80,105.07,99.72,104.29,88.0,25.5,1.8112426673419553,136.47854841850366,48.97383265220632,-93.62644496874054,-7.202033418600209
2.500,122.7,44.053555573654876,-78.681656492805629,28.6,325.8,-110.2,-3.2,17215.1,17215,139.6,1,1,1,0,1,1,0,0,0,100,1,1.186,26.0,0.0,-0.093,46.834,66.0,100.0,26.0,26.0,26.0,26.0,1.08,-1.36,0.08,383.8,-2.92,-2.18,-2.11,-0.39,-706.16,571.27,6.0,0.00,0.00,0.00,0.00,0.07,-7.49,-7.49,-1.08,3.96,0.05,5.54,38.72,1.25,-0.80,-17.57,100.0,0,0,93.63,0,0,0.0,0,0,0,0,4994,0,30.00,4,139.6,1,0,0.0,0.0,0.0,0.0,1,0,2.538,2.538,48.812,18.026,1,110.00,435.8,8750,0.0,0.0,110.0,110.0,433.0,0.00,0,0,1,166.7,53.4,53.4,91.2,91.2,34.0,-4.15,-20.50,-0.1,79.0,10,-490.330,-71.0,100.0,26.0,39.4,6.5,25.4,0,1,0.0,0.00,0.00,0.00,0.00,3353,8998,498,5110,316.9,300.4,354.0,342.2,26.15,23.30,26.63,25.00,325.0,325.0,355.0,355.0,99.59,99.84,99.65,99.78,5.22,5.20,2.25,2.47,-13.0,-11.3,-26.3,-2.4,89.4,71.6,86.2,76.0,93.9,74.4,88.5,78.0,90.4,71.1,87.0,75.6,87.0,69.2,85.8,74.2,-4.12,3.99,0.14,0.09,0.00,100.39,105.80,80.57,106.69,88.0,25.5,1.7385051049680587,129.6366159026515,48.2536293103463,-100.82847895636448,5.690237259159403e-07
2.550,124.6,44.053540105323258,-78.681650557283021,-177.6,-90.9,173.9,182.4,17217.0,17217,137.2,1,1,1,0,1,1,0,0,0,100,1,1.186,26.0,0.0,-0.093,46.834,66.0,100.0,26.0,26.0,26.0,26.0,1.04,-1.31,-0.10,384.1,-2.82,-1.76,-1.97,-0.85,-705.50,569.55,6.0,0.00,0.00,0.00,0.00,0.08,-7.49,-7.49,-0.91,0.97,-0.06,-9.34,38.04,1.30,-0.66,-13.39,100.0,0,0,100.53,0,0,0.0,0,0,0,0,5362,0,30.00,4,137.2,0,0,0.0,0.0,0.0,0.0,1,0,2.586,2.586,48.812,18.026,0,110.00,435.8,8750,0.0,0.0,110.0,110.0,433.0,0.00,0,0,1,333.3,67.6,67.6,75.4,75.4,34.0,-0.53,-18.38,1.3,72.2,10,-490.380,-76.9,100.0,17.1,34.9,15.2,34.5,0,1,0.0,0.00,0.00,0.00,0.00,736,6750,2979,5637,323.3,307.0,348.2,340.1,26.15,23.30,26.63,25.00,325.0,325.0,355.0,355.0,99.59,99.84,99.65,99.78,6.07,5.92,2.40,2.68,-17.2,-7.1,-8.5,-3.6,89.4,71.6,86.2,76.0,93.9,74.6,88.5,78.1,90.4,71.4,87.0,75.6,87.0,69.4,85.8,74.3,-4.50,4.32,0.11,0.06,0.00,96.57,106.44,97.53,103.52,88.0,25.5,1.6756192885020154,126.39570052286722,48.97383270910869,-61.21729060187377,10.803050412412105
2.600,126.5,44.053524007466507,-78.681644262031782,9.4,-91.1,103.8,-2.5,17218.8,17219,134.7,1,1,1,0,1,1,0,0,0,100,1,1.186,26.0,0.0,-0.093,46.834,66.0,100.0,26.0,26.0,26.0,26.0,0.87,-1.22,-0.26,385.7,-2.57,-1.31,-2.25,-0.95,-704.80,567.76,6.0,0.00,0.00,0.00,0.00,0.08,-7.49,-7.49,-1.06,-4.38,-0.66,-11.97,37.37,1.19,-0.71,-11.57,100.0,0,0,98.16,0,0,0.0,0,0,0,0,5236,0,30.00,4,134.7,1,0,0.0,0.0,0.0,0.0,1,0,2.637,2.637,48.812,18.026,1,110.00,435.8,8750,0.0,0.0,110.0,110.0,433.0,0.00,0,0,1,166.7,68.6,68.6,80.9,80.9,34.0,-5.61,-9.85,0.7,26.5,10,-490.430,-82.2,100.0,17.6,30.3,20.4,34.4,0,1,0.0,0.00,0.00,0.00,0.00,3293,5228,2084,2771,317.1,311.4,350.3,347.4,26.14,23.30,26.62,25.00,325.0,325.0,355.0,355.0,99.59,99.84,99.65,99.78,6.30,6.21,2.28,2.42,-9.4,-13.3,-8.6,-4.1,89.4,71.6,86.2,76.0,94.0,74.9,88.5,78.1,90.5,71.6,87.0,75.7,87.0,69.6,85.8,74.3,-4.81,4.62,0.09,0.07,0.00,104.90,97.58,95.63,100.68,88.0,25.5,1.5208221460775746,123.51488684246412,49.33393435158751,-21.606102816407287,28.80813651951918
2.650,128.3,44.053509258592172,-78.681638236577029,139.2,-39.7,-95.0,-170.4,17220.7,17221,132.5,1,1,1,0,1,1,0,0,0,100,1,1.186,26.0,0.0,-0.090,46.834,66.0,100.0,26.0,26.0,26.0,26.0,1.00,-1.49,-0.07,385.9,-2.82,-1.92,-1.25,-1.14,-704.13,566.12,6.0,0.00,0.00,0.00,0.00,0.08,-7.49,-7.49,-1.21,-0.96,-0.92,0.61,36.73,1.22,-0.70,-17.77,100.0,0,0,95.44,0,0,0.0,0,0,0,0,5091,0,30.00,4,132.5,0,0,0.0,0.0,0.0,0.0,1,0,2.685,2.685,48.812,18.026,0,110.00,435.8,8750,0.0,0.0,110.0,110.0,433.0,0.00,0,0,1,333.3,63.6,63.6,89.0,89.0,34.0,-7.55,-10.37,2.0,7.9,10,-490.480,-87.4,100.0,24.5,28.3,15.7,25.9,0,1,0.0,0.00,0.00,0.00,0.00,4379,5389,2257,3259,314.2,310.1,348.9,346.6,26.14,23.30,26.62,25.00,325.0,325.0,355.0,355.0,99.59,99.84,99.65,99.78,6.32,6.19,2.45,2.62,-10.7,-13.9,-8.1,-7.0,89.4,71.7,86.2,76.0,94.1,75.1,88.5,78.1,90.6,71.8,87.0,75.7,87.1,69.8,85.8,74.3,-5.11,4.90,0.11,0.07,0.00,97.46,95.78,94.16,96.73,88.0,25.5,1.795828499606797,124.23509024122649,51.85464636106061,-54.01525689876209,14.404069113295108
2.700,130.1,44.053492980871106,-78.681631311800658,38.8,179.9,-49.9,47.5,17222.5,17222,129.7,1,1,1,0,1,1,0,0,0,100,1,1.186,26.0,0.0,-0.087,46.834,66.0,100.0,26.0,26.0,26.0,26.0,1.24,-1.40,0.10,381.9,-3.47,-3.17,-1.52,0.00,-703.36,564.31,6.0,0.00,0.00,0.00,0.00,0.08,-7.49,-7.49,-1.19,2.72,-0.55,5.76,35.94,1.33,-0.72,-22.74,100.0,0,0,93.20,0,0,0.0,0,0,0,0,4972,0,30.00,4,129.7,1,0,0.0,0.0,0.0,0.0,1,0,2.739,2.739,48.812,18.026,1,110.00,435.8,8750,0.0,0.0,110.0,110.0,433.0,0.00,0,0,1,166.7,56.5,56.5,85.4,85.4,34.0,-5.17,-17.96,-1.0,60.2,10,-490.530,-92.9,100.0,26.5,37.3,13.2,28.2,0,1,0.0,0.00,0.00,0.00,0.00,3162,7481,1450,5129,317.1,304.3,351.7,341.7,26.14,23.31,26.62,25.00,325.0,325.0,355.0,355.0,99.59,99.84,99.65,99.78,6.60,6.45,2.78,2.96,-9.8,-11.9,-12.3,-3.6,89.4,71.7,86.1,76.0,94.2,75.4,88.5,78.1,90.7,72.1,87.0,75.7,87.2,70.1,85.7,74.3,-5.45,5.22,0.12,0.07,0.00,95.41,96.75,87.53,98.89,88.0,25.5,1.8728587773775147,118.11336115258791,50.77434126291702,-93.62644468422843,-3.6010169938120384
2.750,131.9,44.053479760843501,-78.681625556142379,-164.1,-56.6,50.3,64.9,17224.2,17224,127.5,1,1,1,0,1,1,0,0,0,100,1,1.186,26.0,0.0,-0.084,46.834,66.0,96.3,26.0,26.0,26.0,26.0,1.09,-1.39,-0.13,384.1,-2.45,-2.14,-1.21,-0.22,-702.72,562.84,6.0,0.00,0.00,0.00,0.00,0.08,-7.49,-7.49,-1.13,-0.17,-0.44,-1.46,35.35,1.45,-0.65,-19.90,100.0,0,0,93.16,0,0,0.0,0,0,0,0,4969,0,30.00,4,127.5,0,0,0.0,0.0,0.0,0.0,0,0,2.784,2.784,48.812,18.026,0,110.00,435.8,8750,0.0,0.0,110.0,110.0,433.0,0.00,0,0,1,333.3,66.3,66.3,75.1,75.1,34.0,-1.62,-15.11,0.2,48.3,10,-490.580,-99.1,100.0,18.3,34.5,15.7,31.5,0,1,0.0,0.00,0.00,0.00,0.00,1142,6820,3080,5254,321.8,306.8,347.3,341.9,26.14,23.31,26.62,25.00,325.0,325.0,355.0,355.0,99.59,99.84,99.65,99.78,7.43,7.14,3.02,3.20,-10.5,-13.5,-8.4,-4.2,89.4,71.7,86.1,76.0,94.3,75.6,88.5,78.2,90.7,72.3,87.0,75.8,87.2,70.3,85.7,74.4,-5.84,5.54,0.10,0.07,0.00,91.95,97.53,90.52,95.80,88.0,25.5,1.7711860433054456,114.87244577280364,51.494544661679406,-25.207119525707498,32.40915351333115
