Time,Distance,GPS Latitude,GPS Longitude,Damper Velocity (Calc) FL,Damper Velocity (Calc) FR,Damper Velocity (Calc) RL,Damper Velocity (Calc) RR,Corr Dist,Corr Dist (Unstretched),Corr Speed,ABS Active,ABS Enabled,AID Allow Tire Blankets,AID Auto Blip,AID Auto Clutch,AID Auto Shift,AID Fuel Rate,AID Ideal Line,AID Mech Damage,AID Stability,AID Tire Wear Rate,Air Density,Air Temp,Ballast,Best Lap Delta,Best Lap Time,Brake Bias,Brake Pos,Brake Temp FL,Brake Temp FR,Brake Temp RL,Brake Temp RR,CG Accel Lateral,CG Accel Longitudinal,CG Accel Vertical,CG Height,Camber FL,Camber FR,Camber RL,Camber RR,Car Coord X,Car Coord Y,Car Coord Z,Car Damage Front,Car Damage Left,Car Damage Rear,Car Damage Right,Car Pos Norm,Caster FL,Caster FR,Chassis Pitch Angle,Chassis Pitch Rate,Chassis Roll Angle,Chassis Roll Rate,Chassis Velocity X,Chassis Velocity Y,Chassis Velocity Z,Chassis Yaw Rate,Clutch Pos,DRS Active,DRS Available,Drive Train Speed,ERS Heat Charging,ERS Is Charging,ERS Max Energy,ERS Power Level,ERS Recovery Level,Engine Brake Setting,Engine Limiter,Engine RPM,Flags,Fuel Level,Gear,Ground Speed,HR Sample Clock,In Pit,KERS Charge,KERS Deployed Energy,KERS Input,KERS Max Energy,LR Sample Clock,Lap Invalidated,Lap Time,Lap Time2,Last Lap Time,Last Sector Time,MR Sample Clock,Max Fuel,Max Power,Max RPM,Max Sus Travel FL,Max Sus Travel FR,Max Sus Travel RL,Max Sus Travel RR,Max Torque,Max Turbo Boost,Num Tires Off Track,Penalties Enabled,Position,Raw Data Sample Rate,Ride Height FL,Ride Height FR,Ride Height RL,Ride Height RR,Road Temp,Self Align Torque FL,Self Align Torque FR,Self Align Torque RL,Self Align Torque RR,Session Lap Count,Session Time Left,Steering Angle,Surface Grip,Suspension Travel FL,Suspension Travel FR,Suspension Travel RL,Suspension Travel RR,TC Active,TC Enabled,Throttle Pos,Tire Dirt Level FL,Tire Dirt Level FR,Tire Dirt Level RL,Tire Dirt Level RR,Tire Load FL,Tire Load FR,Tire Load RL,Tire Load RR,Tire Loaded Radius FL,Tire Loaded Radius FR,Tire Loaded Radius RL,Tire Loaded Radius RR,Tire Pressure FL,Tire Pressure FR,Tire Pressure RL,Tire Pressure RR,Tire Radius FL,Tire Radius FR,Tire Radius RL,Tire Radius RR,Tire Rubber Grip FL,Tire Rubber Grip FR,Tire Rubber Grip RL,Tire Rubber Grip RR,Tire Slip Angle FL,Tire Slip Angle FR,Tire Slip Angle RL,Tire Slip Angle RR,Tire Slip Ratio FL,Tire Slip Ratio FR,Tire Slip Ratio RL,Tire Slip Ratio RR,Tire Temp Core FL,Tire Temp Core FR,Tire Temp Core RL,Tire Temp Core RR,Tire Temp Inner FL,Tire Temp Inner FR,Tire Temp Inner RL,Tire Temp Inner RR,Tire Temp Middle FL,Tire Temp Middle FR,Tire Temp Middle RL,Tire Temp Middle RR,Tire Temp Outer FL,Tire Temp Outer FR,Tire Temp Outer RL,Tire Temp Outer RR,Toe In FL,Toe In FR,Toe In RL,Toe In RR,Turbo Boost,Wheel Angular Speed FL,Wheel Angular Speed FR,Wheel Angular Speed RL,Wheel Angular Speed RR,Wind Direction,Wind Speed,CG Distance,Lateral Velocity,Longitudinal Velocity,Lateral Acceleration,Longitudinal Acceleration
s,m,deg,deg,mm/s,mm/s,mm/s,mm/s,m,m,km/h,,,,,,,,,%,%,,kg/m3,C,kg,s,s,%,%,C,C,C,C,G,G,G,mm,deg,deg,deg,deg,m,m,m,,,,,,deg,deg,deg,deg/s,deg,deg/s,m/s,m/s,m/s,deg/s,%,,,rad/s,,,MJ,,,,,rpm,,l,,km/h,,,%,kJ,%,MJ,,,s,s,s,s,,l,hp,rpm,mm,mm,mm,mm,N.m,,,,,Hz,mm,mm,mm,mm,C,N.m,N.m,N.m,N.m,,s,deg,%,mm,mm,mm,mm,,,%,,,,,N,N,N,N,mm,mm,mm,mm,psi,psi,psi,psi,mm,mm,mm,mm,%,%,%,%,deg,deg,deg,deg,%,%,%,%,C,C,C,C,C,C,C,C,C,C,C,C,C,C,C,C,deg,deg,deg,deg,,rad/s,rad/s,rad/s,rad/s,deg,km/h,G,Km/h,Km/h,Km/h^2,Km/h^2
0.000,0.0,44.054616233556899,-78.681963611134051,22.1,-20.8,-4.3,1.6,5108.1,5108,173.0,0,1,1,0,1,1,0,0,0,100,1,1.186,26.0,0.0,0.003,50.194,66.0,0.0,26.0,26.0,26.0,26.0,0.57,0.31,0.23,374.6,-3.06,-2.49,-1.51,-1.71,-740.31,689.21,5.7,0.00,0.00,0.00,0.00,0.00,-7.49,-7.49,-0.23,0.56,0.36,-5.74,48.07,0.42,-0.37,-5.73,100.0,0,0,137.36,0,0,0.0,0,0,0,0,7327,0,30.00,4,173.0,1,0,0.0,0.0,0.0,0.0,0,0,0.039,0.039,50.194,17.865,1,110.00,435.8,8750,0.0,0.0,110.0,110.0,433.0,0.00,0,0,1,166.7,67.7,67.7,58.4,58.4,34.0,9.6,54.84,25.0,49.3,3,-184.370,-4.0,100.0,20.8,27.4,39.1,46.6,0,1,100.0,0.00,0.00,0.00,0.00,3550,4687,5254,4186,315.4,311.5,342.1,342.6,25.26,22.87,26.15,24.73,325.0,325.0,355.0,355.0,100.00,99.85,100.00,100.00,0.58,0.64,0.65,0.73,-0.1,-0.1,1.9,1.5,83.9,69.0,83.2,74.3,89.0,69.0,87.9,76.4,85.4,66.1,86.1,74.0,82.6,64.6,85.2,72.8,-0.24,0.26,0.06,0.05,0.00,147.21,147.60,137.36,137.36,174.7,27.6,0.6884039511798287
0.050,2.4,44.054595998820766,-78.681958844729536,-114.5,-154.4,-11.9,-37.2,5110.6,5111,173.6,0,1,1,0,1,1,0,0,0,100,1,1.186,26.0,0.0,0.003,50.194,66.0,0.0,26.0,26.0,26.0,26.0,0.44,0.33,-0.19,380.0,-2.33,-2.16,-2.23,-1.45,-739.78,686.96,5.7,0.00,0.00,0.00,0.00,0.00,-7.49,-7.49,-0.24,-2.75,0.19,-2.52,48.23,0.40,-0.31,-3.37,100.0,0,0,137.38,0,0,0.0,0,0,0,0,7328,0,30.00,4,173.6,0,0,0.0,0.0,0.0,0.0,0,0,0.087,0.087,50.194,17.865,0,110.00,435.8,8750,0.0,0.0,110.0,110.0,433.0,0.00,0,0,1,333.3,79.9,79.9,59.1,59.1,34.0,6.0,29.77,12.9,68.4,3,-184.415,-3.3,100.0,15.1,19.7,38.5,44.7,0,1,98.4,0.00,0.00,0.00,0.00,1849,3148,6099,6156,320.4,316.4,340.5,339.6,25.26,22.87,26.15,24.73,325.0,325.0,355.0,355.0,100.00,99.85,100.00,100.00,0.60,0.59,0.52,0.67,-0.1,-0.1,1.7,1.5,83.9,69.0,83.2,74.3,88.9,69.0,87.9,76.4,85.3,66.0,86.1,74.0,82.6,64.6,85.2,72.8,-0.20,0.18,0.06,0.04,0.00,147.49,147.87,137.38,137.38,174.7,27.6,0.5818934610390463,162.04576989965278,38.17078138625865
0.100,4.8,44.054575764084632,-78.681954078325020,57.0,-36.8,-70.2,-108.7,5113.0,5113,174.1,0,1,1,0,1,1,0,0,0,100,1,1.186,26.0,0.0,0.000,50.194,66.0,0.0,26.0,26.0,26.0,26.0,0.33,0.30,-0.32,383.5,-1.63,-1.43,-1.53,-1.06,-739.25,684.71,5.7,0.00,0.00,0.00,0.00,0.00,-7.49,-7.49,-0.48,-4.59,0.26,4.88,48.35,0.34,-0.43,-3.06,100.0,0,0,139.14,0,0,0.0,0,0,0,0,7422,0,30.00,4,174.1,1,0,0.0,0.0,0.0,0.0,0,0,0.134,0.134,50.194,17.865,1,110.00,435.8,8750,0.0,0.0,110.0,110.0,433.0,0.00,0,0,1,166.7,75.9,75.9,72.0,72.0,34.0,7.8,47.61,3.2,29.9,3,-184.465,-3.9,100.0,17.9,17.9,35.0,39.3,0,1,100.0,0.00,0.00,0.00,0.00,2237,5264,2364,4431,319.1,312.0,349.3,343.6,25.26,22.87,26.15,24.73,325.0,325.0,355.0,355.0,100.00,99.85,100.00,100.00,0.50,0.56,0.40,0.48,-0.0,-0.1,2.5,2.3,83.9,68.9,83.2,74.3,88.9,69.0,87.9,76.4,85.2,66.0,86.1,74.0,82.5,64.6,85.2,72.8,-0.23,0.21,0.07,0.04,0.00,147.94,148.19,139.14,139.14,174.7,27.6,0.5489080068645383,167.44729556107777,39.97128988316463,111.63153022231228,43.21220449476698
0.150,7.3,44.054554180366090,-78.681948862259716,-24.6,240.2,-19.3,-116.8,5115.4,5115,174.7,0,1,1,0,1,1,0,0,0,100,1,1.186,26.0,0.0,0.000,50.194,66.0,0.0,26.0,26.0,26.0,26.0,0.41,0.37,-0.16,380.2,-2.80,-2.44,-0.65,-1.46,-738.67,682.31,5.7,0.00,0.00,0.00,0.00,0.01,-7.49,-7.49,-0.53,1.36,0.14,-4.81,48.52,0.31,-0.40,-4.00,100.0,0,0,138.73,0,0,0.0,0,0,0,0,7400,0,30.00,4,174.7,0,0,0.0,0.0,0.0,0.0,0,0,0.186,0.186,50.194,17.865,0,110.00,435.8,8750,0.0,0.0,110.0,110.0,433.0,0.00,0,0,1,333.3,70.9,70.9,57.9,57.9,34.0,3.3,56.13,17.1,48.9,3,-184.515,-4.2,100.0,16.7,29.9,34.0,33.4,0,1,100.0,0.00,0.00,0.00,0.00,2312,5150,4729,5067,320.1,310.8,342.7,342.3,25.26,22.87,26.16,24.73,325.0,325.0,355.0,355.0,100.00,99.85,100.00,100.00,0.47,0.56,0.41,0.60,-0.1,-0.1,2.0,1.7,83.9,69.0,83.2,74.3,88.8,69.0,87.8,76.4,85.2,66.0,86.1,74.0,82.4,64.6,85.1,72.8,-0.24,0.25,0.07,0.07,0.00,148.60,148.96,138.73,138.73,174.7,27.6,0.574978260458602,173.208922921884,42.49200183573535,61.21729088638631,32.40915465137846
0.200,9.7,44.054532506715390,-78.681943466330083,103.1,-27.5,23.3,269.3,5117.8,5118,175.2,0,1,1,0,1,1,0,0,0,100,1,1.186,26.0,0.0,0.000,50.194,66.0,0.0,26.0,26.0,26.0,26.0,0.40,0.30,0.18,375.7,-3.10,-3.03,-0.47,-1.87,-738.07,679.90,5.7,0.00,0.00,0.00,0.00,0.01,-7.49,-7.49,-0.46,1.88,-0.20,-9.59,48.68,0.26,-0.40,-3.87,100.0,0,0,139.14,0,0,0.0,0,0,0,0,7422,0,30.00,4,175.2,1,0,0.0,0.0,0.0,0.0,0,0,0.237,0.237,50.194,17.865,1,110.00,435.8,8750,0.0,0.0,110.0,110.0,433.0,0.00,0,0,1,333.3,68.6,68.6,63.9,63.9,34.0,3.8,36.77,18.9,50.8,3,-184.565,-3.9,100.0,21.9,28.5,35.2,46.9,0,1,100.0,0.00,0.00,0.00,0.00,3559,3645,4692,5085,316.8,314.4,343.3,341.5,25.26,22.87,26.16,24.73,325.0,325.0,355.0,355.0,100.00,99.85,100.00,100.00,0.45,0.47,0.41,0.52,0.0,-0.0,1.8,1.5,83.9,69.0,83.2,74.3,88.7,69.0,87.8,76.4,85.1,66.0,86.0,74.0,82.4,64.6,85.1,72.8,-0.24,0.23,0.06,0.03,0.00,149.13,149.40,139.14,139.14,174.7,27.6,0.5314132102234569,173.5690246497164,43.212205348302476,-43.212205063790634,5.690236548616667e-07
0.250,12.1,44.054510833064683,-78.681938070400435,28.3,-81.7,145.1,-49.3,5120.3,5120,175.8,0,1,1,0,1,1,0,0,0,100,1,1.186,26.0,0.0,-0.003,50.194,66.0,0.0,26.0,26.0,26.0,26.0,0.40,0.32,0.35,372.5,-1.96,-2.62,-2.00,-2.64,-737.47,677.49,5.7,0.00,0.00,0.00,0.00,0.01,-7.49,-7.49,-0.41,0.40,-0.44,0.90,48.84,0.20,-0.37,-2.45,100.0,0,0,139.01,0,0,0.0,0,0,0,0,7415,0,30.00,4,175.8,0,0,0.0,0.0,0.0,0.0,0,0,0.288,0.288,50.194,17.865,0,110.00,435.8,8750,0.0,0.0,110.0,110.0,433.0,0.00,0,0,1,166.7,68.2,68.2,56.0,56.0,34.0,6.6,44.42,-3.1,63.3,3,-184.615,-4.1,100.0,23.3,24.4,42.4,44.4,0,1,100.0,0.00,0.00,0.00,0.00,4052,4698,5935,5937,315.0,312.2,339.4,338.4,25.26,22.87,26.16,24.73,325.0,325.0,355.0,355.0,100.00,99.85,100.00,100.00,0.35,0.43,0.27,0.37,0.0,-0.1,1.4,1.3,83.9,69.0,83.2,74.3,88.7,69.0,87.8,76.4,85.1,66.0,86.0,74.0,82.3,64.5,85.1,72.8,-0.22,0.23,0.05,0.03,0.00,149.68,149.85,139.01,139.01,174.7,27.6,0.620403094769844,168.88770241550495,42.49200189263772,-43.212205348302746,-5.690236548616667e-07
0.300,14.6,44.054490328532069,-78.681932854335130,-7.1,-31.9,-69.6,-18.6,5122.7,5123,176.3,0,1,1,0,1,1,0,0,0,100,1,1.186,26.0,0.0,-0.003,50.194,66.0,0.0,26.0,26.0,26.0,26.0,0.25,0.38,0.03,375.0,-1.47,-2.70,-2.24,-1.54,-736.89,675.21,5.7,0.00,0.00,0.00,0.00,0.01,-7.49,-7.49,-0.37,0.31,-0.28,4.22,48.99,0.18,-0.33,-3.00,100.0,0,0,139.53,0,0,0.0,0,0,0,0,7443,0,30.00,4,176.3,1,0,0.0,0.0,0.0,0.0,0,0,0.336,0.336,50.194,17.865,1,110.00,435.8,8750,0.0,0.0,110.0,110.0,433.0,0.00,0,0,1,333.3,70.8,70.8,61.2,61.2,34.0,9.4,29.06,-14.1,46.5,3,-184.665,-5.5,100.0,22.9,22.8,39.0,43.5,0,1,100.0,0.00,0.00,0.00,0.00,4007,3436,6640,6172,315.1,315.6,338.9,339.1,25.27,22.87,26.16,24.73,325.0,325.0,355.0,355.0,100.00,99.85,100.00,100.00,0.36,0.39,0.19,0.32,-0.1,-0.1,1.7,1.5,83.9,69.0,83.3,74.3,88.6,68.9,87.7,76.4,85.0,66.0,86.0,74.0,82.3,64.5,85.0,72.8,-0.28,0.29,0.06,0.03,0.00,150.09,150.31,139.53,139.53,174.7,27.6,0.45585085280165927,169.24780411488612,43.21220529140011,7.202033987623793,14.404068544271524
0.350,17.0,44.054468564949204,-78.681927278541167,-8.9,87.0,-10.9,26.8,5125.2,5125,176.9,0,1,1,0,1,1,0,0,0,100,1,1.186,26.0,0.0,-0.006,50.194,66.0,0.0,26.0,26.0,26.0,26.0,0.37,0.32,0.06,375.0,-3.29,-2.53,-0.80,-1.49,-736.27,672.79,5.7,0.00,0.00,0.00,0.00,0.01,-7.49,-7.49,-0.39,0.57,-0.02,2.22,49.14,0.17,-0.39,-4.45,100.0,0,0,140.56,0,0,0.0,0,0,0,0,7497,0,30.00,4,176.9,0,0,0.0,0.0,0.0,0.0,1,0,0.387,0.387,50.194,17.865,0,110.00,435.8,8750,0.0,0.0,110.0,110.0,433.0,0.00,0,0,1,333.3,67.0,67.0,61.3,61.3,34.0,3.7,56.98,5.2,37.8,3,-184.720,-8.3,100.0,22.5,27.2,38.4,44.8,0,1,100.0,0.00,0.00,0.00,0.00,3417,5291,4253,5350,316.6,310.7,344.6,341.1,25.27,22.87,26.16,24.74,325.0,325.0,355.0,355.0,100.00,99.85,100.00,100.00,0.47,0.54,0.23,0.33,-0.0,-0.0,1.9,1.7,83.9,69.0,83.3,74.3,88.6,68.9,87.7,76.4,84.9,66.0,85.9,74.0,82.2,64.5,85.0,72.8,-0.46,0.47,0.06,0.03,0.00,150.44,150.85,140.56,140.56,174.7,27.6,0.4928488612140643,169.60790581426733,43.93240874706487,7.202033987623793,18.00508553808342
0.400,19.5,44.054447970484432,-78.681921882611533,-76.0,-61.4,-6.8,35.2,5127.6,5128,177.4,0,1,1,0,1,1,0,0,0,100,1,1.186,26.0,0.0,-0.006,50.194,66.0,0.0,26.0,26.0,26.0,26.0,0.48,0.31,0.06,375.6,-2.56,-2.25,-2.21,-1.18,-735.67,670.50,5.7,0.00,0.00,0.00,0.00,0.01,-7.49,-7.49,-0.38,-1.03,0.12,-0.15,49.29,0.19,-0.37,-5.32,100.0,0,0,140.49,0,0,0.0,0,0,0,0,7494,0,30.00,4,177.4,1,0,0.0,0.0,0.0,0.0,1,0,0.436,0.436,50.194,17.865,1,110.00,435.8,8750,0.0,0.0,110.0,110.0,433.0,0.00,0,0,1,333.3,71.9,71.9,58.6,58.6,34.0,6.3,68.62,-3.8,59.2,3,-184.765,-10.0,100.0,18.7,24.1,38.1,46.6,0,1,100.0,0.00,0.00,0.00,0.00,1904,5723,4498,7117,320.3,309.2,344.1,336.1,25.27,22.87,26.16,24.74,325.0,325.0,355.0,355.0,100.00,99.85,100.00,100.00,0.63,0.67,0.27,0.41,-0.0,-0.1,1.6,1.5,83.9,69.0,83.3,74.4,88.5,68.9,87.7,76.4,84.9,65.9,85.9,74.0,82.1,64.5,85.0,72.8,-0.55,0.56,0.07,0.04,0.00,150.77,151.36,140.49,140.49,174.7,27.6,0.574543296888929,169.9680075136485,45.01271384520845,57.6162738925737,32.40915351333108
0.450,22.0,44.054426116969410,-78.681916037021097,-85.7,-83.9,-17.6,-140.1,5130.1,5130,178.0,0,1,1,0,1,1,0,0,0,100,1,1.186,26.0,0.0,-0.006,50.194,66.0,0.0,26.0,26.0,26.0,26.0,0.39,0.36,-0.40,383.7,-1.52,-2.94,-1.28,-1.98,-735.02,668.07,5.7,0.00,0.00,0.00,0.00,0.01,-7.49,-7.49,-0.48,-3.01,-0.07,-3.14,49.44,0.27,-0.36,-5.77,100.0,0,0,141.30,0,0,0.0,0,0,0,0,7537,0,30.00,4,178.0,0,0,0.0,0.0,0.0,0.0,1,0,0.486,0.486,50.194,17.865,0,110.00,435.8,8750,0.0,0.0,110.0,110.0,433.0,0.00,0,0,1,166.7,83.1,83.1,64.4,64.4,34.0,2.3,21.82,9.4,69.6,3,-184.815,-9.6,100.0,14.4,19.9,37.2,39.6,0,1,100.0,0.00,0.00,0.00,0.00,533,2157,3905,6442,323.5,319.2,345.3,338.6,25.27,22.87,26.16,24.74,325.0,325.0,355.0,355.0,100.00,99.85,100.00,100.00,0.75,0.70,0.43,0.56,-0.1,-0.0,2.0,1.7,83.9,68.9,83.3,74.4,88.4,68.9,87.6,76.4,84.8,65.9,85.8,74.0,82.1,64.5,84.9,72.8,-0.56,0.56,0.06,0.06,0.00,151.03,151.52,141.29,141.29,174.7,27.6,0.6646051459325304,175.3695332035247,47.17332409839798,7.202034556647732,14.404068544271311
0.500,24.5,44.054404173522222,-78.681910101498502,-6.8,-87.2,-88.8,-32.8,5132.6,5133,178.5,0,1,1,0,1,1,0,0,0,100,1,1.186,26.0,0.0,-0.009,50.194,66.0,0.0,26.0,26.0,26.0,26.0,0.31,0.20,-0.49,387.6,-2.55,-2.30,-0.67,-2.02,-734.36,665.63,5.7,0.00,0.00,0.00,0.00,0.02,-7.49,-7.49,-0.74,-5.56,-0.14,0.56,49.58,0.32,-0.43,-5.69,100.0,0,0,142.78,0,0,0.0,0,0,0,0,7616,0,30.00,4,178.5,1,0,0.0,0.0,0.0,0.0,1,0,0.537,0.537,50.194,17.865,1,110.00,435.8,8750,0.0,0.0,110.0,110.0,433.0,0.00,0,0,1,166.7,81.8,81.8,76.8,76.8,34.0,12.3,25.85,7.0,24.8,3,-184.865,-9.4,100.0,14.1,15.6,32.7,38.0,0,1,100.0,0.00,0.00,0.00,0.00,2728,2500,2373,3051,318.1,318.4,348.8,347.0,25.26,22.87,26.17,24.74,325.0,325.0,355.0,355.0,100.00,99.85,100.00,100.00,0.71,0.77,0.45,0.55,-0.1,-0.1,2.6,2.2,83.9,68.9,83.3,74.4,88.3,68.9,87.6,76.4,84.7,65.9,85.8,73.9,82.0,64.4,84.9,72.8,-0.54,0.55,0.08,0.05,0.00,151.50,151.97,142.77,142.77,174.7,27.6,0.6133514490078261,170.68821096931327,46.45312069963558,-43.21220534830218,5.690237259159403e-07
0.550,26.9,44.054383489125286,-78.681904435772381,33.0,91.7,-75.7,-102.6,5135.1,5135,179.0,0,1,1,0,1,1,0,0,0,100,1,1.186,26.0,0.0,-0.006,50.194,66.0,0.0,26.0,26.0,26.0,26.0,0.43,0.24,-0.33,385.7,-3.44,-2.32,-2.51,-1.54,-733.73,663.33,5.7,0.00,0.00,0.00,0.00,0.02,-7.49,-7.49,-0.91,-1.97,0.07,4.09,49.72,0.38,-0.43,-6.81,100.0,0,0,142.99,0,0,0.0,0,0,0,0,7627,0,30.00,4,179.0,0,0,0.0,0.0,0.0,0.0,1,0,0.584,0.584,50.194,17.865,0,110.00,435.8,8750,0.0,0.0,110.0,110.0,433.0,0.00,0,0,1,333.3,76.3,76.3,78.3,78.3,34.0,10.1,36.38,2.0,45.9,3,-184.915,-8.7,100.0,15.7,20.1,29.0,32.8,0,1,100.0,0.00,0.00,0.00,0.00,3938,3300,2608,4765,316.4,315.7,349.4,342.3,25.26,22.87,26.17,24.74,325.0,325.0,355.0,355.0,100.00,99.85,100.00,100.00,0.63,0.72,0.48,0.64,-0.1,-0.0,2.5,2.1,83.9,68.9,83.3,74.4,88.3,68.8,87.5,76.4,84.7,65.9,85.8,73.9,82.0,64.4,84.8,72.8,-0.51,0.49,0.09,0.05,0.00,152.05,152.59,142.99,142.99,174.7,27.6,0.5927900134111572,171.04831266869448,47.17332415530035,57.616273608061874,28.808137088542907
0.600,29.4,44.054361455745941,-78.681898320385457,16.9,-17.9,-12.5,171.5,5137.6,5138,179.6,0,1,1,0,1,1,0,0,0,100,1,1.186,26.0,0.0,-0.009,50.194,66.0,0.0,26.0,26.0,26.0,26.0,0.42,0.28,-0.25,384.2,-2.38,-1.69,-1.65,-1.12,-733.05,660.88,5.7,0.00,0.00,0.00,0.00,0.02,-7.49,-7.49,-0.97,-2.46,0.31,2.89,49.89,0.46,-0.39,-6.41,100.0,0,0,142.69,0,0,0.0,0,0,0,0,7611,0,30.00,4,179.6,1,0,0.0,0.0,0.0,0.0,1,0,0.636,0.636,50.194,17.865,1,110.00,435.8,8750,0.0,0.0,110.0,110.0,433.0,0.00,0,0,1,333.3,79.9,79.9,76.0,76.0,34.0,6.7,21.66,11.6,52.8,3,-184.965,-6.6,100.0,16.5,19.2,28.3,41.4,0,1,100.0,0.00,0.00,0.00,0.00,1696,2215,3638,4956,320.9,318.2,346.2,341.6,25.26,22.87,26.17,24.74,325.0,325.0,355.0,355.0,100.00,99.85,100.00,100.00,0.70,0.72,0.57,0.73,-0.0,-0.0,2.0,1.7,83.9,68.9,83.3,74.4,88.2,68.8,87.5,76.4,84.6,65.9,85.7,73.9,81.9,64.4,84.8,72.8,-0.40,0.40,0.08,0.03,0.00,152.51,153.09,142.68,142.68,174.7,27.6,0.5632938842203065,176.44983833011946,49.333934408489874,3.601016993811754,18.005084969059695
0.650,31.9,44.054339422366596,-78.681892115066375,113.5,110.2,40.2,-31.4,5140.1,5140,180.1,0,1,1,0,1,1,0,0,0,100,1,1.186,26.0,0.0,-0.009,50.194,66.0,0.0,26.0,26.0,26.0,26.0,0.48,0.23,0.03,377.8,-2.64,-2.91,-2.35,-0.52,-732.36,658.43,5.7,0.00,0.00,0.00,0.00,0.02,-7.49,-7.49,-1.10,-0.42,0.56,6.06,50.03,0.50,-0.45,-6.82,100.0,0,0,143.40,0,0,0.0,0,0,0,0,7649,0,30.00,4,180.1,0,0,0.0,0.0,0.0,0.0,1,0,0.687,0.687,50.194,17.865,0,110.00,435.8,8750,0.0,0.0,110.0,110.0,433.0,0.00,0,0,1,333.3,65.7,65.7,72.7,72.7,34.0,9.3,81.35,6.9,44.3,3,-185.015,-3.5,100.0,22.2,24.8,30.3,39.8,0,1,98.4,0.00,0.00,0.00,0.00,3726,6372,2926,4738,315.2,307.9,347.7,343.1,25.26,22.87,26.17,24.74,325.0,325.0,355.0,355.0,100.00,99.85,100.00,100.00,0.51,0.65,0.62,0.76,0.0,-0.1,2.1,1.7,83.9,68.9,83.3,74.4,88.2,68.8,87.5,76.4,84.6,65.9,85.7,73.9,81.8,64.4,84.8,72.8,-0.22,0.22,0.08,0.05,0.00,153.17,153.71,143.40,143.40,174.7,27.6,0.5331041174104736,171.40841436807565,48.97383265220632,-46.8132223421145,7.202033987623935
0.700,34.4,44.054318648037501,-78.681886089611623,-1.1,140.1,64.1,82.5,5142.6,5143,180.6,0,1,1,0,1,1,0,0,0,100,1,1.186,26.0,0.0,-0.009,50.194,66.0,0.0,26.0,26.0,26.0,26.0,0.58,0.25,0.21,371.4,-3.47,-2.15,-1.45,-1.44,-731.69,656.12,5.6,0.00,0.00,0.00,0.00,0.02,-7.49,-7.49,-0.91,5.07,0.75,-0.09,50.17,0.53,-0.34,-5.31,100.0,0,0,142.35,0,0,0.0,0,0,0,0,7593,0,30.00,4,180.6,1,0,0.0,0.0,0.0,0.0,1,0,0.734,0.734,50.194,17.865,1,110.00,435.8,8750,0.0,0.0,110.0,110.0,433.0,0.00,0,0,1,333.3,64.4,64.4,57.4,57.4,34.0,-0.2,54.16,33.1,97.9,3,-185.065,0.7,100.0,22.2,31.8,33.6,44.0,0,1,71.1,0.00,0.00,0.00,0.00,3406,5541,6141,6899,316.9,309.3,339.7,336.9,25.26,22.87,26.17,24.74,325.0,325.0,355.0,355.0,100.00,99.85,100.00,100.00,0.39,0.47,0.63,0.83,-0.1,-0.0,1.3,0.9,83.9,68.9,83.3,74.4,88.1,68.8,87.4,76.4,84.5,65.9,85.7,73.9,81.8,64.4,84.7,72.8,0.02,0.00,0.07,0.03,0.00,153.63,154.23,142.35,142.35,174.7,27.6,0.6655824516917495,171.768516095908,50.05413780725227,54.01525689876195,32.40915465137846
0.750,37.0,44.054296524725991,-78.681879614496054,-109.0,-150.7,172.0,165.6,5145.1,5145,180.8,0,1,1,0,1,1,0,0,0,100,1,1.186,26.0,0.0,-0.009,50.194,66.0,0.0,26.0,26.0,26.0,26.0,0.37,-0.02,-0.13,374.5,-2.69,-1.82,-2.61,-2.65,-730.97,653.66,5.6,0.00,0.00,0.00,0.00,0.02,-7.49,-7.49,-0.85,-2.93,0.62,-7.35,50.23,0.41,-0.34,-0.33,100.0,0,0,141.25,0,0,0.0,0,0,0,0,7534,0,30.00,4,180.8,0,0,0.0,0.0,0.0,0.0,1,0,0.786,0.786,50.194,17.865,0,110.00,435.8,8750,0.0,0.0,110.0,110.0,433.0,0.00,0,0,1,333.3,76.3,76.3,58.0,58.0,34.0,-0.7,20.29,5.8,98.1,3,-185.115,4.3,100.0,16.7,24.2,42.2,52.2,0,1,5.6,0.00,0.00,0.00,0.00,1797,3401,4364,6828,320.5,315.9,345.0,336.6,25.26,22.87,26.17,24.74,325.0,325.0,355.0,355.0,100.00,99.85,100.00,100.00,0.27,0.27,0.50,0.59,-0.0,0.0,0.3,0.3,83.9,68.9,83.3,74.4,88.0,68.8,87.4,76.4,84.4,65.8,85.6,74.0,81.7,64.4,84.7,72.8,0.24,-0.23,0.06,0.02,0.00,153.88,153.83,141.28,141.20,174.7,27.6,0.39268307832143723,176.80994005795185,52.214748117344165,-7.202034272135336,10.803051550459486
0.800,39.5,44.054274491346646,-78.681873049448328,180.2,-32.1,-102.7,-202.6,5147.6,5148,180.5,0,1,1,0,1,1,0,0,0,100,1,1.186,26.0,0.0,-0.012,50.194,66.0,0.0,26.0,26.0,26.0,26.0,0.10,-0.25,-0.08,375.3,-2.27,-2.48,-1.19,-1.21,-730.24,651.21,5.6,0.00,0.00,0.00,0.00,0.03,-7.49,-7.49,-1.13,-4.57,0.29,-3.58,50.13,0.25,-0.51,2.29,100.0,0,0,140.21,0,0,0.0,0,0,0,0,7479,0,30.00,4,180.5,1,0,0.0,0.0,0.0,0.0,1,0,0.837,0.837,50.194,17.865,1,110.00,435.8,8750,0.0,0.0,110.0,110.0,433.0,0.00,0,0,1,333.3,63.8,63.8,71.0,71.0,34.0,-25.2,31.12,2.0,18.9,3,-185.165,6.2,100.0,25.7,22.6,37.0,42.1,0,1,0.0,0.00,0.00,0.00,0.00,5911,5483,3652,3041,310.8,310.2,345.7,347.1,25.26,22.87,26.17,24.75,325.0,325.0,355.0,355.0,100.00,99.85,100.00,100.00,-0.03,0.11,0.22,0.31,-0.0,-0.1,-0.4,-0.4,83.9,68.9,83.3,74.4,88.0,68.8,87.3,76.3,84.4,65.8,85.6,73.9,81.7,64.4,84.6,72.7,0.35,-0.36,0.07,0.05,0.00,153.77,153.55,140.21,140.21,174.7,27.6,0.2808914381037628,171.04831266869448,51.134442962298216,-61.21729117089757,-14.404069113295108
0.850,42.0,44.054253806949710,-78.681866844129246,40.8,113.1,31.6,-173.8,5150.1,5150,180.1,0,1,1,0,1,1,0,0,0,100,1,1.186,26.0,0.0,-0.015,50.194,66.0,0.0,26.0,26.0,26.0,26.0,-0.07,-0.23,-0.03,374.3,-2.66,-2.85,-1.27,-0.94,-729.55,648.91,5.6,0.00,0.00,0.00,0.00,0.03,-7.49,-7.49,-1.15,1.02,0.20,0.30,50.02,0.12,-0.51,3.36,100.0,0,0,140.18,0,0,0.0,0,0,0,0,7477,0,30.00,4,180.1,0,0,0.0,0.0,0.0,0.0,0,0,0.884,0.884,50.194,17.865,0,110.00,435.8,8750,0.0,0.0,110.0,110.0,433.0,0.00,0,0,1,166.7,65.3,65.3,61.6,61.6,34.0,-21.5,10.69,-23.9,25.3,3,-185.215,6.2,100.0,27.8,28.3,38.6,33.4,0,1,0.0,0.00,0.00,0.00,0.00,3710,3587,6335,5525,315.1,314.9,339.4,341.5,25.27,22.87,26.17,24.75,325.0,325.0,355.0,355.0,100.00,99.85,100.00,100.00,-0.12,-0.11,-0.04,0.16,-0.0,-0.0,-0.3,-0.2,83.9,68.9,83.3,74.4,87.9,68.7,87.3,76.3,84.3,65.8,85.5,73.9,81.6,64.3,84.6,72.7,0.37,-0.36,0.06,0.06,0.00,153.58,153.28,140.18,140.18,174.7,27.6,0.24228082879171436,170.6882109408621,50.774341206014654,46.813222342114216,10.80305098143576
0.900,44.5,44.054231863502530,-78.681860369013691,24.4,-37.3,17.3,182.7,5152.6,5153,179.7,0,1,1,0,1,1,0,0,0,100,1,1.186,26.0,0.0,-0.012,50.194,66.0,0.0,26.0,26.0,26.0,26.0,-0.16,-0.22,-0.05,373.5,-2.43,-2.66,-1.78,-0.68,-728.83,646.47,5.5,0.00,0.00,0.00,0.00,0.03,-7.49,-7.49,-1.16,-0.26,0.30,-0.16,49.91,0.00,-0.57,4.40,100.0,0,0,139.82,0,0,0.0,0,0,0,0,7458,0,30.00,4,179.7,1,0,0.0,0.0,0.0,0.0,0,0,0.936,0.936,50.194,17.865,1,110.00,435.8,8750,0.0,0.0,110.0,110.0,433.0,0.00,0,0,1,333.3,64.4,64.4,65.6,65.6,34.0,-25.1,9.39,-27.5,2.3,3,-185.265,5.8,100.0,29.0,26.4,39.5,42.6,0,1,0.0,0.00,0.00,0.00,0.00,3690,4659,4291,4005,315.5,312.6,344.1,344.4,25.27,22.87,26.17,24.75,325.0,325.0,355.0,355.0,100.00,99.85,100.00,100.00,-0.24,-0.17,-0.18,-0.06,0.0,-0.0,-0.4,-0.2,83.9,68.9,83.3,74.4,87.8,68.7,87.2,76.2,84.3,65.8,85.4,73.8,81.6,64.3,84.5,72.7,0.35,-0.35,0.05,0.05,0.00,153.16,152.83,139.82,139.82,174.7,27.6,0.2765863337187866,175.7296349029059,52.21474806044179,-3.6010169938120384,-3.6010169938118963
0.950,46.9,44.054209920055342,-78.681853803965964,18.2,124.9,73.7,-125.6,5155.1,5155,179.3,0,1,1,0,1,1,0,0,0,100,1,1.186,26.0,0.0,-0.012,50.194,66.0,0.0,26.0,26.0,26.0,26.0,-0.23,-0.24,0.12,370.2,-3.03,-3.39,-1.40,-0.81,-728.10,644.03,5.5,0.00,0.00,0.00,0.00,0.03,-7.49,-7.49,-1.08,4.18,0.12,-3.86,49.79,-0.09,-0.57,4.36,100.0,0,0,139.61,0,0,0.0,0,0,0,0,7447,0,30.00,4,179.3,0,0,0.0,0.0,0.0,0.0,0,0,0.987,0.987,50.194,17.865,0,110.00,435.8,8750,0.0,0.0,110.0,110.0,433.0,0.00,0,0,1,333.3,56.5,56.5,60.2,60.2,34.0,-52.2,16.29,-29.9,0.2,3,-185.315,5.0,100.0,29.9,32.7,43.1,36.3,0,1,0.0,0.00,0.00,0.00,0.00,5688,5476,4592,4260,309.5,309.8,344.0,344.3,25.27,22.87,26.18,24.75,325.0,325.0,355.0,355.0,100.00,99.85,100.00,100.00,-0.28,-0.20,-0.25,-0.12,-0.0,-0.0,-0.5,-0.2,83.9,68.9,83.3,74.4,87.8,68.7,87.1,76.2,84.2,65.8,85.4,73.8,81.5,64.3,84.5,72.6,0.31,-0.27,0.06,0.06,0.00,153.03,152.65,139.61,139.61,174.7,27.6,0.35341194094144585,170.3281092414809,50.414239506633464,-3.6010169938120384,-10.80305098143576
1.000,49.4,44.054189325590571,-78.681847778511212,-179.2,-313.8,47.8,139.0,5157.6,5158,178.9,0,1,1,0,1,1,0,0,0,100,1,1.186,26.0,0.0,-0.015,50.194,66.0,0.0,26.0,26.0,26.0,26.0,-0.24,-0.24,0.02,375.5,-2.53,-2.35,-1.59,-2.61,-727.43,641.74,5.5,0.00,0.00,0.00,0.00,0.03,-7.49,-7.49,-0.98,-2.66,-0.24,-7.53,49.69,-0.16,-0.44,3.66,100.0,0,0,139.17,0,0,0.0,0,0,0,0,7423,0,30.00,4,178.9,1,0,0.0,0.0,0.0,0.0,0,0,1.034,1.034,50.194,17.865,1,110.00,435.8,8750,0.0,0.0,110.0,110.0,433.0,0.00,0,0,1,333.3,76.4,76.4,58.5,58.5,34.0,-29.8,-0.15,-55.3,20.6,3,-185.365,4.6,100.0,20.9,17.0,45.5,43.2,0,1,0.0,0.00,0.00,0.00,0.00,3866,2878,6614,5231,315.4,317.2,339.0,341.2,25.27,22.87,26.18,24.75,325.0,325.0,355.0,355.0,100.00,99.85,100.00,100.00,-0.31,-0.27,-0.30,-0.15,0.0,-0.0,-0.3,-0.1,83.9,68.9,83.4,74.4,87.7,68.7,87.1,76.2,84.2,65.7,85.3,73.8,81.5,64.3,84.4,72.6,0.28,-0.28,0.05,0.04,0.00,152.53,152.09,139.17,139.17,174.7,27.6,0.33999999999999997,175.3695332035247,51.134442962298216,46.81322262662604,3.601017562835551
1.050,51.9,44.054166123093133,-78.681841033599156,108.3,10.1,-166.5,-312.8,5160.1,5160,178.5,0,1,1,0,1,1,0,0,0,100,1,1.186,26.0,0.0,-0.015,50.194,66.0,0.0,26.0,26.0,26.0,26.0,-0.32,-0.23,-0.36,381.7,-1.67,-2.60,-1.34,-1.57,-726.68,639.16,5.5,0.00,0.00,0.00,0.00,0.03,-7.49,-7.49,-1.17,-1.38,-0.40,4.94,49.58,-0.20,-0.49,3.88,100.0,0,0,138.87,0,0,0.0,0,0,0,0,7407,0,30.00,4,178.5,0,0,0.0,0.0,0.0,0.0,0,0,1.089,1.089,50.194,17.865,0,110.00,435.8,8750,0.0,0.0,110.0,110.0,433.0,0.00,0,0,1,166.7,71.3,71.3,77.1,77.1,34.0,-46.5,-0.74,-38.7,-2.4,3,-185.420,3.0,100.0,26.4,17.5,37.2,27.6,0,1,0.0,0.00,0.00,0.00,0.00,5650,1784,4499,3584,310.5,320.1,343.8,346.3,25.27,22.87,26.18,24.75,325.0,325.0,355.0,355.0,100.00,99.85,100.00,100.00,-0.39,-0.34,-0.42,-0.29,-0.0,0.0,-0.4,-0.3,83.9,68.9,83.4,74.4,87.7,68.6,87.0,76.1,84.1,65.7,85.3,73.7,81.4,64.2,84.4,72.5,0.20,-0.20,0.06,0.08,0.00,152.29,151.80,138.87,138.87,174.7,27.6,0.5337602458033007,175.0094315041435,50.77434126291702,-111.6315305068241,-39.61118863900239
1.100,54.4,44.054145618560518,-78.681835098076562,187.0,208.6,-10.2,142.8,5162.5,5163,178.1,0,1,1,0,1,1,0,0,0,100,1,1.186,26.0,0.0,-0.018,50.194,66.0,0.0,26.0,26.0,26.0,26.0,-0.34,-0.24,0.32,370.3,-2.49,-3.25,-0.84,-1.83,-726.02,636.88,5.5,0.00,0.00,0.00,0.00,0.03,-7.49,-7.49,-1.14,3.34,0.01,9.68,49.47,-0.22,-0.52,4.10,100.0,0,0,138.63,0,0,0.0,0,0,0,0,7395,0,30.00,4,178.1,1,0,0.0,0.0,0.0,0.0,0,0,1.137,1.137,50.194,17.865,1,110.00,435.8,8750,0.0,0.0,110.0,110.0,433.0,0.00,0,0,1,333.3,53.2,53.2,70.6,70.6,34.0,-72.2,14.81,-51.1,-5.6,3,-185.465,0.6,100.0,35.7,27.9,36.7,34.7,0,1,0.0,0.00,0.00,0.00,0.00,7572,5684,5422,3794,306.3,309.5,341.6,344.7,25.27,22.87,26.18,24.75,325.0,325.0,355.0,355.0,100.00,99.85,100.00,100.00,-0.36,-0.20,-0.54,-0.39,-0.0,-0.1,-0.4,-0.2,83.9,68.9,83.4,74.4,87.7,68.6,87.0,76.1,84.1,65.7,85.2,73.7,81.4,64.2,84.3,72.5,0.09,-0.05,0.06,0.05,0.00,151.93,151.85,138.64,138.64,174.7,27.6,0.5249761899362675,164.20638015284229,47.17332409839798,-57.6162738925737,-28.808137088542907
1.150,56.9,44.054125114027904,-78.681829252486125,-6.3,139.7,213.1,177.3,5165.0,5165,177.7,0,1,1,0,1,1,0,0,0,100,1,1.186,26.0,0.0,-0.015,50.194,66.0,0.0,26.0,26.0,26.0,26.0,-0.28,-0.21,0.60,361.1,-4.06,-2.38,-1.09,-1.51,-725.37,634.60,5.4,0.00,0.00,0.00,0.00,0.04,-7.49,-7.49,-0.86,6.10,0.37,3.46,49.36,-0.18,-0.46,1.85,100.0,0,0,138.39,0,0,0.0,0,0,0,0,7382,0,30.00,4,177.7,0,0,0.0,0.0,0.0,0.0,0,0,1.186,1.186,50.194,17.865,0,110.00,435.8,8750,0.0,0.0,110.0,110.0,433.0,0.00,0,0,1,333.3,49.3,49.3,50.6,50.6,34.0,-59.2,25.00,-45.4,2.0,3,-185.515,-0.9,100.0,35.4,34.9,47.4,43.6,0,1,0.0,0.00,0.00,0.00,0.00,6064,8161,5384,7535,310.0,303.1,340.9,336.2,25.27,22.87,26.18,24.75,325.0,325.0,355.0,355.0,100.00,99.85,100.00,100.00,-0.24,-0.09,-0.39,-0.22,-0.0,-0.0,-0.3,-0.2,84.0,68.9,83.4,74.4,87.6,68.6,87.0,76.0,84.1,65.7,85.2,73.6,81.4,64.2,84.3,72.5,-0.01,0.07,0.05,0.04,0.00,151.66,151.62,138.39,138.39,174.7,27.6,0.6946221994724903,169.24780411488612,47.89352755406273,97.22746196255287,18.005086107107147
1.200,59.3,44.054103350445040,-78.681823137099201,64.1,105.3,74.9,124.3,5167.5,5167,177.3,0,1,1,0,1,1,0,0,0,100,1,1.186,26.0,0.0,-0.018,50.194,66.0,0.0,26.0,26.0,26.0,26.0,-0.16,-0.24,0.65,356.9,-3.15,-2.70,-2.83,-0.86,-724.69,632.18,5.4,0.00,0.00,0.00,0.00,0.04,-7.49,-7.49,-0.47,10.04,0.19,-6.08,49.24,-0.13,-0.47,-0.01,100.0,0,0,138.34,0,0,0.0,0,0,0,0,7379,0,30.00,4,177.3,1,0,0.0,0.0,0.0,0.0,0,0,1.236,1.236,50.194,17.865,1,110.00,435.8,8750,0.0,0.0,110.0,110.0,433.0,0.00,0,0,1,333.3,45.7,45.7,44.2,44.2,34.0,-41.5,46.50,-65.1,6.6,3,-185.565,-2.2,100.0,38.6,40.1,51.1,49.8,0,1,0.0,0.00,0.00,0.00,0.00,6237,7535,6747,7243,309.5,304.4,338.6,336.5,25.27,22.87,26.18,24.75,325.0,325.0,355.0,355.0,100.00,99.85,100.00,100.00,-0.09,0.09,-0.19,-0.08,-0.0,-0.0,-0.2,-0.2,84.0,68.9,83.4,74.4,87.6,68.6,86.9,76.0,84.0,65.7,85.2,73.6,81.3,64.2,84.2,72.4,-0.07,0.16,0.04,0.03,0.00,151.31,151.36,138.34,138.34,174.7,27.6,0.711125867902441,173.92912634909757,48.97383270910869,-7.202034272135904,-7.202034556647519
1.250,61.8,44.054081676794340,-78.681817021712277,13.5,-11.6,162.3,62.6,5169.9,5170,176.9,0,1,1,0,1,1,0,0,0,100,1,1.186,26.0,0.0,-0.021,50.194,66.0,0.0,26.0,26.0,26.0,26.0,0.04,-0.22,0.76,356.3,-2.64,-2.70,-1.63,-1.91,-724.01,629.77,5.4,0.00,0.00,0.00,0.00,0.04,-7.49,-7.49,0.05,9.36,-0.22,-4.07,49.12,-0.07,-0.43,-1.52,100.0,0,0,138.01,0,0,0.0,0,0,0,0,7361,0,30.00,4,176.9,0,0,0.0,0.0,0.0,0.0,0,0,1.287,1.287,50.194,17.865,0,110.00,435.8,8750,0.0,0.0,110.0,110.0,433.0,0.00,0,0,1,333.3,48.9,48.9,38.9,38.9,34.0,-28.8,31.51,-34.6,37.6,3,-185.620,-2.2,100.0,39.3,39.6,59.2,52.9,0,1,0.0,0.00,0.00,0.00,0.00,6129,5310,7287,7040,309.1,310.6,336.9,337.0,25.28,22.87,26.19,24.75,325.0,325.0,355.0,355.0,100.00,99.85,100.00,100.00,0.00,0.11,-0.03,0.03,0.0,0.0,-0.1,-0.3,84.0,68.9,83.4,74.4,87.5,68.6,86.9,76.0,84.0,65.7,85.1,73.6,81.3,64.2,84.2,72.4,-0.10,0.17,0.02,0.01,0.00,150.86,150.96,138.01,138.01,174.7,27.6,0.7922120928135344,168.52760068767253,47.17332409839798,-54.015256614250404,-18.005086107107147
1.300,64.2,44.054061262193883,-78.681811355986170,-249.9,-227.8,-37.4,52.2,5172.4,5172,176.5,0,1,1,0,1,1,0,0,0,100,1,1.186,26.0,0.0,-0.018,50.194,66.0,0.0,26.0,26.0,26.0,26.0,0.05,-0.19,0.64,364.4,-2.72,-3.15,-1.86,-2.18,-723.38,627.50,5.5,0.00,0.00,0.00,0.00,0.04,-7.49,-7.49,0.26,-0.95,-0.32,-1.75,49.02,-0.02,-0.44,-1.47,100.0,0,0,137.38,0,0,0.0,0,0,0,0,7328,0,30.00,4,176.5,1,0,0.0,0.0,0.0,0.0,0,0,1.334,1.334,50.194,17.865,1,110.00,435.8,8750,0.0,0.0,110.0,110.0,433.0,0.00,0,0,1,333.3,64.0,64.0,40.0,40.0,34.0,-22.1,27.39,-33.6,37.9,3,-185.665,-0.9,100.0,26.8,28.2,57.3,55.6,0,1,0.0,0.00,0.00,0.00,0.00,4631,4901,6887,6238,313.4,311.7,337.0,338.0,25.28,22.87,26.19,24.75,325.0,325.0,355.0,355.0,100.00,99.85,100.00,100.00,-0.02,0.04,0.00,0.03,0.0,0.0,-0.1,-0.2,84.0,68.9,83.4,74.5,87.5,68.6,86.8,76.0,83.9,65.6,85.1,73.6,81.2,64.2,84.1,72.4,-0.05,0.06,0.02,0.01,0.00,150.25,150.36,137.38,137.38,174.7,27.6,0.669477408132642,168.52760068767253,47.17332409839798,43.212205348302746,14.40406911329518
1.350,66.7,44.054039588543183,-78.681805240599246,45.6,-14.1,-327.8,-268.0,5174.8,5175,176.0,0,1,1,0,1,1,0,0,0,100,1,1.186,26.0,0.0,-0.021,50.194,66.0,1.5,26.0,26.0,26.0,26.0,0.05,-0.27,-0.23,374.5,-2.12,-2.60,-1.71,-2.03,-722.70,625.09,5.5,0.00,0.00,0.00,0.00,0.04,-7.49,-7.49,0.22,0.97,-0.26,3.18,48.89,0.02,-0.53,-0.88,100.0,0,0,137.09,0,0,0.0,0,0,0,0,7312,0,30.00,4,176.0,0,0,0.0,0.0,0.0,0.0,1,0,1.386,1.386,50.194,17.865,0,110.00,435.8,8750,0.0,0.0,110.0,110.0,433.0,0.00,0,0,1,333.3,62.7,62.7,64.7,64.7,34.0,-16.9,24.32,-18.8,30.8,3,-185.715,-1.4,100.0,29.1,27.5,41.0,42.2,0,1,0.0,0.00,0.00,0.00,0.00,4594,4680,4483,5229,313.3,312.7,344.2,341.8,25.28,22.87,26.19,24.75,325.0,325.0,355.0,355.0,100.00,99.85,100.00,100.00,-0.01,0.08,-0.03,0.08,-0.1,-0.1,-0.3,-0.3,84.0,68.9,83.4,74.5,87.4,68.5,86.8,75.9,83.9,65.6,85.0,73.5,81.2,64.1,84.1,72.4,-0.06,0.08,0.06,0.04,0.00,149.89,149.87,137.09,137.09,174.7,27.6,0.35818989377144633,172.8488212225028,48.613731009727495,-14.404068259759697,0.0
1.400,69.1,44.054018094756799,-78.681799215144480,75.2,26.6,-13.4,5.0,5177.3,5177,175.5,0,1,1,0,1,1,0,0,0,100,1,1.186,26.0,0.0,-0.021,50.194,66.0,4.8,26.0,26.0,26.0,26.0,0.05,-0.31,0.30,372.2,-2.71,-2.87,-1.34,-1.67,-722.03,622.70,5.5,0.00,0.00,0.00,0.00,0.04,-7.49,-7.49,0.31,3.14,-0.11,5.82,48.75,0.04,-0.56,-0.89,100.0,0,0,136.59,0,0,0.0,0,0,0,0,7286,0,30.00,4,175.5,1,0,0.0,0.0,0.0,0.0,1,0,1.437,1.437,50.194,17.865,1,110.00,435.8,8750,0.0,0.0,110.0,110.0,433.0,0.00,0,0,1,333.3,55.9,55.9,64.9,64.9,34.0,-23.7,47.48,-16.5,17.8,3,-185.765,-2.0,100.0,32.8,28.8,40.3,42.4,0,1,0.0,0.00,0.00,0.00,0.00,5624,6672,4454,3875,310.5,307.4,344.2,344.5,25.28,22.87,26.19,24.75,325.0,325.0,355.0,355.0,100.00,99.85,100.00,100.00,0.04,0.16,-0.05,0.07,-0.1,-0.2,-0.3,-0.4,84.0,68.9,83.4,74.5,87.4,68.5,86.7,75.9,83.8,65.6,85.0,73.5,81.1,64.1,84.0,72.3,-0.09,0.11,0.06,0.04,0.00,149.37,149.48,136.59,136.59,174.7,27.6,0.43428101501216926,167.08719386169656,47.17332409839798,-10.803051550459486,-5.690237259159403e-07
1.450,71.5,44.053997860020665,-78.681793459486215,-224.6,23.2,45.3,8.8,5179.7,5180,174.9,0,1,1,0,1,1,0,0,0,100,1,1.186,26.0,0.0,-0.024,50.194,66.0,15.2,26.0,26.0,26.0,26.0,0.10,-0.45,-0.05,375.7,-2.87,-2.90,-2.09,-1.87,-721.39,620.45,5.6,0.00,0.00,0.00,0.00,0.04,-7.49,-7.49,0.47,1.28,0.06,-0.30,48.57,0.05,-0.47,-1.74,100.0,0,0,135.91,0,0,0.0,0,0,0,0,7249,0,30.00,4,174.9,0,0,0.0,0.0,0.0,0.0,1,0,1.484,1.484,50.194,17.865,0,110.00,435.8,8750,0.0,0.0,110.0,110.0,433.0,0.00,0,0,1,166.7,69.3,69.3,51.3,51.3,34.0,-4.0,24.89,-32.8,37.7,3,-185.815,-2.0,100.0,21.6,30.0,42.5,42.8,0,1,0.0,0.00,0.00,0.00,0.00,2313,3997,6289,5644,318.9,313.3,339.5,340.5,25.28,22.87,26.19,24.75,325.0,325.0,355.0,355.0,100.00,99.85,100.00,100.00,0.18,0.13,-0.00,0.16,-0.9,-0.5,-0.3,-0.4,84.0,68.9,83.4,74.5,87.3,68.5,86.7,75.8,83.8,65.6,84.9,73.5,81.1,64.1,84.0,72.3,-0.11,0.13,0.05,0.04,0.00,147.27,148.07,135.91,135.91,174.7,27.6,0.46368092477478523,171.76851606745686,48.61373095282512,36.0101707916553,10.803052119483212
1.500,74.0,44.053975197116202,-78.681787074302804,-79.0,-194.0,-87.0,-11.1,5182.1,5182,174.0,0,1,1,0,1,1,0,0,0,100,1,1.186,26.0,0.0,-0.024,50.194,66.0,23.5,26.0,26.0,26.0,26.0,0.15,-0.52,-0.36,384.5,-2.69,-2.61,-1.66,-1.97,-720.68,617.93,5.6,0.00,0.00,0.00,0.00,0.05,-7.49,-7.49,0.25,-7.13,-0.16,-5.83,48.30,0.06,-0.57,-1.07,100.0,0,0,134.37,0,0,0.0,0,0,0,0,7167,0,30.00,4,174.0,1,0,0.0,0.0,0.0,0.0,1,0,1.539,1.539,50.194,17.865,1,110.00,435.8,8750,0.0,0.0,110.0,110.0,433.0,0.00,0,0,1,166.7,76.6,76.6,72.2,72.2,34.0,-5.6,14.51,-3.5,25.4,3,-185.870,-2.0,100.0,17.6,20.3,38.2,42.3,0,1,0.0,0.00,0.00,0.00,0.00,3157,2856,2312,3774,317.1,317.2,349.9,344.3,25.28,22.87,26.19,24.75,325.0,325.0,355.0,355.0,100.00,99.85,100.00,100.00,0.16,0.16,0.12,0.19,-1.2,-1.4,-0.9,-0.7,84.0,68.9,83.5,74.5,87.2,68.5,86.6,75.8,83.7,65.5,84.8,73.4,81.0,64.1,83.9,72.3,-0.12,0.10,0.07,0.05,0.00,146.06,145.67,134.37,134.37,174.7,27.6,0.65,170.6882109408621,48.2536293103463,-126.03559848207198,-32.4091540823548
1.550,76.3,44.053955232176548,-78.681781408576683,99.4,-55.0,-208.6,-231.8,5184.5,5184,172.7,0,1,1,0,1,1,0,0,0,100,1,1.186,26.0,0.0,-0.024,50.194,66.0,44.7,26.0,26.0,26.0,26.0,0.06,-0.93,-0.26,387.0,-1.51,-2.87,-1.90,-1.16,-720.05,615.71,5.7,0.00,0.00,0.00,0.00,0.05,-7.49,-7.49,-0.13,-7.12,-0.33,1.26,47.95,0.07,-0.67,-1.42,100.0,0,0,132.51,0,0,0.0,0,0,0,0,7068,0,30.00,4,172.7,0,0,0.0,0.0,0.0,0.0,1,0,1.587,1.587,50.194,17.865,0,110.00,435.8,8750,0.0,0.0,110.0,110.0,433.0,0.00,0,0,1,333.3,69.8,69.8,83.6,83.6,34.0,-5.0,25.48,-13.4,5.2,3,-185.920,-2.2,100.0,22.6,17.5,27.8,30.7,0,1,0.0,0.00,0.00,0.00,0.00,5603,4387,3606,1644,311.2,313.0,346.4,350.5,25.28,22.87,26.19,24.75,325.0,325.0,355.0,355.0,100.00,99.85,100.00,100.00,0.10,0.23,-0.01,0.15,-1.7,-2.4,-1.2,-1.6,84.0,68.9,83.5,74.5,87.2,68.5,86.5,75.8,83.7,65.5,84.8,73.4,81.0,64.1,83.9,72.2,-0.11,0.12,0.09,0.07,0.00,144.39,143.77,132.74,132.28,174.7,27.6,0.9675226095549396,159.16495621924966,45.37281554458964,-82.82339341828163,-18.005086107107147
1.600,78.7,44.053935447101217,-78.681775742850576,98.9,219.5,-50.7,-168.9,5186.9,5187,170.9,0,1,1,0,1,1,0,0,0,100,1,1.186,26.0,0.0,-0.027,50.194,66.0,62.9,26.0,26.0,26.0,26.0,0.03,-1.40,-0.11,381.8,-1.85,0.60,-1.15,-1.20,-719.42,613.51,5.7,0.00,0.00,0.00,0.00,0.05,-7.49,-7.49,-0.29,-0.82,-0.05,7.73,47.41,0.11,-0.74,-2.47,100.0,0,0,130.35,0,0,0.0,0,0,0,0,6953,0,30.00,4,170.9,1,0,0.0,0.0,0.0,0.0,1,0,1.634,1.634,50.194,17.865,1,110.00,435.8,8750,0.0,0.0,110.0,110.0,433.0,0.00,0,0,1,333.3,56.6,56.6,79.4,79.4,34.0,-9.9,12.02,-5.5,14.2,3,-185.965,-3.2,100.0,27.6,28.5,25.2,22.3,0,1,0.0,0.00,0.00,0.00,0.00,6247,7958,3406,3589,309.2,304.5,346.7,347.1,25.28,22.87,26.19,24.75,325.0,325.0,355.0,355.0,100.00,99.85,100.00,100.00,0.08,0.20,0.03,0.24,-2.4,-2.4,-2.0,-2.5,84.0,68.9,83.5,74.5,87.2,68.5,86.5,75.7,83.6,65.6,84.7,73.3,81.0,64.1,83.8,72.2,-0.15,0.17,0.09,0.09,0.00,142.23,142.65,130.23,130.46,174.7,27.6,1.4046351839534703,162.40587159903393,46.45312069963558,54.015256614250404,18.005086107107076
1.650,81.1,44.053914672772123,-78.681769807327967,38.7,131.6,12.3,239.9,5189.2,5189,168.3,0,1,1,0,1,1,0,0,0,100,1,1.186,26.0,0.0,-0.024,50.194,66.0,84.0,26.0,26.0,26.0,26.0,0.25,-1.50,-0.02,377.9,-3.57,-2.79,-1.28,-0.82,-718.76,611.20,5.7,0.00,0.00,0.00,0.00,0.05,-7.49,-7.49,-0.23,1.13,0.22,-0.60,46.70,0.11,-0.78,-2.28,100.0,0,0,128.44,0,0,0.0,0,0,0,0,6851,0,30.00,4,168.3,0,0,0.0,0.0,0.0,0.0,1,0,1.686,1.686,50.194,17.865,0,110.00,435.8,8750,0.0,0.0,110.0,110.0,433.0,0.00,0,0,1,333.3,55.9,55.9,75.7,75.7,34.0,-1.0,48.94,-3.8,22.9,3,-186.015,-6.4,100.0,29.5,35.1,25.8,34.2,0,1,0.0,0.00,0.00,0.00,0.00,4226,6791,3268,4520,314.6,306.4,348.0,342.7,25.28,22.87,26.19,24.75,325.0,325.0,355.0,355.0,100.00,99.85,100.00,100.00,0.36,0.44,0.07,0.28,-5.6,-3.3,-2.5,-1.7,84.0,68.9,83.5,74.5,87.2,68.6,86.4,75.7,83.7,65.6,84.7,73.3,81.0,64.2,83.8,72.2,-0.33,0.35,0.08,0.06,0.00,134.84,138.33,128.04,128.85,174.7,27.6,1.5208221460775746,164.5664818806747,47.17332415530035,-54.015256329737724,-10.803051550459415
1.700,83.4,44.053894348103825,-78.681763961737531,-18.6,-117.9,102.0,38.7,5191.5,5192,165.3,0,1,1,0,1,1,0,0,0,100,1,1.186,26.0,0.0,-0.024,50.194,66.0,94.5,26.0,26.0,26.0,26.0,0.20,-1.56,-0.11,380.5,-2.91,-2.56,-2.25,-1.76,-718.11,608.94,5.7,0.00,0.00,0.00,0.00,0.05,-7.49,-7.49,-0.34,-4.19,0.14,0.12,45.87,0.14,-0.89,-3.47,100.0,0,0,124.85,0,0,0.0,0,0,0,0,6660,0,30.00,4,165.3,1,0,0.0,0.0,0.0,0.0,1,0,1.737,1.737,50.194,17.865,1,110.00,435.8,8750,0.0,0.0,110.0,110.0,433.0,0.00,0,0,1,333.3,61.2,61.2,78.9,78.9,34.0,1.9,6.99,-1.4,22.1,3,-186.065,-8.7,100.0,28.6,29.2,30.9,36.2,0,1,0.0,0.00,0.00,0.00,0.00,3966,5719,1444,3455,314.8,309.6,351.4,345.7,25.28,22.87,26.19,24.75,325.0,325.0,355.0,355.0,100.00,99.85,100.00,100.00,0.52,0.61,0.20,0.35,-6.5,-8.0,-3.3,-2.3,84.0,68.9,83.5,74.5,87.2,68.7,86.4,75.7,83.7,65.7,84.6,73.3,81.0,64.2,83.7,72.2,-0.49,0.50,0.07,0.05,0.00,130.36,129.47,123.93,125.77,174.7,27.6,1.5766102879278698,157.00434596606016,45.37281554458964,-104.42949623468877,-18.005086107107076
1.750,85.6,44.053875462350099,-78.681758475875739,-22.0,34.1,-107.1,-236.8,5193.8,5194,162.3,0,1,1,0,1,1,0,0,0,100,1,1.186,26.0,0.0,-0.024,50.194,66.0,96.3,26.0,26.0,26.0,26.0,0.21,-1.76,-0.19,383.8,-2.80,-3.71,-1.78,-1.40,-717.50,606.84,5.8,0.00,0.00,0.00,0.00,0.05,-7.49,-7.49,-0.50,-2.62,0.00,-0.88,45.02,0.19,-0.94,-5.21,100.0,0,0,121.07,0,0,0.0,0,0,0,0,6458,0,30.00,4,162.3,0,0,0.0,0.0,0.0,0.0,1,0,1.784,1.784,50.194,17.865,0,110.00,435.8,8750,0.0,0.0,110.0,110.0,433.0,0.00,0,0,1,333.3,59.2,59.2,81.7,81.7,34.0,-0.4,18.80,0.6,5.0,3,-186.115,-9.0,100.0,27.5,30.9,25.6,24.3,0,1,0.0,0.00,0.00,0.00,0.00,5910,5247,2848,2022,310.5,310.3,347.9,350.1,25.28,22.87,26.19,24.75,325.0,325.0,355.0,355.0,100.00,99.85,100.00,100.00,0.52,0.64,0.29,0.47,-10.7,-6.3,-2.9,-5.5,84.0,68.9,83.5,74.5,87.3,68.8,86.3,75.7,83.8,65.8,84.6,73.3,81.1,64.3,83.7,72.1,-0.50,0.52,0.09,0.08,0.00,123.37,129.02,122.25,119.89,174.7,27.6,1.7826384939184947,154.12353225720582,45.37281554458964,-14.404068828783636,7.202034556647519
1.800,87.8,44.053855857139091,-78.681752630285303,0.6,-83.2,-118.5,26.4,5196.0,5196,159.2,1,1,1,0,1,1,0,0,0,100,1,1.186,26.0,0.0,-0.024,50.194,66.0,96.3,26.0,26.0,26.0,26.0,0.20,-1.55,-0.26,387.5,-2.44,-2.08,-1.71,-1.25,-716.85,604.66,5.8,0.00,0.00,0.00,0.00,0.05,-7.49,-7.49,-0.60,-2.79,0.08,1.30,44.17,0.29,-0.91,-5.00,100.0,0,0,118.59,0,0,0.0,0,0,0,0,6325,0,30.00,4,159.2,1,0,0.0,0.0,0.0,0.0,1,0,1.836,1.836,50.194,17.865,1,110.00,435.8,8750,0.0,0.0,110.0,110.0,433.0,0.00,0,0,1,333.3,65.6,65.6,90.8,90.8,34.0,-0.5,3.10,0.9,21.5,3,-186.165,-9.4,100.0,27.5,26.7,19.7,25.7,0,1,0.0,0.00,0.00,0.00,0.00,3662,4301,2067,3156,315.6,314.2,349.6,346.6,25.28,22.87,26.19,24.75,325.0,325.0,355.0,355.0,100.00,99.86,100.00,100.00,0.70,0.78,0.38,0.62,-13.7,-8.5,-5.6,-3.1,84.0,68.9,83.5,74.5,87.5,68.9,86.3,75.7,83.9,65.9,84.6,73.3,81.2,64.5,83.6,72.1,-0.54,0.52,0.11,0.08,0.00,120.10,123.09,117.10,120.08,174.7,27.6,1.5843295111813074,155.5639390831818,46.093019000254394,-61.21729088638574,-14.404067975247727
1.850,90.0,44.053836611656727,-78.681746964559181,-116.6,-22.8,8.7,-65.0,5198.1,5198,156.4,0,1,1,0,1,1,0,0,0,100,1,1.186,26.0,0.0,-0.024,50.194,66.0,91.8,26.0,26.0,26.0,26.0,0.25,-1.53,-0.27,389.9,-2.31,-2.99,-1.15,-1.84,-716.22,602.52,5.8,0.00,0.00,0.00,0.00,0.05,-7.49,-7.49,-0.80,-4.94,0.09,-0.04,43.39,0.35,-0.88,-4.54,100.0,0,0,116.01,0,0,0.0,0,0,0,0,6188,0,30.00,4,156.4,0,0,0.0,0.0,0.0,0.0,0,0,1.887,1.887,50.194,17.865,0,110.00,435.8,8750,0.0,0.0,110.0,110.0,433.0,0.00,0,0,1,333.3,67.4,67.4,87.2,87.2,34.0,-0.3,1.97,3.4,5.1,3,-186.215,-10.7,100.0,21.7,25.6,20.1,22.4,0,1,0.0,0.00,0.00,0.00,0.00,4139,5280,1944,1285,314.8,311.0,350.0,351.3,25.28,22.87,26.19,24.75,325.0,325.0,355.0,355.0,100.00,99.86,100.00,100.00,0.86,0.97,0.49,0.70,-10.0,-9.1,-4.2,-4.9,84.0,68.9,83.4,74.4,87.5,69.1,86.3,75.7,84.0,66.1,84.5,73.3,81.2,64.6,83.6,72.1,-0.61,0.60,0.10,0.09,0.00,118.99,120.85,116.36,115.66,174.7,27.6,1.5736263851372092,148.00180316856725,43.93240874706487,-104.42949595017637,-21.606102531895246
1.900,92.1,44.053818895021088,-78.681741658561705,169.6,123.7,-117.0,-47.4,5200.3,5200,153.4,0,1,1,0,1,1,0,0,0,100,1,1.186,26.0,0.0,-0.024,50.194,66.0,73.4,26.0,26.0,26.0,26.0,0.56,-1.55,0.04,384.8,-2.69,-3.11,-2.26,-1.43,-715.63,600.55,5.8,0.00,0.00,0.00,0.00,0.06,-7.49,-7.49,-0.91,1.13,0.17,2.43,42.57,0.38,-0.90,-6.76,100.0,0,0,111.97,0,0,0.0,0,0,0,0,5972,0,30.00,4,153.4,1,0,0.0,0.0,0.0,0.0,0,0,1.936,1.936,50.194,17.865,1,110.00,435.8,8750,0.0,0.0,110.0,110.0,433.0,0.00,0,0,1,333.3,52.3,52.3,96.5,96.5,34.0,29.8,96.70,0.0,22.8,3,-186.265,-11.4,100.0,30.1,31.8,14.3,20.0,0,1,0.0,0.00,0.00,0.00,0.00,6443,8053,0,2786,308.8,303.3,354.5,347.5,25.28,22.87,26.19,24.75,325.0,325.0,355.0,355.0,100.00,99.86,100.00,100.00,0.85,1.06,0.00,0.81,-3.1,-3.4,0.0,-3.0,84.0,68.9,83.4,74.4,87.6,69.2,86.2,75.6,84.0,66.2,84.5,73.3,81.3,64.7,83.6,72.1,-0.64,0.66,0.12,0.10,0.00,127.14,127.69,107.14,116.80,174.7,27.6,1.6485448128576912,145.12098948816416,43.93240874706487,-7.20203427213562,18.00508553808335
1.950,94.2,44.053800368996008,-78.681735992835584,-34.3,105.6,156.0,127.1,5202.4,5202,151.0,0,1,1,0,1,1,0,0,0,100,1,1.186,26.0,0.0,-0.021,50.194,66.0,35.9,26.0,26.0,26.0,26.0,0.70,-1.14,0.14,378.1,-4.38,-3.10,-1.39,-1.08,-715.00,598.49,5.8,0.00,0.00,0.00,0.00,0.06,-7.49,-7.49,-0.60,7.10,0.21,-0.44,41.91,0.43,-0.71,-10.66,100.0,0,0,116.84,0,0,0.0,0,0,0,0,6232,0,30.00,4,151.0,0,0,0.0,0.0,0.0,0.0,0,0,1.986,1.986,50.194,17.865,0,110.00,435.8,8750,0.0,0.0,110.0,110.0,433.0,0.00,0,0,1,333.3,55.0,55.0,73.4,73.4,34.0,10.0,104.49,26.6,68.2,3,-186.315,-9.9,100.0,28.4,37.0,22.1,26.4,0,1,0.0,0.00,0.00,0.00,0.00,4448,7074,4264,4930,313.8,305.3,344.3,341.9,25.28,22.87,26.19,24.75,325.0,325.0,355.0,355.0,100.00,99.86,100.00,100.00,0.74,0.90,0.76,1.06,-1.8,-1.4,-1.7,-1.4,84.0,68.9,83.4,74.4,87.6,69.2,86.2,75.6,84.0,66.2,84.5,73.3,81.3,64.7,83.5,72.1,-0.57,0.61,0.09,0.08,0.00,126.52,127.81,116.71,116.96,174.7,27.6,1.3450650541888298,147.2815997413537,45.732917300873204,-39.61118835449071,10.803050981435831
2.000,96.3,44.053782112767408,-78.681730237177305,-244.7,-157.9,143.5,269.5,5204.4,5204,149.8,0,1,1,0,1,1,0,0,0,100,1,1.186,26.0,0.0,-0.018,50.194,66.0,26.0,26.0,26.0,26.0,26.0,0.63,-0.59,-0.19,381.7,-3.59,-2.32,-2.94,-1.07,-714.36,596.46,5.9,0.00,0.00,0.00,0.00,0.06,-7.49,-7.49,-0.34,1.78,0.14,-6.23,41.59,0.45,-0.52,-8.39,100.0,0,0,116.12,0,0,0.0,0,0,0,0,6194,0,30.00,4,149.8,1,0,0.0,0.0,0.0,0.0,0,0,2.037,2.037,50.194,17.865,1,110.00,435.8,8750,0.0,0.0,110.0,110.0,433.0,0.00,0,0,1,333.3,72.5,72.5,65.4,65.4,34.0,3.6,68.13,17.3,78.7,3,-186.370,-9.0,100.0,16.2,29.1,29.2,39.9,0,1,0.0,0.00,0.00,0.00,0.00,1402,5123,3740,5458,321.7,310.9,346.0,340.9,25.28,22.87,26.19,24.75,325.0,325.0,355.0,355.0,100.00,99.86,100.00,100.00,0.89,0.91,0.86,1.02,-3.2,-1.1,-0.7,-0.8,84.0,68.9,83.4,74.4,87.6,69.2,86.2,75.6,84.0,66.2,84.4,73.3,81.3,64.7,83.5,72.1,-0.52,0.51,0.08,0.05,0.00,123.13,126.53,115.94,116.30,174.7,27.6,0.8837986195961159,141.15987065271509,45.01271384520845,-32.40915379784269,10.803050981435831
2.050,98.4,44.053765115589059,-78.681724751315514,8.4,-45.0,38.4,-61.8,5206.5,5207,148.7,0,1,1,0,1,1,0,0,0,100,1,1.186,26.0,0.0,-0.021,50.194,66.0,28.2,26.0,26.0,26.0,26.0,0.56,-0.60,-0.14,383.6,-2.77,-3.11,-2.31,-1.82,-713.75,594.57,5.9,0.00,0.00,0.00,0.00,0.06,-7.49,-7.49,-0.41,-2.70,-0.24,-7.13,41.29,0.42,-0.53,-7.71,100.0,0,0,114.72,0,0,0.0,0,0,0,0,6119,0,30.00,4,148.7,0,0,0.0,0.0,0.0,0.0,0,0,2.084,2.084,50.194,17.865,0,110.00,435.8,8750,0.0,0.0,110.0,110.0,433.0,0.00,0,0,1,333.3,70.3,70.3,71.0,71.0,34.0,17.6,69.37,11.0,38.0,3,-186.415,-9.4,100.0,16.6,26.9,31.1,36.8,0,1,0.0,0.00,0.00,0.00,0.00,3332,4933,2294,3184,316.6,311.0,349.5,347.3,25.28,22.87,26.19,24.75,325.0,325.0,355.0,355.0,100.00,99.86,100.00,100.00,0.86,0.94,0.84,0.95,-1.4,-1.3,-0.9,-1.3,84.0,68.9,83.4,74.4,87.5,69.3,86.1,75.6,83.9,66.3,84.4,73.2,81.2,64.8,83.5,72.1,-0.53,0.54,0.07,0.06,0.00,124.54,125.25,114.52,114.92,174.7,27.6,0.8325863318599459,144.04068436156942,46.81322239901679,14.404068544271524,25.20712009473094
2.100,100.4,44.053746139903168,-78.681718545996432,168.8,50.8,-122.4,-66.8,5208.6,5209,147.4,0,1,1,0,1,1,0,0,0,100,1,1.186,26.0,0.0,-0.021,50.194,66.0,31.4,26.0,26.0,26.0,26.0,0.66,-0.68,0.11,380.7,-3.04,-2.43,-2.04,-2.11,-713.06,592.46,5.9,0.00,0.00,0.00,0.00,0.06,-7.49,-7.49,-0.47,1.24,-0.38,0.08,40.93,0.40,-0.53,-8.87,100.0,0,0,113.94,0,0,0.0,0,0,0,0,6078,0,30.00,4,147.4,1,0,0.0,0.0,0.0,0.0,0,0,2.139,2.139,50.194,17.865,1,110.00,435.8,8750,0.0,0.0,110.0,110.0,433.0,0.00,0,0,1,166.7,62.9,62.9,78.2,78.2,34.0,20.6,63.85,16.8,63.4,3,-186.465,-10.4,100.0,25.1,29.4,25.0,33.4,0,1,0.0,0.00,0.00,0.00,0.00,4018,4799,3519,4475,314.1,310.9,346.9,343.5,25.28,22.87,26.19,24.75,325.0,325.0,355.0,355.0,100.00,99.86,100.00,100.00,0.82,0.89,0.74,0.93,-1.2,-1.2,-0.9,-1.0,84.0,68.9,83.4,74.4,87.5,69.3,86.1,75.6,83.9,66.3,84.3,73.2,81.2,64.8,83.4,72.1,-0.59,0.61,0.10,0.05,0.00,123.49,124.18,113.74,114.13,174.7,27.6,0.9539916142189092,142.60027750714224,47.533425854681546,-111.6315305068241,-10.803051550459486
2.150,102.4,44.053729502453464,-78.681712880270311,-77.0,-95.5,48.9,27.9,5210.6,5211,146.2,0,1,1,0,1,1,0,0,0,100,1,1.186,26.0,0.0,-0.021,50.194,66.0,32.4,26.0,26.0,26.0,26.0,0.60,-0.77,-0.11,382.2,-1.92,-2.60,-1.62,-2.14,-712.43,590.61,5.9,0.00,0.00,0.00,0.00,0.06,-7.49,-7.49,-0.50,-2.61,-0.12,9.10,40.59,0.40,-0.51,-7.47,100.0,0,0,113.20,0,0,0.0,0,0,0,0,6038,0,30.00,4,146.2,0,0,0.0,0.0,0.0,0.0,0,0,2.187,2.187,50.194,17.865,0,110.00,435.8,8750,0.0,0.0,110.0,110.0,433.0,0.00,0,0,1,333.3,71.8,71.8,73.0,73.0,34.0,9.9,48.55,19.5,100.4,3,-186.515,-11.3,100.0,21.2,24.7,27.5,34.8,0,1,0.0,0.00,0.00,0.00,0.00,2029,4162,4124,6544,319.7,313.6,344.5,338.6,25.28,22.87,26.19,24.75,325.0,325.0,355.0,355.0,100.00,99.86,100.00,100.00,0.87,0.89,0.61,0.87,-2.5,-1.9,-0.7,-0.8,84.0,68.9,83.4,74.4,87.4,69.3,86.0,75.6,83.9,66.3,84.3,73.2,81.1,64.8,83.4,72.1,-0.63,0.64,0.08,0.06,0.00,120.77,122.63,112.97,113.43,174.7,27.6,0.982344135219425,132.877531310887,45.73291724397084,-68.4193248740101,-5.690237259159403e-07
2.200,104.5,44.053712954935911,-78.681707124612046,-76.6,32.7,-25.2,16.2,5212.6,5213,145.0,0,1,1,0,1,1,0,0,0,100,1,1.186,26.0,0.0,-0.024,50.194,66.0,31.4,26.0,26.0,26.0,26.0,0.59,-0.66,-0.04,384.3,-3.09,-1.96,-1.85,-1.79,-711.79,588.77,5.9,0.00,0.00,0.00,0.00,0.06,-7.49,-7.49,-0.78,-6.13,0.06,0.72,40.25,0.37,-0.66,-8.08,100.0,0,0,111.72,0,0,0.0,0,0,0,0,5959,0,30.00,4,145.0,1,0,0.0,0.0,0.0,0.0,0,0,2.234,2.234,50.194,17.865,1,110.00,435.8,8750,0.0,0.0,110.0,110.0,433.0,0.00,0,0,1,333.3,68.7,68.7,77.9,77.9,34.0,16.9,78.62,5.1,42.0,3,-186.565,-11.5,100.0,17.4,26.3,26.2,35.6,0,1,0.0,0.00,0.00,0.00,0.00,3473,5823,1257,3461,316.0,309.0,351.1,345.9,25.28,22.87,26.19,24.75,325.0,325.0,355.0,355.0,100.00,99.86,100.00,100.00,0.85,0.97,0.71,0.84,-1.5,-1.3,-1.0,-1.1,84.0,68.9,83.4,74.4,87.4,69.3,86.0,75.6,83.8,66.3,84.2,73.2,81.1,64.8,83.3,72.0,-0.66,0.67,0.10,0.07,0.00,121.32,122.05,111.23,112.21,174.7,27.6,0.886171540955813,135.75834501974123,47.533425797779174,90.02542769041668,54.015257183273775
2.250,106.5,44.053695598028916,-78.681701009225122,211.4,198.7,-208.3,-129.6,5214.6,5215,143.8,0,1,1,0,1,1,0,0,0,100,1,1.186,26.0,0.0,-0.027,50.194,66.0,19.7,26.0,26.0,26.0,26.0,0.72,-0.68,0.09,380.3,-1.73,-1.76,-1.42,-0.89,-711.11,586.84,5.9,0.00,0.00,0.00,0.00,0.06,-7.49,-7.49,-0.82,5.36,-0.00,-3.55,39.92,0.41,-0.67,-11.79,100.0,0,0,111.02,0,0,0.0,0,0,0,0,5922,0,30.00,4,143.8,0,0,0.0,0.0,0.0,0.0,0,0,2.286,2.286,50.194,17.865,0,110.00,435.8,8750,0.0,0.0,110.0,110.0,433.0,0.00,0,0,1,333.3,53.7,53.7,85.0,85.0,34.0,29.4,111.93,10.6,56.9,3,-186.615,-10.4,100.0,27.9,36.2,15.8,29.2,0,1,0.0,0.00,0.00,0.00,0.00,4562,7769,1806,4300,313.1,303.6,350.4,344.1,25.28,22.87,26.19,24.75,325.0,325.0,355.0,355.0,100.00,99.86,100.00,100.00,0.74,0.92,0.90,1.09,-0.8,-0.7,-1.7,-1.2,84.0,68.9,83.4,74.4,87.4,69.3,85.9,75.5,83.8,66.3,84.2,73.2,81.1,64.8,83.2,72.0,-0.60,0.63,0.10,0.08,0.00,121.33,122.61,110.35,111.69,174.7,27.6,0.99443451267542,141.88007407992868,51.134442962298216,10.803050981436115,28.808137088542907
2.300,108.4,44.053677521664639,-78.681694354245238,-109.5,-9.6,297.0,136.9,5216.6,5217,143.0,0,1,1,0,1,1,0,0,0,100,1,1.186,26.0,0.0,-0.027,50.194,66.0,6.4,26.0,26.0,26.0,26.0,0.81,-0.27,0.18,375.9,-3.48,-1.71,-1.54,-1.95,-710.37,584.83,5.9,0.00,0.00,0.00,0.00,0.07,-7.49,-7.49,-0.40,7.78,-0.20,-4.07,39.70,0.44,-0.45,-10.26,100.0,0,0,111.42,0,0,0.0,0,0,0,0,5943,0,30.00,4,143.0,1,0,0.0,0.0,0.0,0.0,0,0,2.340,2.340,50.194,17.865,1,110.00,435.8,8750,0.0,0.0,110.0,110.0,433.0,0.00,0,0,1,166.7,62.8,62.8,62.6,62.6,34.0,13.3,68.44,40.2,108.9,3,-186.670,-8.4,100.0,22.5,35.8,30.6,36.0,0,1,0.0,0.00,0.00,0.00,0.00,3552,5504,4749,6213,316.2,310.5,343.2,338.8,25.28,22.87,26.19,24.75,325.0,325.0,355.0,355.0,100.00,99.86,100.00,100.00,0.75,0.83,0.90,1.15,-0.4,-0.2,-0.2,-0.4,84.0,69.0,83.4,74.4,87.3,69.3,85.9,75.5,83.8,66.3,84.1,73.2,81.0,64.8,83.2,72.0,-0.50,0.51,0.07,0.06,0.00,121.39,122.20,111.07,111.77,174.7,27.6,0.8725823743349392,136.83865011788484,50.414239506633464,-140.43966731085504,-25.20712009473094
2.350,110.4,44.053661423807895,-78.681688418722644,11.0,5.5,150.9,191.5,5218.6,5219,142.5,0,1,1,0,1,1,0,0,0,100,1,1.186,26.0,0.0,-0.030,50.194,66.0,4.6,26.0,26.0,26.0,26.0,0.72,-0.26,0.43,371.2,-4.28,-2.50,-2.10,-1.15,-709.71,583.04,5.9,0.00,0.00,0.00,0.00,0.07,-7.49,-7.49,-0.08,6.09,-0.36,-5.27,39.57,0.35,-0.41,-7.98,100.0,0,0,111.11,0,0,0.0,0,0,0,0,5927,0,30.00,4,142.5,0,0,0.0,0.0,0.0,0.0,1,0,2.388,2.388,50.194,17.865,0,110.00,435.8,8750,0.0,0.0,110.0,110.0,433.0,0.00,0,0,1,166.7,59.4,59.4,55.9,55.9,34.0,7.7,103.56,18.9,87.9,3,-186.715,-8.1,100.0,23.0,36.0,38.2,45.6,0,1,0.0,0.00,0.00,0.00,0.00,3511,7290,3244,6137,315.9,305.1,346.4,339.0,25.28,22.87,26.19,24.75,325.0,325.0,355.0,355.0,100.00,99.86,100.00,100.00,0.69,0.80,0.80,0.90,-0.3,-0.2,-0.2,-0.4,84.0,69.0,83.4,74.4,87.3,69.4,85.8,75.5,83.7,66.3,84.1,73.2,81.0,64.8,83.2,72.0,-0.46,0.50,0.06,0.03,0.00,121.12,121.82,110.91,111.32,174.7,27.6,0.8780091115700337,127.83610734884317,48.61373095282512,-57.61627360806159,7.202034556647519
2.400,112.4,44.053645595747632,-78.681682213403562,-83.8,-159.8,55.9,6.1,5220.5,5221,142.1,0,1,1,0,1,1,0,0,0,100,1,1.186,26.0,0.0,-0.033,50.194,66.0,2.3,26.0,26.0,26.0,26.0,0.64,-0.19,0.17,376.0,-3.05,-2.45,-1.57,-1.71,-709.02,581.28,5.9,0.00,0.00,0.00,0.00,0.07,-7.49,-7.49,0.13,1.38,-0.84,-9.23,39.47,0.28,-0.32,-5.74,100.0,0,0,110.70,0,0,0.0,0,0,0,0,5905,0,30.00,4,142.1,1,0,0.0,0.0,0.0,0.0,1,0,2.436,2.436,50.194,17.865,1,110.00,435.8,8750,0.0,0.0,110.0,110.0,433.0,0.00,0,0,1,166.7,72.3,72.3,55.5,55.5,34.0,10.5,39.81,28.9,88.0,3,-186.765,-9.0,100.0,18.8,28.0,41.0,45.9,0,1,0.0,0.00,0.00,0.00,0.00,2360,3370,5019,6242,318.8,315.5,342.3,338.9,25.28,22.87,26.19,24.75,325.0,325.0,355.0,355.0,100.00,99.86,100.00,100.00,0.79,0.79,0.66,0.77,-0.1,-0.1,-0.1,-0.3,84.0,69.0,83.4,74.4,87.2,69.4,85.8,75.5,83.7,66.3,84.1,73.2,80.9,64.8,83.1,72.0,-0.50,0.51,0.06,0.04,0.00,120.76,121.15,110.51,110.89,174.7,27.6,0.6889121859859935,131.07702275707868,51.134442962298216,68.41932515852164,46.813222626626185
2.450,114.4,44.053628688501441,-78.681675648355835,-45.2,-203.9,-59.0,-43.1,5222.5,5223,141.8,0,1,1,0,1,1,0,0,0,100,1,1.186,26.0,0.0,-0.039,50.194,66.0,4.6,26.0,26.0,26.0,26.0,0.57,-0.25,-0.15,381.6,-2.26,-4.05,-2.12,-1.60,-708.29,579.40,6.0,0.00,0.00,0.00,0.00,0.07,-7.49,-7.49,-0.09,-7.38,-1.13,-2.55,39.37,0.18,-0.41,-4.24,100.0,0,0,110.10,0,0,0.0,0,0,0,0,5873,0,30.00,4,141.8,0,0,0.0,0.0,0.0,0.0,1,0,2.487,2.487,50.194,17.865,0,110.00,435.8,8750,0.0,0.0,110.0,110.0,433.0,0.00,0,0,1,166.7,75.8,75.8,67.4,67.4,34.0,18.7,65.50,2.9,41.9,3,-186.815,-12.2,100.0,16.6,17.8,38.0,43.7,0,1,0.0,0.00,0.00,0.00,0.00,3239,4463,3521,4296,317.0,312.6,346.8,343.8,25.27,22.87,26.19,24.75,325.0,325.0,355.0,355.0,100.00,99.86,100.00,100.00,0.79,0.89,0.39,0.49,-0.2,-0.3,-0.2,-0.4,84.0,69.0,83.4,74.4,87.2,69.3,85.7,75.5,83.6,66.3,84.0,73.2,80.9,64.8,83.1,72.0,-0.68,0.68,0.06,0.03,0.00,120.08,120.49,110.01,110.19,174.7,27.6,0.6402343321003646,134.67803986469534,53.29505321548774,21.60610281640686,28.80813651951918
2.500,116.3,44.053611961119572,-78.681668903443793,100.3,120.3,-206.1,-307.5,5224.5,5224,141.2,0,1,1,0,1,1,0,0,0,100,1,1.186,26.0,0.0,-0.039,50.194,66.0,18.9,26.0,26.0,26.0,26.0,0.45,-0.42,-0.20,386.9,-1.98,-2.56,-1.87,-1.46,-707.54,577.54,6.0,0.00,0.00,0.00,0.00,0.07,-7.49,-7.49,-0.37,-2.14,-1.06,5.36,39.20,0.17,-0.53,-8.25,100.0,0,0,109.25,0,0,0.0,0,0,0,0,5828,0,30.00,4,141.2,1,0,0.0,0.0,0.0,0.0,1,0,2.538,2.538,50.194,17.865,1,110.00,435.8,8750,0.0,0.0,110.0,110.0,433.0,0.00,0,0,1,166.7,70.2,70.2,78.1,78.1,34.0,14.8,61.30,2.7,21.1,3,-186.865,-17.0,100.0,21.6,23.9,27.7,28.4,0,1,0.0,0.00,0.00,0.00,0.00,2356,4636,2315,2685,318.0,312.0,349.3,348.3,25.27,22.87,26.19,24.75,325.0,325.0,355.0,355.0,100.00,99.86,100.00,100.00,0.82,0.87,0.39,0.51,-0.8,-0.8,-0.7,-1.1,84.0,68.9,83.4,74.4,87.1,69.3,85.7,75.5,83.6,66.3,83.9,73.1,80.9,64.8,83.0,72.0,-0.95,0.94,0.08,0.07,0.00,118.52,119.46,109.10,109.40,174.7,27.6,0.6472248450113763,133.23763303871937,54.015256614250134,-28.80813680403122,10.803051550459557
2.550,118.3,44.053595413602018,-78.681662158531751,-92.9,-4.9,-57.7,88.6,5226.4,5226,140.1,0,1,1,0,1,1,0,0,0,100,1,1.186,26.0,0.0,-0.042,50.194,66.0,33.3,26.0,26.0,26.0,26.0,0.60,-0.74,-0.12,385.3,-3.54,-2.31,-1.33,-0.85,-706.79,575.70,6.0,0.00,0.00,0.00,0.00,0.07,-7.49,-7.49,-0.54,-4.89,-0.90,0.05,38.90,0.21,-0.52,-9.26,100.0,0,0,108.20,0,0,0.0,0,0,0,0,5771,0,30.00,4,140.1,0,0,0.0,0.0,0.0,0.0,1,0,2.589,2.589,50.194,17.865,0,110.00,435.8,8750,0.0,0.0,110.0,110.0,433.0,0.00,0,0,1,166.7,72.3,72.3,76.4,76.4,34.0,14.6,71.83,10.4,49.2,3,-186.920,-20.7,100.0,16.9,23.6,24.8,32.8,0,1,0.0,0.00,0.00,0.00,0.00,3168,5031,3138,4695,317.8,311.0,347.4,342.7,25.27,22.87,26.19,24.75,325.0,325.0,355.0,355.0,100.00,99.86,100.00,100.00,1.06,1.15,0.49,0.69,-2.7,-1.6,-0.9,-0.9,84.0,68.9,83.4,74.4,87.1,69.3,85.6,75.5,83.5,66.3,83.9,73.1,80.8,64.8,83.0,71.9,-1.16,1.16,0.09,0.07,0.00,116.09,117.72,107.86,108.53,174.7,27.6,0.9602083107326242,131.7972261842922,54.3753583705337,-104.42949623468806,-21.60610196287159
2.600,120.2,44.053579045948794,-78.681655323687536,153.1,39.6,-124.4,-34.7,5228.3,5228,138.7,0,1,1,0,1,1,0,0,0,100,1,1.186,26.0,0.0,-0.042,50.194,66.0,41.8,26.0,26.0,26.0,26.0,0.70,-0.93,-0.11,384.1,-2.97,-2.12,-2.30,-1.15,-706.03,573.88,6.0,0.00,0.00,0.00,0.00,0.07,-7.49,-7.49,-0.77,-1.74,-0.77,4.91,38.50,0.28,-0.64,-13.70,100.0,0,0,106.36,0,0,0.0,0,0,0,0,5673,0,30.00,4,138.7,1,0,0.0,0.0,0.0,0.0,1,0,2.640,2.640,50.194,17.865,1,110.00,435.8,8750,0.0,0.0,110.0,110.0,433.0,0.00,0,0,1,166.7,62.1,62.1,91.7,91.7,34.0,45.5,85.51,3.7,44.9,3,-186.970,-23.7,100.0,24.6,25.6,18.6,31.1,0,1,0.0,0.00,0.00,0.00,0.00,5682,5855,1399,3832,310.8,308.8,351.6,344.9,25.27,22.87,26.19,24.75,325.0,325.0,355.0,355.0,100.00,99.86,100.00,100.00,1.13,1.26,0.72,0.88,-1.6,-1.9,-2.2,-1.3,84.0,68.9,83.4,74.4,87.1,69.4,85.6,75.4,83.5,66.3,83.8,73.1,80.8,64.8,82.9,71.9,-1.35,1.34,0.10,0.06,0.00,115.77,116.48,105.29,107.43,174.7,27.6,1.1691877522451217,122.79468341525056,51.854646417962975,-111.63153022231171,-21.606103100919043
2.650,122.1,44.053564746735255,-78.681649208300612,-3.7,61.0,-12.7,11.2,5230.3,5230,137.2,0,1,1,0,1,1,0,0,0,100,1,1.186,26.0,0.0,-0.048,50.194,66.0,48.3,26.0,26.0,26.0,26.0,0.83,-0.97,-0.03,383.8,-3.36,-2.70,-2.05,-1.40,-705.35,572.29,6.0,0.00,0.00,0.00,0.00,0.07,-7.49,-7.49,-0.74,1.23,-0.46,6.96,38.09,0.41,-0.61,-16.67,100.0,0,0,105.57,0,0,0.0,0,0,0,0,5631,0,30.00,4,137.2,0,0,0.0,0.0,0.0,0.0,1,0,2.686,2.686,50.194,17.865,0,110.00,435.8,8750,0.0,0.0,110.0,110.0,433.0,0.00,0,0,1,333.3,63.6,63.6,84.3,84.3,34.0,22.8,94.37,16.2,53.7,3,-187.015,-26.7,100.0,24.4,28.6,18.0,31.6,0,1,0.0,0.00,0.00,0.00,0.00,3344,6070,2610,3829,316.4,308.4,348.5,344.9,25.27,22.87,26.19,24.75,325.0,325.0,355.0,355.0,100.00,99.86,100.00,100.00,1.42,1.48,0.95,1.18,-3.1,-2.2,-1.4,-1.4,84.0,68.9,83.4,74.4,87.0,69.4,85.5,75.4,83.5,66.4,83.8,73.1,80.8,64.9,82.9,71.9,-1.52,1.52,0.11,0.07,0.00,112.52,114.96,104.99,106.14,174.7,27.6,1.2769886452118515,120.63407316206104,52.21474806044179,32.40915379784269,39.61118750095501
2.700,124.0,44.053548918674991,-78.681642283524255,-167.6,16.5,128.0,53.0,5232.1,5232,135.6,0,1,1,0,1,1,0,0,0,100,1,1.186,26.0,0.0,-0.048,50.194,66.0,52.7,26.0,26.0,26.0,26.0,0.75,-0.76,-0.15,385.6,-2.80,-2.02,-3.42,-0.36,-704.58,570.53,6.0,0.00,0.00,0.00,0.00,0.07,-7.49,-7.49,-0.76,-2.91,-0.20,1.94,37.62,0.55,-0.60,-16.13,100.0,0,0,104.05,0,0,0.0,0,0,0,0,5550,0,30.00,4,135.6,1,0,0.0,0.0,0.0,0.0,1,0,2.736,2.736,50.194,17.865,1,110.00,435.8,8750,0.0,0.0,110.0,110.0,433.0,0.00,0,0,1,333.3,73.3,73.3,72.3,72.3,34.0,-0.3,60.77,18.9,64.9,3,-187.065,-31.1,100.0,16.0,29.5,24.4,34.3,0,1,0.0,0.00,0.00,0.00,0.00,734,4610,2829,4443,322.9,312.1,348.0,343.9,25.27,22.87,26.19,24.75,325.0,325.0,355.0,355.0,100.00,99.86,100.00,100.00,1.97,1.91,1.26,1.45,-11.2,-3.1,-1.4,-1.4,83.9,68.9,83.4,74.4,87.0,69.4,85.5,75.4,83.5,66.4,83.7,73.1,80.8,64.9,82.8,71.9,-1.78,1.75,0.09,0.06,0.00,100.23,112.03,103.43,104.67,174.7,27.6,1.0782393055347221,126.03559879503483,55.815765168058476,-2.845119695393805e-07,28.808137088542836
2.750,125.9,44.053533270479051,-78.681635268815725,-92.4,-119.9,-99.0,-8.4,5234.0,5234,134.1,0,1,1,0,1,1,0,0,0,100,1,1.186,26.0,0.0,-0.048,50.194,66.0,58.0,26.0,26.0,26.0,26.0,0.81,-1.07,-0.27,389.0,-2.90,-2.37,-2.27,-0.54,-703.80,568.79,6.0,0.00,0.00,0.00,0.00,0.08,-7.49,-7.49,-1.05,-7.91,-0.46,-9.69,37.19,0.64,-0.61,-12.55,100.0,0,0,101.76,0,0,0.0,0,0,0,0,5428,0,30.00,4,134.1,0,0,0.0,0.0,0.0,0.0,1,0,2.787,2.787,50.194,17.865,0,110.00,435.8,8750,0.0,0.0,110.0,110.0,433.0,0.00,0,0,1,333.3,75.3,75.3,83.9,83.9,34.0,-2.4,41.38,7.9,59.1,3,-187.115,-35.6,100.0,11.4,23.5,19.4,33.8,0,1,0.0,0.00,0.00,0.00,0.00,3316,4923,1380,3792,317.7,311.7,351.7,344.4,25.27,22.87,26.19,24.75,325.0,325.0,355.0,355.0,100.00,99.86,100.00,100.00,2.53,2.62,1.43,1.63,-11.1,-4.7,-3.2,-1.5,83.9,68.9,83.4,74.4,87.0,69.5,85.4,75.4,83.5,66.5,83.7,73.1,80.7,65.0,82.8,71.9,-2.04,1.98,0.10,0.06,0.00,103.67,108.97,100.47,103.04,174.7,27.6,1.3689046716261875,120.63407313360985,55.095561769296076,-79.22237613995748,0.0
