Time,Distance,GPS Latitude,GPS Longitude,Damper Velocity (Calc) FL,Damper Velocity (Calc) FR,Damper Velocity (Calc) RL,Damper Velocity (Calc) RR,Corr Dist,Corr Dist (Unstretched),Corr Speed,ABS Active,ABS Enabled,AID Allow Tire Blankets,AID Auto Blip,AID Auto Clutch,AID Auto Shift,AID Fuel Rate,AID Ideal Line,AID Mech Damage,AID Stability,AID Tire Wear Rate,Air Density,Air Temp,Ballast,Best Lap Delta,Best Lap Time,Brake Bias,Brake Pos,Brake Temp FL,Brake Temp FR,Brake Temp RL,Brake Temp RR,CG Accel Lateral,CG Accel Longitudinal,CG Accel Vertical,CG Height,Camber FL,Camber FR,Camber RL,Camber RR,Car Coord X,Car Coord Y,Car Coord Z,Car Damage Front,Car Damage Left,Car Damage Rear,Car Damage Right,Car Pos Norm,Caster FL,Caster FR,Chassis Pitch Angle,Chassis Pitch Rate,Chassis Roll Angle,Chassis Roll Rate,Chassis Velocity X,Chassis Velocity Y,Chassis Velocity Z,Chassis Yaw Rate,Clutch Pos,DRS Active,DRS Available,Drive Train Speed,ERS Heat Charging,ERS Is Charging,ERS Max Energy,ERS Power Level,ERS Recovery Level,Engine Brake Setting,Engine Limiter,Engine RPM,Flags,Fuel Level,Gear,Ground Speed,HR Sample Clock,In Pit,KERS Charge,KERS Deployed Energy,KERS Input,KERS Max Energy,LR Sample Clock,Lap Invalidated,Lap Time,Lap Time2,Last Lap Time,Last Sector Time,MR Sample Clock,Max Fuel,Max Power,Max RPM,Max Sus Travel FL,Max Sus Travel FR,Max Sus Travel RL,Max Sus Travel RR,Max Torque,Max Turbo Boost,Num Tires Off Track,Penalties Enabled,Position,Raw Data Sample Rate,Ride Height FL,Ride Height FR,Ride Height RL,Ride Height RR,Road Temp,Self Align Torque FL,Self Align Torque FR,Self Align Torque RL,Self Align Torque RR,Session Lap Count,Session Time Left,Steering Angle,Surface Grip,Suspension Travel FL,Suspension Travel FR,Suspension Travel RL,Suspension Travel RR,TC Active,TC Enabled,Throttle Pos,Tire Dirt Level FL,Tire Dirt Level FR,Tire Dirt Level RL,Tire Dirt Level RR,Tire Load FL,Tire Load FR,Tire Load RL,Tire Load RR,Tire Loaded Radius FL,Tire Loaded Radius FR,Tire Loaded Radius RL,Tire Loaded Radius RR,Tire Pressure FL,Tire Pressure FR,Tire Pressure RL,Tire Pressure RR,Tire Radius FL,Tire Radius FR,Tire Radius RL,Tire Radius RR,Tire Rubber Grip FL,Tire Rubber Grip FR,Tire Rubber Grip RL,Tire Rubber Grip RR,Tire Slip Angle FL,Tire Slip Angle FR,Tire Slip Angle RL,Tire Slip Angle RR,Tire Slip Ratio FL,Tire Slip Ratio FR,Tire Slip Ratio RL,Tire Slip Ratio RR,Tire Temp Core FL,Tire Temp Core FR,Tire Temp Core RL,Tire Temp Core RR,Tire Temp Inner FL,Tire Temp Inner FR,Tire Temp Inner RL,Tire Temp Inner RR,Tire Temp Middle FL,Tire Temp Middle FR,Tire Temp Middle RL,Tire Temp Middle RR,Tire Temp Outer FL,Tire Temp Outer FR,Tire Temp Outer RL,Tire Temp Outer RR,Toe In FL,Toe In FR,Toe In RL,Toe In RR,Turbo Boost,Wheel Angular Speed FL,Wheel Angular Speed FR,Wheel Angular Speed RL,Wheel Angular Speed RR,Wind Direction,Wind Speed,CG Distance,Lateral Velocity,Longitudinal Velocity,Lateral Acceleration,Longitudinal Acceleration
s,m,deg,deg,mm/s,mm/s,mm/s,mm/s,m,m,km/h,,,,,,,,,%,%,,kg/m3,C,kg,s,s,%,%,C,C,C,C,G,G,G,mm,deg,deg,deg,deg,m,m,m,,,,,,deg,deg,deg,deg/s,deg,deg/s,m/s,m/s,m/s,deg/s,%,,,rad/s,,,MJ,,,,,rpm,,l,,km/h,,,%,kJ,%,MJ,,,s,s,s,s,,l,hp,rpm,mm,mm,mm,mm,N.m,,,,,Hz,mm,mm,mm,mm,C,N.m,N.m,N.m,N.m,,s,deg,%,mm,mm,mm,mm,,,%,,,,,N,N,N,N,mm,mm,mm,mm,psi,psi,psi,psi,mm,mm,mm,mm,%,%,%,%,deg,deg,deg,deg,%,%,%,%,C,C,C,C,C,C,C,C,C,C,C,C,C,C,C,C,deg,deg,deg,deg,,rad/s,rad/s,rad/s,rad/s,deg,km/h,G,Km/h,Km/h,Km/h^2,Km/h^2
0.000,0.0,44.054630173041787,-78.681935012706987,-5.7,-26.4,157.6,44.3,1571.2,1571,158.4,0,1,1,0,1,1,0,0,0,100,1,1.186,26.0,0.0,0.003,74.678,66.0,0.0,26.0,26.0,26.0,26.0,-0.22,-0.09,0.19,375.6,-3.46,-3.09,-1.51,-2.24,-737.13,690.76,5.7,0.00,0.00,0.00,0.00,0.00,-7.49,-7.49,-0.42,-1.39,-0.15,2.68,44.00,-0.10,-0.40,1.71,100.0,0,0,123.54,0,0,0.0,0,0,0,0,7983,0,30.00,0,158.4,0,0,0.0,0.0,0.0,0.0,1,0,0.030,0.030,74.679,19.926,0,110.00,435.8,8750,0.0,0.0,110.0,110.0,433.0,0.00,0,0,1,333.3,67.7,67.7,63.7,63.7,34.0,-53.94,12.95,-46.8,16.9,1,-77.290,1.6,100.0,24.2,20.1,40.8,36.7,0,1,0.0,0.00,0.00,0.00,0.00,5885,4367,5827,5334,310.4,313.1,340.0,341.0,24.58,23.04,25.27,24.51,325.0,325.0,355.0,355.0,99.67,99.59,99.66,99.62,-0.27,-0.15,-0.29,-0.14,-0.0,-0.0,-0.0,-0.0,79.6,70.0,77.7,73.0,83.9,69.1,82.0,74.8,81.2,67.1,80.5,73.0,79.2,66.0,79.9,72.1,0.09,-0.09,0.05,0.05,0.00,134.97,134.85,123.54,123.54,356.7,7.7,0.3043024810940588
0.050,2.2,44.054610657762943,-78.681929886573826,17.7,47.1,-83.5,-47.6,1573.4,1573,158.6,0,1,1,0,1,1,0,0,0,100,1,1.186,26.0,0.0,0.039,74.678,66.0,0.0,26.0,26.0,26.0,26.0,-0.16,0.66,0.04,379.2,-2.94,-2.53,-1.67,-2.65,-736.56,688.59,5.7,0.00,0.00,0.00,0.00,0.00,-7.49,-7.49,-0.44,1.22,0.01,3.79,44.06,-0.09,-0.44,2.02,100.0,0,0,125.15,0,0,0.0,0,0,0,0,6675,0,30.00,4,158.6,1,0,0.0,0.0,0.0,0.0,1,0,0.081,0.081,74.679,19.926,1,110.00,435.8,8750,0.0,0.0,110.0,110.0,433.0,0.00,0,0,1,166.7,69.3,69.3,68.2,68.2,34.0,-28.81,6.85,-28.2,11.6,1,-77.340,1.6,100.0,25.1,22.5,36.7,34.3,0,1,0.0,0.00,0.00,0.00,0.00,3927,3783,4866,4625,314.7,315.1,342.4,343.3,24.58,23.04,25.27,24.51,325.0,325.0,355.0,355.0,99.67,99.59,99.66,99.63,-0.22,-0.16,-0.29,-0.14,-0.1,-0.1,2.6,3.2,79.6,70.0,77.7,73.0,83.9,69.1,82.0,74.8,81.1,67.1,80.5,73.0,79.2,65.9,79.8,72.1,0.10,-0.10,0.07,0.06,0.00,135.17,135.02,125.05,125.24,356.7,7.7,0.680294054067798,156.2841425103954,40.69149333882938
0.100,4.4,44.054591142484092,-78.681924850372837,-123.0,-22.1,12.2,56.7,1575.6,1576,158.4,0,1,1,0,1,1,0,0,0,100,1,1.186,26.0,0.0,0.111,74.678,66.0,0.0,26.0,26.0,26.0,26.0,-0.07,-0.17,-0.28,382.9,-3.09,-2.96,-1.33,-2.45,-736.00,686.42,5.7,0.00,0.00,0.00,0.00,0.00,-7.49,-7.49,-0.48,-3.30,0.05,-2.23,44.00,-0.09,-0.45,1.22,100.0,0,0,123.25,0,0,0.0,0,0,0,0,6574,0,30.00,4,158.4,0,0,0.0,0.0,0.0,0.0,0,0,0.131,0.131,74.679,19.926,0,110.00,435.8,8750,0.0,0.0,110.0,110.0,433.0,0.00,0,0,1,333.3,76.9,76.9,64.8,64.8,34.0,-11.96,8.18,-29.3,12.4,1,-77.390,1.6,100.0,18.9,21.4,37.3,37.1,0,1,0.0,0.00,0.00,0.00,0.00,2187,2969,4739,3234,319.7,317.1,343.1,346.1,24.58,23.04,25.27,24.52,325.0,325.0,355.0,355.0,99.67,99.59,99.66,99.63,-0.14,-0.13,-0.22,-0.10,0.0,0.0,-0.3,-0.2,79.6,70.0,77.7,73.0,83.8,69.0,81.9,74.7,81.0,67.1,80.4,73.0,79.1,65.9,79.8,72.1,0.10,-0.09,0.06,0.06,0.00,134.81,134.82,123.25,123.25,356.7,7.7,0.33496268448888455,151.60282027618393,39.61118818378344,-46.813222342114784,-10.80305098143576
0.150,6.6,44.054572796323335,-78.681919994036164,41.0,-39.7,-34.0,-100.5,1577.8,1578,158.2,0,1,1,0,1,1,0,0,0,100,1,1.186,26.0,0.0,0.147,74.678,66.0,0.0,26.0,26.0,26.0,26.0,-0.10,-0.13,-0.27,385.6,-1.99,-3.19,-1.49,-1.73,-735.46,684.38,5.7,0.00,0.00,0.00,0.00,0.01,-7.49,-7.49,-0.66,-3.69,-0.09,-0.54,43.92,-0.07,-0.52,0.93,100.0,0,0,122.96,0,0,0.0,0,0,0,0,6559,0,30.00,4,158.2,1,0,0.0,0.0,0.0,0.0,0,0,0.180,0.180,74.679,19.926,1,110.00,435.8,8750,0.0,0.0,110.0,110.0,433.0,0.00,0,0,1,333.3,76.3,76.3,74.6,74.6,34.0,-13.93,6.93,-16.2,7.6,1,-77.440,0.7,100.0,21.0,19.4,35.6,32.1,0,1,0.0,0.00,0.00,0.00,0.00,3024,2195,3090,2699,316.9,319.4,346.6,347.8,24.58,23.04,25.27,24.52,325.0,325.0,355.0,355.0,99.67,99.59,99.66,99.63,-0.13,-0.10,-0.16,-0.05,0.0,0.0,-0.3,-0.3,79.6,70.0,77.7,73.0,83.8,69.0,81.9,74.7,81.0,67.0,80.4,72.9,79.1,65.9,79.7,72.0,0.05,-0.05,0.06,0.06,0.00,134.64,134.50,122.96,122.96,356.7,7.7,0.3159113799786263,151.60282027618393,39.611188240685806,46.81322262662661,3.60101756283548
0.200,8.8,44.054553281044484,-78.681914957835161,23.9,-4.0,-83.0,-32.6,1580.0,1580,157.9,0,1,1,0,1,1,0,0,0,100,1,1.186,26.0,0.0,0.180,74.678,66.0,0.0,26.0,26.0,26.0,26.0,-0.15,-0.16,0.05,383.4,-1.91,-2.28,-1.26,-1.78,-734.90,682.21,5.7,0.00,0.00,0.00,0.00,0.01,-7.49,-7.49,-0.83,-2.80,-0.16,-0.84,43.84,-0.07,-0.55,0.84,100.0,0,0,122.72,0,0,0.0,0,0,0,0,6546,0,30.00,4,157.9,0,0,0.0,0.0,0.0,0.0,0,0,0.231,0.231,74.679,19.926,0,110.00,435.8,8750,0.0,0.0,110.0,110.0,433.0,0.00,0,0,1,166.7,70.7,70.7,76.4,76.4,34.0,-28.98,11.24,-28.2,6.5,1,-77.490,0.1,100.0,22.2,19.2,31.4,30.5,0,1,0.0,0.00,0.00,0.00,0.00,5285,3773,4516,2312,311.4,315.2,343.2,348.3,24.58,23.04,25.27,24.52,325.0,325.0,355.0,355.0,99.67,99.59,99.66,99.63,-0.16,-0.04,-0.24,-0.06,-0.1,-0.0,-0.3,-0.2,79.6,70.0,77.7,73.0,83.7,69.0,81.8,74.6,80.9,67.0,80.3,72.9,79.0,65.8,79.7,72.0,0.01,-0.02,0.08,0.06,0.00,134.51,134.37,122.71,122.71,356.7,7.7,0.22494443758403987,156.2841425388466,39.97128994006699,3.601017278323866,-7.2020351256713155
0.250,11.0,44.054533765765633,-78.681910011566330,116.5,45.0,-61.1,-24.4,1582.2,1582,158.3,0,1,1,0,1,1,0,0,0,100,1,1.186,26.0,0.0,0.252,74.678,66.0,0.0,26.0,26.0,26.0,26.0,-0.09,0.38,0.14,381.3,-2.11,-2.96,-1.71,-1.91,-734.35,680.04,5.7,0.00,0.00,0.00,0.00,0.01,-7.49,-7.49,-0.77,4.86,0.15,7.89,43.98,-0.06,-0.49,0.91,100.0,0,0,126.28,0,0,0.0,0,0,0,0,6736,0,30.00,4,158.3,1,0,0.0,0.0,0.0,0.0,0,0,0.281,0.281,74.679,19.926,1,110.00,435.8,8750,0.0,0.0,110.0,110.0,433.0,0.00,0,0,1,333.3,66.4,66.4,81.3,81.3,34.0,-24.07,16.10,-22.7,10.8,1,-77.540,-0.9,100.0,28.0,21.4,28.4,29.3,0,1,100.0,0.00,0.00,0.00,0.00,4625,3950,3882,4798,312.5,314.1,345.3,342.3,24.58,23.04,25.27,24.52,325.0,325.0,355.0,355.0,99.67,99.59,99.66,99.63,-0.12,-0.05,-0.28,-0.10,-0.1,-0.1,2.1,2.2,79.6,70.0,77.7,73.0,83.7,68.9,81.8,74.6,80.9,67.0,80.3,72.9,79.0,65.8,79.6,72.0,-0.03,0.03,0.08,0.07,0.00,135.12,135.02,126.28,126.28,356.7,7.7,0.4148493702538308,151.96292200401632,38.890984728118674,-39.61118835449071,-7.202034556647519
0.300,13.2,44.054515329672711,-78.681905245161829,-96.6,97.5,182.4,98.8,1584.4,1584,158.9,0,1,1,0,1,1,0,0,0,100,1,1.186,26.0,0.0,0.288,74.678,66.0,0.0,26.0,26.0,26.0,26.0,-0.03,0.43,0.24,375.5,-3.92,-2.30,-2.02,-1.33,-733.82,677.99,5.7,0.00,0.00,0.00,0.00,0.01,-7.49,-7.49,-0.49,6.49,0.35,1.24,44.16,-0.03,-0.35,-0.60,100.0,0,0,126.26,0,0,0.0,0,0,0,0,6735,0,30.00,4,158.9,0,0,0.0,0.0,0.0,0.0,0,0,0.330,0.330,74.679,19.926,0,110.00,435.8,8750,0.0,0.0,110.0,110.0,433.0,0.00,0,0,1,333.3,66.6,66.6,57.6,57.6,34.0,-16.46,35.03,-33.7,19.1,1,-77.590,-2.8,100.0,23.2,26.3,37.5,34.2,0,1,100.0,0.00,0.00,0.00,0.00,3104,6227,5713,6323,316.9,308.5,340.6,338.9,24.58,23.04,25.28,24.52,325.0,325.0,355.0,355.0,99.67,99.59,99.66,99.63,0.04,0.12,-0.15,0.02,-0.1,-0.1,1.8,1.7,79.6,70.0,77.7,73.0,83.6,68.9,81.8,74.6,80.9,66.9,80.3,72.9,78.9,65.8,79.6,72.0,-0.14,0.15,0.06,0.05,0.00,135.58,135.73,126.26,126.26,356.7,7.7,0.4933558553417604,152.32302370339752,39.25108648440224,57.616273608061874,14.404069113295037
0.350,15.4,44.054495724461702,-78.681900208960826,-7.5,-81.6,71.0,188.6,1586.6,1587,159.6,0,1,1,0,1,1,0,0,0,100,1,1.186,26.0,0.0,0.324,74.678,66.0,0.0,26.0,26.0,26.0,26.0,0.06,0.38,0.08,376.6,-2.51,-2.46,-2.66,-1.56,-733.26,675.81,5.7,0.00,0.00,0.00,0.00,0.01,-7.49,-7.49,-0.18,4.13,0.30,-1.38,44.35,-0.00,-0.23,-1.70,100.0,0,0,126.71,0,0,0.0,0,0,0,0,6759,0,30.00,4,159.6,1,0,0.0,0.0,0.0,0.0,0,0,0.381,0.381,74.679,19.926,1,110.00,435.8,8750,0.0,0.0,110.0,110.0,433.0,0.00,0,0,1,166.7,74.4,74.4,61.3,61.3,34.0,-1.18,14.05,-30.7,31.4,1,-77.640,-5.7,100.0,22.8,22.2,41.0,43.6,0,1,100.0,0.00,0.00,0.00,0.00,2487,2422,5386,6494,318.2,318.8,341.3,338.2,24.58,23.04,25.28,24.52,325.0,325.0,355.0,355.0,99.67,99.59,99.67,99.63,0.25,0.23,-0.02,0.11,-0.0,-0.1,1.6,1.5,79.6,70.0,77.7,73.0,83.6,68.9,81.8,74.6,80.8,66.9,80.3,72.9,78.9,65.7,79.6,72.0,-0.31,0.29,0.06,0.04,0.00,136.11,136.12,126.71,126.71,356.7,7.7,0.39293765408777,157.7245493648225,40.33139163944818,14.404068259759697,3.6010169938120384
0.400,17.6,44.054475939386371,-78.681895172759837,-185.8,-119.8,89.5,15.6,1588.9,1589,160.3,0,1,1,0,1,1,0,0,0,100,1,1.186,26.0,0.0,0.360,74.678,66.0,0.0,26.0,26.0,26.0,26.0,0.16,0.40,-0.12,379.9,-2.62,-2.47,-1.81,-2.58,-732.70,673.61,5.7,0.00,0.00,0.00,0.00,0.01,-7.49,-7.49,-0.25,-5.90,0.12,-2.30,44.55,0.03,-0.27,-2.63,100.0,0,0,127.18,0,0,0.0,0,0,0,0,6784,0,30.00,4,160.3,0,0,0.0,0.0,0.0,0.0,0,0,0.431,0.431,74.679,19.926,0,110.00,435.8,8750,0.0,0.0,110.0,110.0,433.0,0.00,0,0,1,333.3,82.8,82.8,52.2,52.2,34.0,1.90,27.30,-15.5,33.3,1,-77.690,-8.5,100.0,13.5,16.2,45.5,44.4,0,1,100.0,0.00,0.00,0.00,0.00,1569,3066,6015,4748,321.0,316.1,339.6,342.0,24.58,23.04,25.28,24.52,325.0,325.0,355.0,355.0,99.67,99.59,99.67,99.63,0.43,0.46,0.08,0.16,-0.0,-0.1,1.9,1.7,79.6,70.0,77.7,73.0,83.5,68.9,81.7,74.6,80.7,66.9,80.2,72.9,78.8,65.7,79.6,72.0,-0.47,0.47,0.04,0.04,0.00,136.23,136.47,127.18,127.18,356.7,7.7,0.447213595499958,153.7634305293735,39.61118818378344,-36.01017107616684,0.0
0.450,19.9,44.054457323429133,-78.681890316423164,6.4,-13.8,-259.7,-187.0,1591.1,1591,160.9,0,1,1,0,1,1,0,0,0,100,1,1.186,26.0,0.0,0.429,74.678,66.0,0.0,26.0,26.0,26.0,26.0,0.21,0.39,-0.32,387.9,-2.09,-2.73,-1.60,-1.51,-732.16,671.54,5.7,0.00,0.00,0.00,0.00,0.01,-7.49,-7.49,-0.57,-6.19,0.18,1.34,44.71,0.07,-0.38,-3.94,100.0,0,0,128.78,0,0,0.0,0,0,0,0,6869,0,30.00,4,160.9,1,0,0.0,0.0,0.0,0.0,0,0,0.480,0.480,74.679,19.926,1,110.00,435.8,8750,0.0,0.0,110.0,110.0,433.0,0.00,0,0,1,333.3,82.4,82.4,73.0,73.0,34.0,3.72,27.55,-3.0,18.7,1,-77.740,-9.0,100.0,13.8,15.5,32.5,35.1,0,1,100.0,0.00,0.00,0.00,0.00,1517,2981,3092,3884,320.7,316.7,347.1,344.5,24.58,23.03,25.28,24.52,325.0,325.0,355.0,355.0,99.67,99.59,99.67,99.63,0.48,0.48,0.14,0.24,-0.0,-0.1,2.7,2.5,79.6,70.0,77.8,73.0,83.4,68.8,81.7,74.6,80.7,66.9,80.2,72.8,78.8,65.7,79.6,71.9,-0.51,0.52,0.06,0.07,0.00,136.62,137.00,128.78,128.78,356.7,7.7,0.54644304369257,154.12353225720582,40.33139163944818,57.616273892573986,25.20712009473087
0.500,22.1,44.054437448421638,-78.681885100357846,-25.7,54.2,-62.8,-101.2,1593.3,1593,161.6,0,1,1,0,1,1,0,0,0,100,1,1.186,26.0,0.0,0.465,74.678,66.0,0.0,26.0,26.0,26.0,26.0,0.22,0.33,-0.34,389.2,-2.18,-2.20,-1.45,-0.78,-731.58,669.33,5.7,0.00,0.00,0.00,0.00,0.01,-7.49,-7.49,-0.88,-5.08,0.04,-2.98,44.89,0.15,-0.47,-5.45,100.0,0,0,129.41,0,0,0.0,0,0,0,0,6903,0,30.00,4,161.6,0,0,0.0,0.0,0.0,0.0,0,0,0.531,0.531,74.679,19.926,0,110.00,435.8,8750,0.0,0.0,110.0,110.0,433.0,0.00,0,0,1,166.7,80.8,80.8,73.9,73.9,34.0,6.05,30.43,1.8,17.3,1,-77.790,-8.2,100.0,12.6,18.3,29.4,30.0,0,1,100.0,0.00,0.00,0.00,0.00,2356,3296,3418,3334,318.9,316.3,346.3,347.2,24.58,23.03,25.28,24.52,325.0,325.0,355.0,355.0,99.67,99.59,99.67,99.63,0.49,0.55,0.28,0.45,-0.1,-0.1,2.9,2.4,79.6,70.0,77.8,73.0,83.4,68.8,81.7,74.6,80.6,66.8,80.2,72.8,78.7,65.7,79.5,71.9,-0.49,0.48,0.09,0.08,0.00,137.22,137.62,129.41,129.41,356.7,7.7,0.5223983154643591,159.5250579186309,42.13190019325653,10.803051265947943,10.803050981435973
0.550,24.4,44.054417483481991,-78.681879794360370,258.7,138.4,-96.2,13.2,1595.6,1596,162.2,0,1,1,0,1,1,0,0,0,100,1,1.186,26.0,0.0,0.501,74.678,66.0,0.0,26.0,26.0,26.0,26.0,0.39,0.40,0.19,380.2,-2.41,-2.58,-0.98,-1.60,-730.99,667.11,5.7,0.00,0.00,0.00,0.00,0.02,-7.49,-7.49,-0.91,4.10,-0.02,-0.19,45.07,0.24,-0.48,-7.34,100.0,0,0,129.69,0,0,0.0,0,0,0,0,6918,0,30.00,4,162.2,1,0,0.0,0.0,0.0,0.0,0,0,0.581,0.581,74.679,19.926,1,110.00,435.8,8750,0.0,0.0,110.0,110.0,433.0,0.00,0,0,1,333.3,62.7,62.7,81.5,81.5,34.0,3.76,52.64,8.8,38.3,1,-77.840,-5.2,100.0,25.5,25.2,24.6,30.7,0,1,100.0,0.00,0.00,0.00,0.00,6187,5130,3601,4266,310.2,310.8,345.9,343.2,24.58,23.03,25.28,24.52,325.0,325.0,355.0,355.0,99.67,99.59,99.67,99.63,0.32,0.47,0.41,0.59,-0.0,-0.1,2.6,2.2,79.6,70.0,77.8,73.0,83.3,68.8,81.7,74.6,80.6,66.8,80.2,72.8,78.6,65.7,79.5,71.9,-0.32,0.33,0.09,0.06,0.00,138.05,138.70,129.69,129.69,356.7,7.7,0.5900847396772773,155.20383738380062,41.411696737591775,-36.01017107616741,-5.690237259159403e-07
0.600,26.6,44.054398687660424,-78.681874758159381,2.2,-17.5,217.2,234.6,1597.9,1598,162.9,0,1,1,0,1,1,0,0,0,100,1,1.186,26.0,0.0,0.570,74.678,66.0,0.0,26.0,26.0,26.0,26.0,0.34,0.34,0.19,376.4,-2.79,-2.35,-1.36,-0.89,-730.43,665.02,5.7,0.00,0.00,0.00,0.00,0.02,-7.49,-7.49,-0.55,7.04,0.28,9.54,45.26,0.32,-0.30,-5.17,100.0,0,0,129.20,0,0,0.0,0,0,0,0,6892,0,30.00,4,162.9,0,0,0.0,0.0,0.0,0.0,1,0,0.630,0.630,74.679,19.926,0,110.00,435.8,8750,0.0,0.0,110.0,110.0,433.0,0.00,0,0,1,333.3,71.2,71.2,65.7,65.7,34.0,0.63,21.74,8.9,57.8,1,-77.890,-2.5,100.0,25.6,24.3,35.4,42.4,0,1,100.0,0.00,0.00,0.00,0.00,2448,3102,5308,5942,318.7,316.9,341.2,338.9,24.58,23.03,25.28,24.52,325.0,325.0,355.0,355.0,99.67,99.59,99.67,99.63,0.34,0.32,0.34,0.58,-0.0,-0.0,1.6,1.2,79.6,69.9,77.8,73.0,83.3,68.8,81.7,74.6,80.5,66.8,80.1,72.8,78.6,65.6,79.5,71.9,-0.17,0.16,0.06,0.04,0.00,138.63,139.20,129.20,129.20,356.7,7.7,0.5170106381884226,155.92404081101415,42.131900136354155,57.61627360806216,28.808137088542765
0.650,28.9,44.054378542856455,-78.681869272297590,-289.0,-36.2,184.9,130.8,1600.1,1600,163.6,0,1,1,0,1,1,0,0,0,100,1,1.186,26.0,0.0,0.606,74.678,66.0,0.0,26.0,26.0,26.0,26.0,0.32,0.32,0.09,376.9,-2.49,-1.14,-2.51,-1.91,-729.82,662.78,5.7,0.00,0.00,0.00,0.00,0.02,-7.49,-7.49,-0.48,-2.71,0.57,-0.20,45.44,0.30,-0.29,-2.81,100.0,0,0,129.90,0,0,0.0,0,0,0,0,6929,0,30.00,4,163.6,1,0,0.0,0.0,0.0,0.0,1,0,0.681,0.681,74.679,19.926,1,110.00,435.8,8750,0.0,0.0,110.0,110.0,433.0,0.00,0,0,1,333.3,78.2,78.2,49.5,49.5,34.0,0.06,37.67,1.5,53.1,1,-77.940,-0.1,100.0,11.2,22.5,44.7,48.9,0,1,100.0,0.00,0.00,0.00,0.00,1176,5913,3986,5342,321.8,309.7,344.7,340.1,24.58,23.03,25.28,24.52,325.0,325.0,355.0,355.0,99.67,99.59,99.67,99.63,0.29,0.32,0.42,0.48,-0.1,-0.1,1.7,1.5,79.6,69.9,77.8,73.0,83.2,68.7,81.6,74.6,80.5,66.8,80.1,72.8,78.5,65.6,79.5,71.9,-0.03,0.00,0.06,0.02,0.00,139.07,139.36,129.90,129.90,356.7,7.7,0.4614108798023731,160.96546474460683,44.29251044644605,7.2020342721361885,14.404069113295108
0.700,31.2,44.054358487984643,-78.681863696503626,82.2,-39.3,-282.6,-135.7,1602.4,1602,164.2,0,1,1,0,1,1,0,0,0,100,1,1.186,26.0,0.0,0.639,74.678,66.0,0.0,26.0,26.0,26.0,26.0,0.25,0.44,-0.25,384.0,-2.37,-2.78,-1.92,-1.42,-729.20,660.55,5.7,0.00,0.00,0.00,0.00,0.02,-7.49,-7.49,-0.55,-1.09,0.26,-10.46,45.63,0.27,-0.27,-2.00,100.0,0,0,130.61,0,0,0.0,0,0,0,0,6967,0,30.00,4,164.2,0,0,0.0,0.0,0.0,0.0,1,0,0.731,0.731,74.679,19.926,0,110.00,435.8,8750,0.0,0.0,110.0,110.0,433.0,0.00,0,0,1,166.7,81.7,81.7,70.5,70.5,34.0,0.37,6.62,6.0,48.1,1,-77.990,1.4,100.0,15.3,20.5,30.6,42.1,0,1,100.0,0.00,0.00,0.00,0.00,1261,1070,4678,5330,321.5,320.9,343.3,340.9,24.58,23.03,25.29,24.52,325.0,325.0,355.0,355.0,99.67,99.59,99.67,99.63,0.30,0.24,0.41,0.55,-0.1,-0.0,2.1,2.0,79.6,69.9,77.8,73.0,83.2,68.7,81.6,74.6,80.4,66.8,80.1,72.8,78.5,65.6,79.4,71.9,0.06,-0.06,0.09,0.05,0.00,139.69,139.84,130.61,130.61,356.7,7.7,0.5644466316668034,156.64424423822777,43.572307047683665,-36.010170791655014,-3.601017562835551
0.750,33.5,44.054339422366596,-78.681858390506150,21.1,-170.3,174.5,-68.4,1604.7,1605,164.9,0,1,1,0,1,1,0,0,0,100,1,1.186,26.0,0.0,0.702,74.678,66.0,0.0,26.0,26.0,26.0,26.0,0.11,0.34,-0.17,383.7,-2.27,-3.14,-0.54,-1.42,-728.61,658.43,5.7,0.00,0.00,0.00,0.00,0.02,-7.49,-7.49,-0.81,-6.91,0.02,2.88,45.80,0.21,-0.39,0.59,100.0,0,0,131.15,0,0,0.0,0,0,0,0,6996,0,30.00,4,164.9,1,0,0.0,0.0,0.0,0.0,1,0,0.780,0.780,74.679,19.926,1,110.00,435.8,8750,0.0,0.0,110.0,110.0,433.0,0.00,0,0,1,333.3,81.6,81.6,71.3,71.3,34.0,-7.68,13.14,4.2,23.4,1,-78.040,2.1,100.0,16.3,12.0,39.3,38.7,0,1,100.0,0.00,0.00,0.00,0.00,3705,2203,3784,4170,315.5,319.1,344.6,344.2,24.58,23.03,25.29,24.52,325.0,325.0,355.0,355.0,99.67,99.59,99.67,99.63,0.11,0.17,0.18,0.28,-0.1,-0.1,2.0,2.0,79.6,69.9,77.8,73.0,83.1,68.7,81.6,74.6,80.3,66.7,80.1,72.8,78.4,65.5,79.4,71.9,0.12,-0.12,0.05,0.04,0.00,140.26,140.15,131.15,131.15,356.7,7.7,0.39572717874818764,157.36444766544133,43.9324086901625,57.61627360806159,21.606101962871733
0.800,35.8,44.054319187630462,-78.681852724780043,-63.2,60.5,-194.5,-210.5,1607.0,1607,165.5,0,1,1,0,1,1,0,0,0,100,1,1.186,26.0,0.0,0.753,74.678,66.0,0.0,26.0,26.0,26.0,26.0,0.06,0.42,-0.24,388.5,-2.10,-2.03,-1.67,-1.97,-727.98,656.18,5.7,0.00,0.00,0.00,0.00,0.02,-7.49,-7.49,-1.06,-4.06,0.30,5.15,45.98,0.14,-0.42,1.12,100.0,0,0,132.12,0,0,0.0,0,0,0,0,7047,0,30.00,4,165.5,0,0,0.0,0.0,0.0,0.0,1,0,0.831,0.831,74.679,19.926,0,110.00,435.8,8750,0.0,0.0,110.0,110.0,433.0,0.00,0,0,1,333.3,81.9,81.9,73.4,73.4,34.0,-5.43,15.84,-9.8,20.2,1,-78.090,2.3,100.0,13.2,15.0,29.6,28.2,0,1,100.0,0.00,0.00,0.00,0.00,1935,3898,3941,4121,319.5,315.1,344.9,344.4,24.58,23.03,25.29,24.52,325.0,325.0,355.0,355.0,99.67,99.59,99.67,99.63,0.01,0.07,0.02,0.18,-0.1,-0.1,2.5,2.6,79.6,69.9,77.8,73.0,83.0,68.6,81.6,74.5,80.3,66.7,80.1,72.8,78.4,65.5,79.4,71.9,0.14,-0.15,0.07,0.07,0.00,140.80,140.75,132.12,132.12,356.7,7.7,0.4874423042781576,162.40587159903393,45.73291724397084,10.803051265947659,7.202034556647519
0.850,38.1,44.054298862962170,-78.681846969121764,-11.5,48.3,-67.5,20.8,1609.3,1609,166.1,0,1,1,0,1,1,0,0,0,100,1,1.186,26.0,0.0,0.780,74.678,66.0,0.0,26.0,26.0,26.0,26.0,0.02,0.31,-0.37,389.7,-2.74,-2.26,-2.15,-1.13,-727.34,653.92,5.6,0.00,0.00,0.00,0.00,0.02,-7.49,-7.49,-1.28,-3.94,0.24,-5.89,46.15,0.07,-0.45,0.95,100.0,0,0,133.22,0,0,0.0,0,0,0,0,7106,0,30.00,4,166.1,1,0,0.0,0.0,0.0,0.0,1,0,0.881,0.881,74.679,19.926,1,110.00,435.8,8750,0.0,0.0,110.0,110.0,433.0,0.00,0,0,1,333.3,80.5,80.5,79.9,79.9,34.0,-15.03,10.76,-9.1,9.0,1,-78.140,2.3,100.0,12.6,17.4,26.2,29.2,0,1,100.0,0.00,0.00,0.00,0.00,3160,2815,3204,3069,317.2,317.2,347.6,347.5,24.58,23.03,25.29,24.52,325.0,325.0,355.0,355.0,99.67,99.59,99.67,99.63,-0.06,0.04,0.01,0.17,-0.1,-0.1,2.7,2.8,79.6,69.9,77.8,73.0,83.0,68.6,81.5,74.5,80.2,66.6,80.0,72.8,78.3,65.5,79.4,71.9,0.15,-0.14,0.10,0.07,0.00,141.45,141.30,133.22,133.22,356.7,7.7,0.4831148931672465,158.4447527920361,44.65261214582725,-32.40915379784269,-10.803050981435902
0.900,40.4,44.054279617479800,-78.681841573192131,362.2,168.4,-9.2,4.6,1611.6,1612,166.7,0,1,1,0,1,1,0,0,0,100,1,1.186,26.0,0.0,0.846,74.678,66.0,0.0,26.0,26.0,26.0,26.0,-0.02,0.33,0.20,376.8,-3.05,-3.29,-1.90,-1.38,-726.74,651.78,5.6,0.00,0.00,0.00,0.00,0.03,-7.49,-7.49,-1.29,4.55,0.07,-1.71,46.32,0.03,-0.48,1.43,100.0,0,0,133.49,0,0,0.0,0,0,0,0,7120,0,30.00,4,166.7,0,0,0.0,0.0,0.0,0.0,1,0,0.930,0.930,74.679,19.926,0,110.00,435.8,8750,0.0,0.0,110.0,110.0,433.0,0.00,0,0,1,333.3,55.9,55.9,82.1,82.1,34.0,-48.29,43.20,-15.8,10.7,1,-78.190,1.9,100.0,30.7,25.9,25.7,29.5,0,1,100.0,0.00,0.00,0.00,0.00,6992,6127,3995,3634,307.0,307.5,345.5,345.6,24.58,23.03,25.29,24.52,325.0,325.0,355.0,355.0,99.67,99.59,99.67,99.63,-0.10,0.09,-0.10,0.08,-0.1,-0.1,2.5,2.5,79.6,69.9,77.8,73.0,82.9,68.6,81.5,74.5,80.2,66.6,80.0,72.8,78.3,65.4,79.3,71.9,0.13,-0.12,0.09,0.07,0.00,142.41,142.33,133.49,133.49,356.7,7.7,0.38639358172723315,159.16495621924966,44.65261214582725,111.63153022231228,25.20712009473101
0.950,42.7,44.054259112947186,-78.681835817533852,-42.6,-3.9,377.3,165.3,1614.0,1614,167.5,0,1,1,0,1,1,0,0,0,100,1,1.186,26.0,0.0,0.879,74.678,66.0,0.0,26.0,26.0,26.0,26.0,-0.13,0.42,0.32,369.7,-3.32,-2.95,-1.36,-1.45,-726.10,649.50,5.6,0.00,0.00,0.00,0.00,0.03,-7.49,-7.49,-0.85,7.30,0.25,7.55,46.53,0.01,-0.26,1.72,100.0,0,0,132.40,0,0,0.0,0,0,0,0,7062,0,30.00,4,167.5,1,0,0.0,0.0,0.0,0.0,1,0,0.981,0.981,74.679,19.926,1,110.00,435.8,8750,0.0,0.0,110.0,110.0,433.0,0.00,0,0,1,333.3,66.2,66.2,53.7,53.7,34.0,-25.55,12.33,-46.1,26.5,1,-78.240,2.0,100.0,28.6,25.7,44.6,37.7,0,1,100.0,0.00,0.00,0.00,0.00,3857,3751,7364,7792,315.0,314.7,336.5,335.0,24.58,23.02,25.29,24.52,325.0,325.0,355.0,355.0,99.67,99.59,99.67,99.63,-0.12,-0.10,-0.22,0.01,-0.0,-0.1,1.2,1.4,79.6,69.9,77.8,73.0,82.9,68.5,81.5,74.5,80.1,66.6,80.0,72.8,78.2,65.4,79.3,71.9,0.12,-0.11,0.05,0.04,0.00,142.90,142.86,132.40,132.40,356.7,7.7,0.5437830449729009,169.60790581426733,47.17332415530035,61.2172906018742,14.404068544271453
1.000,45.1,44.054237259432163,-78.681829792079085,-162.2,-30.5,70.9,202.8,1616.3,1616,168.2,0,1,1,0,1,1,0,0,0,100,1,1.186,26.0,0.0,0.945,74.678,66.0,0.0,26.0,26.0,26.0,26.0,-0.07,0.38,-0.05,374.3,-3.51,-3.23,-2.49,-1.41,-725.43,647.07,5.6,0.00,0.00,0.00,0.00,0.03,-7.49,-7.49,-0.70,1.02,0.37,-0.56,46.72,-0.02,-0.25,1.14,100.0,0,0,133.45,0,0,0.0,0,0,0,0,7119,0,30.00,4,168.2,0,0,0.0,0.0,0.0,0.0,1,0,1.034,1.034,74.679,19.926,0,110.00,435.8,8750,0.0,0.0,110.0,110.0,433.0,0.00,0,0,1,166.7,76.8,76.8,51.1,51.1,34.0,-4.96,6.24,-33.4,13.8,1,-78.290,2.0,100.0,20.5,24.1,48.1,47.9,0,1,100.0,0.00,0.00,0.00,0.00,1113,2155,5264,5799,322.0,318.3,341.6,339.9,24.58,23.02,25.29,24.53,325.0,325.0,355.0,355.0,99.67,99.59,99.67,99.63,-0.04,-0.14,-0.11,-0.04,0.0,-0.0,1.6,1.7,79.6,69.9,77.8,73.0,82.8,68.5,81.5,74.5,80.1,66.5,80.0,72.8,78.2,65.4,79.3,71.9,0.12,-0.12,0.05,0.03,0.00,143.18,143.18,133.45,133.45,356.7,7.7,0.3896151947755631,165.28668527943708,46.093019000254394,-136.83865003253175,-36.010171645190496
1.050,47.4,44.054217834085478,-78.681824306217294,-138.3,-193.4,-52.6,-49.9,1618.6,1619,168.8,0,1,1,0,1,1,0,0,0,100,1,1.186,26.0,0.0,0.978,74.678,66.0,0.0,26.0,26.0,26.0,26.0,-0.07,0.35,-0.15,380.1,-2.02,-2.48,-1.88,-2.01,-724.82,644.91,5.5,0.00,0.00,0.00,0.00,0.03,-7.49,-7.49,-0.86,-7.06,0.17,-4.31,46.90,-0.03,-0.31,0.97,100.0,0,0,133.84,0,0,0.0,0,0,0,0,7139,0,30.00,4,168.8,1,0,0.0,0.0,0.0,0.0,1,0,1.083,1.083,74.679,19.926,1,110.00,435.8,8750,0.0,0.0,110.0,110.0,433.0,0.00,0,0,1,166.7,84.3,84.3,59.4,59.4,34.0,-11.11,3.25,-21.2,19.8,1,-78.340,2.1,100.0,13.5,14.5,45.5,45.4,0,1,100.0,0.00,0.00,0.00,0.00,2706,1672,4756,4749,318.1,320.5,342.0,342.4,24.58,23.02,25.29,24.53,325.0,325.0,355.0,355.0,99.67,99.59,99.67,99.63,-0.10,-0.11,-0.05,0.02,-0.1,-0.1,1.6,1.6,79.6,69.9,77.8,73.0,82.7,68.5,81.5,74.5,80.0,66.5,79.9,72.8,78.1,65.3,79.3,71.9,0.13,-0.13,0.05,0.03,0.00,143.59,143.41,133.84,133.84,356.7,7.7,0.38716921365211876,155.92404081101415,43.5723069907813,-36.01017079165473,-14.404068544271453
1.100,49.8,44.054198318806627,-78.681818910287660,79.3,3.2,-249.2,-264.6,1621.0,1621,169.3,0,1,1,0,1,1,0,0,0,100,1,1.186,26.0,0.0,1.014,74.678,66.0,0.0,26.0,26.0,26.0,26.0,-0.09,0.34,-0.34,386.4,-2.16,-2.68,-1.05,-1.80,-724.22,642.74,5.5,0.00,0.00,0.00,0.00,0.03,-7.49,-7.49,-1.18,-4.72,0.05,-0.55,47.05,-0.05,-0.44,1.80,100.0,0,0,135.67,0,0,0.0,0,0,0,0,7237,0,30.00,4,169.3,0,0,0.0,0.0,0.0,0.0,0,0,1.131,1.131,74.679,19.926,0,110.00,435.8,8750,0.0,0.0,110.0,110.0,433.0,0.00,0,0,1,166.7,79.6,79.6,75.8,75.8,34.0,-17.86,6.28,-12.8,4.8,1,-78.390,2.3,100.0,17.5,14.6,33.1,32.1,0,1,100.0,0.00,0.00,0.00,0.00,3255,2594,3988,2657,316.6,318.1,345.3,348.1,24.58,23.02,25.30,24.53,325.0,325.0,355.0,355.0,99.67,99.59,99.67,99.63,-0.18,-0.12,-0.16,-0.07,-0.1,-0.1,2.6,2.8,79.6,69.9,77.8,73.0,82.7,68.4,81.4,74.5,80.0,66.5,79.9,72.8,78.0,65.3,79.3,71.9,0.14,-0.15,0.07,0.06,0.00,144.19,143.97,135.67,135.67,356.7,7.7,0.48918299234540036,161.6856682002716,44.65261214582725,64.81830788019778,14.40406911329518
1.150,52.1,44.054177454545368,-78.681813154629381,229.8,261.0,-28.2,-50.3,1623.3,1623,170.0,0,1,1,0,1,1,0,0,0,100,1,1.186,26.0,0.0,1.080,74.678,66.0,0.0,26.0,26.0,26.0,26.0,-0.15,0.32,0.24,376.4,-2.42,-2.79,-0.95,-1.70,-723.58,640.42,5.5,0.00,0.00,0.00,0.00,0.03,-7.49,-7.49,-1.19,4.57,0.15,1.99,47.23,-0.08,-0.48,2.55,100.0,0,0,135.49,0,0,0.0,0,0,0,0,7227,0,30.00,4,170.0,1,0,0.0,0.0,0.0,0.0,0,0,1.181,1.181,74.679,19.926,1,110.00,435.8,8750,0.0,0.0,110.0,110.0,433.0,0.00,0,0,1,333.3,60.0,60.0,73.3,73.3,34.0,-45.76,14.81,-22.6,7.0,1,-78.440,2.3,100.0,29.0,27.7,31.6,29.6,0,1,100.0,0.00,0.00,0.00,0.00,5996,4960,4711,3815,309.6,311.9,343.1,345.2,24.58,23.02,25.30,24.53,325.0,325.0,355.0,355.0,99.67,99.59,99.67,99.63,-0.25,-0.12,-0.26,-0.10,-0.1,-0.0,1.9,2.0,79.7,69.9,77.9,73.0,82.7,68.4,81.4,74.5,79.9,66.4,79.9,72.7,78.0,65.3,79.2,71.8,0.15,-0.13,0.08,0.07,0.00,145.21,144.86,135.49,135.49,356.7,7.7,0.42720018726587655,162.40587159903393,45.01271390211082,14.404068259759413,0.0
1.200,54.5,44.054157759402202,-78.681807668767576,99.7,115.6,221.1,278.5,1625.7,1626,170.6,0,1,1,0,1,1,0,0,0,100,1,1.186,26.0,0.0,1.113,74.678,66.0,0.0,26.0,26.0,26.0,26.0,-0.15,0.36,0.59,366.3,-2.38,-2.56,-1.25,-2.96,-722.97,638.23,5.5,0.00,0.00,0.00,0.00,0.03,-7.49,-7.49,-0.75,10.95,0.23,-0.46,47.41,-0.10,-0.34,2.56,100.0,0,0,135.14,0,0,0.0,0,0,0,0,7208,0,30.00,4,170.6,0,0,0.0,0.0,0.0,0.0,0,0,1.230,1.230,74.679,19.926,0,110.00,435.8,8750,0.0,0.0,110.0,110.0,433.0,0.00,0,0,1,333.3,58.4,58.4,57.3,57.3,34.0,-35.14,4.13,-47.5,30.6,1,-78.490,2.3,100.0,34.0,33.5,42.7,43.6,0,1,100.0,0.00,0.00,0.00,0.00,4967,2770,6792,6073,312.0,316.0,337.9,337.9,24.59,23.02,25.30,24.53,325.0,325.0,355.0,355.0,99.67,99.59,99.67,99.63,-0.23,-0.19,-0.28,-0.11,-0.1,-0.0,1.1,1.4,79.7,69.9,77.9,73.0,82.6,68.4,81.4,74.5,79.9,66.4,79.9,72.7,78.0,65.3,79.2,71.8,0.17,-0.12,0.04,0.04,0.00,145.87,145.57,135.14,135.14,356.7,7.7,0.7072481884034769,163.12607502624755,44.65261214582725,61.217290886386024,7.202033418600209
1.250,56.9,44.054136715276620,-78.681802003041469,-200.5,-171.1,249.0,211.8,1628.1,1628,171.3,0,1,1,0,1,1,0,0,0,100,1,1.186,26.0,0.0,1.146,74.678,66.0,0.0,26.0,26.0,26.0,26.0,-0.16,0.34,0.68,364.5,-2.48,-3.52,-1.76,-2.32,-722.34,635.89,5.5,0.00,0.00,0.00,0.00,0.03,-7.49,-7.49,-0.41,2.08,0.13,-3.58,47.59,-0.09,-0.27,1.67,100.0,0,0,135.44,0,0,0.0,0,0,0,0,7225,0,30.00,4,171.3,1,0,0.0,0.0,0.0,0.0,0,0,1.281,1.281,74.679,19.926,1,110.00,435.8,8750,0.0,0.0,110.0,110.0,433.0,0.00,0,0,1,333.3,66.7,66.7,42.8,42.8,34.0,-37.56,15.03,-49.3,24.3,1,-78.540,2.5,100.0,24.0,24.9,55.1,54.1,0,1,100.0,0.00,0.00,0.00,0.00,5183,4303,7432,6825,311.7,312.9,336.5,337.0,24.59,23.02,25.30,24.53,325.0,325.0,355.0,355.0,99.67,99.59,99.67,99.63,-0.23,-0.17,-0.17,-0.12,-0.0,-0.1,1.1,1.3,79.7,69.9,77.9,73.1,82.6,68.4,81.4,74.5,79.8,66.4,79.9,72.7,77.9,65.2,79.2,71.8,0.15,-0.13,0.03,0.02,0.00,146.14,145.96,135.44,135.44,356.7,7.7,0.7769169839822013,168.52760068767253,45.73291724397084,61.21729088638574,10.803051550459557
1.300,59.3,44.054115671151045,-78.681796247383190,102.2,-7.1,-205.1,-171.8,1630.5,1630,171.9,0,1,1,0,1,1,0,0,0,100,1,1.186,26.0,0.0,1.212,74.678,66.0,0.0,26.0,26.0,26.0,26.0,-0.20,0.44,0.06,370.4,-2.45,-2.97,-1.36,-1.91,-721.70,633.55,5.5,0.00,0.00,0.00,0.00,0.04,-7.49,-7.49,-0.29,4.11,0.13,1.24,47.76,-0.09,-0.29,2.39,100.0,0,0,136.33,0,0,0.0,0,0,0,0,7272,0,30.00,4,171.9,0,0,0.0,0.0,0.0,0.0,0,0,1.331,1.331,74.679,19.926,0,110.00,435.8,8750,0.0,0.0,110.0,110.0,433.0,0.00,0,0,1,333.3,65.9,65.9,57.7,57.7,34.0,-33.20,6.20,-40.1,11.5,1,-78.590,2.8,100.0,29.1,24.6,44.9,45.5,0,1,100.0,0.00,0.00,0.00,0.00,4648,3260,6543,6218,313.4,315.8,338.5,338.9,24.59,23.02,25.30,24.53,325.0,325.0,355.0,355.0,99.67,99.59,99.67,99.63,-0.25,-0.20,-0.24,-0.16,-0.0,-0.0,1.6,1.7,79.7,69.9,77.9,73.1,82.5,68.3,81.4,74.5,79.8,66.4,79.9,72.7,77.9,65.2,79.2,71.8,0.18,-0.16,0.05,0.03,0.00,146.54,146.41,136.33,136.33,356.7,7.7,0.4870318264754368,169.24780411488612,45.732917300873204,-32.40915379784269,-14.40406797524787
1.350,61.7,44.054094447161141,-78.681790581657069,-4.7,2.8,106.3,28.2,1632.9,1633,172.5,0,1,1,0,1,1,0,0,0,100,1,1.186,26.0,0.0,1.242,74.678,66.0,0.0,26.0,26.0,26.0,26.0,-0.27,0.27,0.49,369.0,-2.61,-2.76,-1.36,-1.64,-721.07,631.19,5.5,0.00,0.00,0.00,0.00,0.04,-7.49,-7.49,-0.16,1.55,0.35,5.54,47.93,-0.08,-0.36,2.40,100.0,0,0,136.74,0,0,0.0,0,0,0,0,7294,0,30.00,4,172.5,1,0,0.0,0.0,0.0,0.0,0,0,1.383,1.383,74.679,19.926,1,110.00,435.8,8750,0.0,0.0,110.0,110.0,433.0,0.00,0,0,1,83.3,63.1,63.1,55.4,55.4,34.0,-37.37,6.06,-29.0,6.1,1,-78.640,2.8,100.0,28.8,24.7,50.2,47.0,0,1,100.0,0.00,0.00,0.00,0.00,4705,4460,4715,5716,311.4,312.0,342.2,340.0,24.59,23.02,25.31,24.53,325.0,325.0,355.0,355.0,99.67,99.59,99.67,99.63,-0.25,-0.23,-0.25,-0.17,-0.1,-0.1,1.3,1.4,79.7,69.9,77.9,73.1,82.5,68.3,81.4,74.5,79.8,66.3,79.8,72.7,77.9,65.2,79.2,71.8,0.17,-0.16,0.03,0.02,0.00,147.09,146.95,136.74,136.74,356.7,7.7,0.6212084996198941,165.28668530788826,44.29251044644605,14.404068259759697,-3.6010175628356222
1.400,64.1,44.054074392289330,-78.681785185727435,-140.2,-50.3,-80.5,-56.7,1635.3,1635,173.1,0,1,1,0,1,1,0,0,0,100,1,1.186,26.0,0.0,1.308,74.678,66.0,0.0,26.0,26.0,26.0,26.0,-0.12,0.36,0.04,374.8,-2.69,-1.60,-1.12,-1.32,-720.47,628.96,5.5,0.00,0.00,0.00,0.00,0.04,-7.49,-7.49,-0.12,-0.68,0.51,0.94,48.10,-0.09,-0.35,2.22,100.0,0,0,137.07,0,0,0.0,0,0,0,0,7312,0,30.00,4,173.1,0,0,0.0,0.0,0.0,0.0,0,0,1.431,1.431,74.679,19.926,0,110.00,435.8,8750,0.0,0.0,110.0,110.0,433.0,0.00,0,0,1,333.3,73.6,73.6,51.6,51.6,34.0,-6.81,-1.26,-32.7,7.1,1,-78.690,3.2,100.0,21.8,22.2,46.2,44.1,0,1,100.0,0.00,0.00,0.00,0.00,1229,4892,5745,6607,321.1,312.3,340.7,337.8,24.59,23.02,25.31,24.53,325.0,325.0,355.0,355.0,99.67,99.59,99.67,99.63,-0.20,-0.20,-0.25,-0.13,-0.0,-0.1,1.4,1.6,79.7,69.9,77.9,73.1,82.4,68.3,81.3,74.5,79.7,66.3,79.8,72.7,77.8,65.1,79.2,71.8,0.18,-0.18,0.05,0.04,0.00,147.47,147.33,137.07,137.07,356.7,7.7,0.3815756805667782,170.6882109408621,45.37281554458964,10.803050981435547,-7.202033987623864
1.450,66.5,44.054051819317024,-78.681779250204841,133.4,226.0,-69.6,-162.6,1637.7,1638,173.7,0,1,1,0,1,1,0,0,0,100,1,1.186,26.0,0.0,1.341,74.678,66.0,0.0,26.0,26.0,26.0,26.0,-0.16,0.36,0.26,370.6,-2.48,-2.33,-1.33,-1.03,-719.81,626.45,5.5,0.00,0.00,0.00,0.00,0.04,-7.49,-7.49,-0.08,5.40,0.05,-12.25,48.25,-0.10,-0.45,2.82,100.0,0,0,138.45,0,0,0.0,0,0,0,0,7385,0,30.00,4,173.7,1,0,0.0,0.0,0.0,0.0,0,0,1.484,1.484,74.679,19.926,1,110.00,435.8,8750,0.0,0.0,110.0,110.0,433.0,0.00,0,0,1,166.7,54.2,54.2,56.5,56.5,34.0,-55.20,18.94,-19.0,5.4,1,-78.740,4.0,100.0,28.5,33.5,42.7,36.0,0,1,100.0,0.00,0.00,0.00,0.00,6697,7102,4544,4527,308.4,306.0,342.8,344.0,24.59,23.02,25.31,24.53,325.0,325.0,355.0,355.0,99.67,99.59,99.67,99.63,-0.28,-0.10,-0.14,-0.05,-0.1,-0.1,2.0,2.0,79.7,69.9,77.9,73.1,82.4,68.3,81.3,74.5,79.7,66.3,79.8,72.7,77.8,65.1,79.1,71.8,0.24,-0.20,0.06,0.06,0.00,148.37,147.98,138.45,138.45,356.7,7.7,0.47201694884823786,166.36699040603182,43.572307047683665,-86.4244104120931,-32.40915351333115
1.500,68.9,44.054032843631141,-78.681774303935995,280.7,22.0,83.4,188.4,1640.1,1640,174.2,0,1,1,0,1,1,0,0,0,100,1,1.186,26.0,0.0,1.374,74.678,66.0,0.0,26.0,26.0,26.0,26.0,-0.20,0.35,0.91,359.9,-2.69,-3.81,-1.08,-3.02,-719.26,624.34,5.5,0.00,0.00,0.00,0.00,0.04,-7.49,-7.49,0.41,13.84,-0.42,-6.54,48.41,-0.15,-0.33,4.05,100.0,0,0,137.86,0,0,0.0,0,0,0,0,7353,0,30.00,4,174.2,0,0,0.0,0.0,0.0,0.0,0,0,1.530,1.530,74.679,19.926,0,110.00,435.8,8750,0.0,0.0,110.0,110.0,433.0,0.00,0,0,1,166.7,45.5,45.5,52.0,52.0,34.0,-73.25,29.26,-59.6,25.4,1,-78.790,4.0,100.0,42.5,34.6,46.9,45.4,0,1,100.0,0.00,0.00,0.00,0.00,7864,6443,8311,5714,304.6,308.1,333.6,338.7,24.59,23.02,25.31,24.53,325.0,325.0,355.0,355.0,99.67,99.59,99.67,99.63,-0.30,-0.14,-0.29,-0.16,-0.1,-0.1,1.0,1.3,79.7,69.9,77.9,73.1,82.4,68.3,81.3,74.5,79.7,66.3,79.8,72.7,77.8,65.1,79.1,71.8,0.29,-0.20,0.05,0.02,0.00,149.05,148.76,137.86,137.86,356.7,7.7,0.995288902781499,162.04576989965278,42.13190019325653,64.81830816470989,10.803050981435831
1.550,71.3,44.054011349844757,-78.681768728142046,-282.4,-276.6,356.0,128.4,1642.5,1643,174.9,0,1,1,0,1,1,0,0,0,100,1,1.186,26.0,0.0,1.440,74.678,66.0,0.0,26.0,26.0,26.0,26.0,-0.35,0.35,0.48,366.3,-2.41,-2.74,-1.55,-2.44,-718.64,621.95,5.6,0.00,0.00,0.00,0.00,0.04,-7.49,-7.49,0.92,3.44,-0.47,8.29,48.58,-0.16,-0.21,3.45,100.0,0,0,138.13,0,0,0.0,0,0,0,0,7368,0,30.00,4,174.9,1,0,0.0,0.0,0.0,0.0,0,0,1.581,1.581,74.679,19.926,1,110.00,435.8,8750,0.0,0.0,110.0,110.0,433.0,0.00,0,0,1,333.3,73.5,73.5,33.6,33.6,34.0,-28.89,-1.30,-94.7,9.4,1,-78.840,4.1,100.0,28.4,20.7,64.7,51.8,0,1,100.0,0.00,0.00,0.00,0.00,3605,985,10026,7339,315.4,321.5,329.0,336.5,24.59,23.02,25.31,24.54,325.0,325.0,355.0,355.0,99.67,99.59,99.67,99.63,-0.35,-0.45,-0.34,-0.29,-0.0,-0.0,1.0,1.2,79.7,69.9,78.0,73.1,82.3,68.2,81.3,74.5,79.6,66.3,79.8,72.7,77.7,65.1,79.1,71.8,0.24,-0.24,-0.00,0.02,0.00,149.10,148.77,138.13,138.13,356.7,7.7,0.6894925670375279,172.8488212225028,44.65261214582725,61.21729088638574,10.803050981435831
1.600,73.8,44.053989676194057,-78.681763152348083,-308.2,-217.1,-372.0,-86.9,1645.0,1645,175.4,0,1,1,0,1,1,0,0,0,100,1,1.186,26.0,0.0,1.470,74.678,66.0,0.0,26.0,26.0,26.0,26.0,-0.16,0.29,-0.50,387.4,-2.25,-2.24,-1.92,-1.86,-718.02,619.54,5.6,0.00,0.00,0.00,0.00,0.04,-7.49,-7.49,0.65,-10.40,0.03,7.67,48.74,-0.15,-0.40,1.59,100.0,0,0,139.38,0,0,0.0,0,0,0,0,7435,0,30.00,4,175.4,0,0,0.0,0.0,0.0,0.0,1,0,1.631,1.631,74.679,19.926,0,110.00,435.8,8750,0.0,0.0,110.0,110.0,433.0,0.00,0,0,1,333.3,91.5,91.5,63.7,63.7,34.0,-2.62,-0.30,-23.7,-0.3,1,-78.890,2.5,100.0,13.0,9.9,46.1,47.5,0,1,100.0,0.00,0.00,0.00,0.00,509,403,3435,4086,323.3,323.9,345.0,343.8,24.59,23.01,25.32,24.54,325.0,325.0,355.0,355.0,99.67,99.59,99.67,99.63,-0.34,-0.37,-0.30,-0.29,-0.0,-0.1,1.8,1.9,79.7,69.8,78.0,73.1,82.3,68.2,81.3,74.5,79.6,66.2,79.8,72.7,77.7,65.0,79.1,71.8,0.17,-0.16,0.04,0.03,0.00,148.99,148.86,139.38,139.38,356.7,7.7,0.599749947894954,168.16749898829136,43.21220529140011,-43.212205063790634,-14.404068544271382
1.650,76.2,44.053969351525758,-78.681757936282779,-64.7,98.5,-391.9,-419.1,1647.4,1647,175.9,0,1,1,0,1,1,0,0,0,100,1,1.186,26.0,0.0,1.536,74.678,66.0,0.0,26.0,26.0,26.0,26.0,-0.12,0.30,-0.49,394.2,-2.74,-2.30,-1.30,-1.33,-717.44,617.28,5.7,0.00,0.00,0.00,0.00,0.05,-7.49,-7.49,0.14,-8.24,0.15,-2.96,48.86,-0.15,-0.55,1.22,100.0,0,0,141.61,0,0,0.0,0,0,0,0,7553,0,30.00,4,175.9,1,0,0.0,0.0,0.0,0.0,1,0,1.680,1.680,74.679,19.926,1,110.00,435.8,8750,0.0,0.0,110.0,110.0,433.0,0.00,0,0,1,333.3,81.2,81.2,79.2,79.2,34.0,-28.19,9.03,-8.0,1.5,1,-78.940,1.0,100.0,9.8,14.8,26.5,26.5,0,1,100.0,0.00,0.00,0.00,0.00,3781,5092,2229,2304,317.1,312.5,349.1,348.6,24.59,23.01,25.32,24.54,325.0,325.0,355.0,355.0,99.67,99.59,99.67,99.63,-0.34,-0.14,-0.27,-0.12,-0.1,-0.0,3.2,3.3,79.7,69.8,78.0,73.1,82.2,68.1,81.3,74.5,79.5,66.2,79.8,72.7,77.6,65.0,79.1,71.8,0.08,-0.08,0.09,0.08,0.00,149.54,149.40,141.60,141.60,356.7,7.7,0.5869412236331675,168.52760071612374,43.21220529140011,64.8183078801975,10.803051550459415
1.700,78.6,44.053947587942893,-78.681752360488815,292.2,177.1,-105.1,-62.2,1649.9,1650,176.4,0,1,1,0,1,1,0,0,0,100,1,1.186,26.0,0.0,1.566,74.678,66.0,0.0,26.0,26.0,26.0,26.0,-0.11,0.39,0.00,386.5,-2.44,-2.78,-1.59,-2.23,-716.82,614.86,5.7,0.00,0.00,0.00,0.00,0.05,-7.49,-7.49,0.08,4.32,-0.15,-8.29,49.01,-0.16,-0.50,1.53,100.0,0,0,141.49,0,0,0.0,0,0,0,0,7547,0,30.00,4,176.4,0,0,0.0,0.0,0.0,0.0,1,0,1.731,1.731,74.679,19.926,0,110.00,435.8,8750,0.0,0.0,110.0,110.0,433.0,0.00,0,0,1,333.3,64.8,64.8,84.2,84.2,34.0,-37.32,18.11,-24.0,6.2,1,-78.990,-1.1,100.0,24.4,23.7,21.2,23.4,0,1,100.0,0.00,0.00,0.00,0.00,6097,4387,4648,2690,309.6,313.0,343.6,347.3,24.59,23.01,25.32,24.54,325.0,325.0,355.0,355.0,99.67,99.59,99.67,99.63,-0.13,-0.03,-0.28,-0.09,-0.1,-0.1,2.8,2.9,79.7,69.8,78.0,73.1,82.2,68.1,81.2,74.4,79.4,66.2,79.7,72.7,77.5,65.0,79.0,71.8,-0.04,0.03,0.09,0.08,0.00,150.54,150.32,141.49,141.49,356.7,7.7,0.4052159917870962,174.6493297763111,44.29251044644605,18.00508525357145,-3.6010169938119674
1.750,81.1,44.053925734427871,-78.681746874627024,80.8,-44.3,399.6,287.8,1652.3,1652,177.1,0,1,1,0,1,1,0,0,0,100,1,1.186,26.0,0.0,1.632,74.678,66.0,0.0,26.0,26.0,26.0,26.0,-0.10,0.33,-0.01,378.4,-2.03,-2.82,-1.32,-1.82,-716.21,612.43,5.7,0.00,0.00,0.00,0.00,0.05,-7.49,-7.49,0.38,4.75,-0.16,4.87,49.20,-0.14,-0.33,0.50,100.0,0,0,140.58,0,0,0.0,0,0,0,0,7499,0,30.00,4,177.1,1,0,0.0,0.0,0.0,0.0,1,0,1.781,1.781,74.679,19.926,1,110.00,435.8,8750,0.0,0.0,110.0,110.0,433.0,0.00,0,0,1,333.3,71.5,71.5,65.3,65.3,34.0,-12.89,4.97,-39.0,9.4,1,-79.040,-3.1,100.0,28.4,21.5,41.2,37.8,0,1,100.0,0.00,0.00,0.00,0.00,3387,1467,6148,5483,316.0,320.3,340.1,340.9,24.59,23.01,25.32,24.54,325.0,325.0,355.0,355.0,99.67,99.59,99.67,99.63,-0.05,-0.03,-0.28,-0.14,0.0,-0.1,1.6,1.7,79.7,69.8,78.0,73.1,82.1,68.1,81.2,74.4,79.4,66.1,79.7,72.7,77.5,64.9,79.0,71.8,-0.15,0.16,0.05,0.05,0.00,150.92,150.92,140.58,140.58,356.7,7.7,0.3449637662132068,170.3281092414809,42.85210359201891,-39.61118835449014,-14.404068544271382
1.800,83.6,44.053905050030934,-78.681741658561705,-299.0,-114.7,113.8,98.6,1654.8,1655,177.6,0,1,1,0,1,1,0,0,0,100,1,1.186,26.0,0.0,1.662,74.678,66.0,0.0,26.0,26.0,26.0,26.0,-0.03,0.31,-0.14,382.3,-2.53,-2.10,-1.41,-1.21,-715.63,610.13,5.7,0.00,0.00,0.00,0.00,0.05,-7.49,-7.49,0.38,-4.13,0.23,6.01,49.36,-0.08,-0.30,-1.38,100.0,0,0,140.72,0,0,0.0,0,0,0,0,7506,0,30.00,4,177.6,0,0,0.0,0.0,0.0,0.0,1,0,1.830,1.830,74.679,19.926,0,110.00,435.8,8750,0.0,0.0,110.0,110.0,433.0,0.00,0,0,1,166.7,84.4,84.4,54.5,54.5,34.0,-2.68,11.47,-22.8,9.4,1,-79.090,-4.7,100.0,13.5,15.7,46.9,42.7,0,1,98.4,0.00,0.00,0.00,0.00,1219,2896,4584,5951,322.0,317.1,343.0,339.6,24.59,23.01,25.32,24.54,325.0,325.0,355.0,355.0,99.67,99.59,99.67,99.63,0.07,0.07,-0.17,-0.07,-0.0,-0.0,1.5,1.5,79.7,69.8,78.0,73.1,82.0,68.0,81.2,74.4,79.3,66.1,79.7,72.7,77.4,64.9,79.0,71.8,-0.25,0.25,0.04,0.03,0.00,150.98,151.20,140.72,140.72,356.7,7.7,0.34146742157927745,170.6882109408621,42.85210359201891,57.61627360806244,14.404068544271382
1.850,86.0,44.053883106583754,-78.681736172699914,-29.9,44.1,-289.2,-116.8,1657.3,1657,178.1,0,1,1,0,1,1,0,0,0,100,1,1.186,26.0,0.0,1.695,74.678,66.0,0.0,26.0,26.0,26.0,26.0,0.10,0.22,-0.38,388.6,-2.96,-2.10,-1.81,-1.17,-715.02,607.69,5.8,0.00,0.00,0.00,0.00,0.05,-7.49,-7.49,0.13,-4.82,0.26,-6.45,49.48,-0.01,-0.36,-3.06,100.0,0,0,140.88,0,0,0.0,0,0,0,0,7515,0,30.00,4,178.1,1,0,0.0,0.0,0.0,0.0,1,0,1.881,1.881,74.679,19.926,1,110.00,435.8,8750,0.0,0.0,110.0,110.0,433.0,0.00,0,0,1,166.7,82.6,82.6,69.6,69.6,34.0,-1.04,25.55,-7.2,19.5,1,-79.140,-6.2,100.0,12.0,17.9,32.4,36.9,0,1,47.6,0.00,0.00,0.00,0.00,1038,3849,2839,4460,322.7,314.9,347.8,343.1,24.59,23.01,25.32,24.54,325.0,325.0,355.0,355.0,99.67,99.59,99.67,99.63,0.23,0.28,0.05,0.16,-0.1,-0.0,1.6,1.5,79.7,69.8,78.0,73.1,82.0,68.0,81.2,74.4,79.3,66.0,79.7,72.7,77.4,64.9,79.0,71.7,-0.33,0.34,0.07,0.06,0.00,151.34,151.62,140.88,140.88,356.7,7.7,0.4503332099679081,176.08973660228713,44.29251044644605,2.8451182743083336e-07,3.6010169938119674
1.900,88.5,44.053861073204409,-78.681730596905950,140.3,32.8,-3.5,-69.2,1659.7,1660,178.0,0,1,1,0,1,1,0,0,0,100,1,1.186,26.0,0.0,1.758,74.678,66.0,0.0,26.0,26.0,26.0,26.0,0.26,-0.19,-0.22,385.8,-2.96,-2.56,-1.33,-1.49,-714.40,605.24,5.8,0.00,0.00,0.00,0.00,0.05,-7.49,-7.49,-0.08,-3.80,-0.12,-4.11,49.44,0.07,-0.44,-4.54,100.0,0,0,138.29,0,0,0.0,0,0,0,0,7377,0,30.00,4,178.0,0,0,0.0,0.0,0.0,0.0,1,0,1.931,1.931,74.679,19.926,0,110.00,435.8,8750,0.0,0.0,110.0,110.0,433.0,0.00,0,0,1,333.3,74.8,74.8,75.0,75.0,34.0,3.87,30.20,-2.6,25.1,1,-79.190,-9.4,100.0,19.0,19.6,32.3,33.4,0,1,0.0,0.00,0.00,0.00,0.00,3572,3312,3210,3554,316.0,316.2,346.6,345.1,24.59,23.01,25.32,24.54,325.0,325.0,355.0,355.0,99.67,99.59,99.67,99.63,0.43,0.49,0.14,0.29,0.0,-0.0,-0.2,-0.5,79.7,69.8,78.0,73.1,81.9,68.0,81.1,74.4,79.2,66.0,79.6,72.6,77.3,64.8,78.9,71.7,-0.50,0.50,0.08,0.06,0.00,151.30,151.66,138.29,138.29,356.7,7.7,0.39,170.68821096931327,43.21220529140011,-57.61627360806244,-7.202034556647519
1.950,91.0,44.053840478739630,-78.681725380840646,-24.5,-15.7,53.0,-2.5,1662.2,1662,177.7,0,1,1,0,1,1,0,0,0,100,1,1.186,26.0,0.0,1.788,74.678,66.0,0.0,26.0,26.0,26.0,26.0,0.35,-0.21,-0.14,384.2,-2.91,-2.77,-1.58,-2.97,-713.82,602.95,5.8,0.00,0.00,0.00,0.00,0.05,-7.49,-7.49,-0.32,-6.95,-0.14,3.59,49.34,0.13,-0.53,-5.35,100.0,0,0,137.91,0,0,0.0,0,0,0,0,7356,0,30.00,4,177.7,1,0,0.0,0.0,0.0,0.0,1,0,1.980,1.980,74.679,19.926,1,110.00,435.8,8750,0.0,0.0,110.0,110.0,433.0,0.00,0,0,1,166.7,74.0,74.0,70.6,70.6,34.0,15.90,58.63,-2.9,35.4,1,-79.240,-14.2,100.0,17.8,18.8,34.9,33.3,0,1,0.0,0.00,0.00,0.00,0.00,4291,4578,3440,3515,315.3,312.5,346.0,345.2,24.59,23.01,25.32,24.54,325.0,325.0,355.0,355.0,99.67,99.59,99.67,99.63,0.67,0.77,0.18,0.33,0.0,-0.1,-0.1,-0.5,79.7,69.8,78.0,73.1,81.9,67.9,81.1,74.3,79.2,66.0,79.6,72.6,77.3,64.8,78.9,71.7,-0.77,0.76,0.07,0.05,0.00,150.83,151.25,137.90,137.90,356.7,7.7,0.43150898020782835,170.3281092414809,43.5723069907813,43.212205063790634,28.808137088542836
2.000,93.4,44.053818535292450,-78.681719715114525,82.7,181.4,-204.1,-45.8,1664.7,1665,177.3,0,1,1,0,1,1,0,0,0,100,1,1.186,26.0,0.0,1.851,74.678,66.0,0.0,26.0,26.0,26.0,26.0,0.50,-0.21,-0.32,383.9,-2.42,-2.11,-2.21,-0.45,-713.19,600.51,5.8,0.00,0.00,0.00,0.00,0.06,-7.49,-7.49,-0.50,0.05,0.12,3.23,49.23,0.24,-0.62,-9.93,100.0,0,0,137.79,0,0,0.0,0,0,0,0,7350,0,30.00,4,177.3,0,0,0.0,0.0,0.0,0.0,1,0,2.031,2.031,74.679,19.926,0,110.00,435.8,8750,0.0,0.0,110.0,110.0,433.0,0.00,0,0,1,166.7,66.3,66.3,78.6,78.6,34.0,21.45,77.87,2.5,39.8,1,-79.290,-17.3,100.0,21.9,27.9,24.7,31.0,0,1,0.0,0.00,0.00,0.00,0.00,3212,5457,2350,4774,316.6,310.1,349.3,343.6,24.59,23.01,25.32,24.54,325.0,325.0,355.0,355.0,99.67,99.59,99.67,99.63,0.90,0.97,0.43,0.58,-0.0,-0.0,-0.3,-0.6,79.7,69.8,78.0,73.1,81.8,68.0,81.0,74.3,79.1,66.0,79.5,72.5,77.2,64.8,78.8,71.6,-0.98,0.98,0.09,0.06,0.00,150.55,151.37,137.58,138.00,356.7,7.7,0.6296824596572466,175.00943147569234,46.093019000254394,-14.404068259759413,21.606103100919043
2.050,95.9,44.053796771709585,-78.681713869524089,-13.8,48.7,73.6,170.5,1667.1,1667,176.9,0,1,1,0,1,1,0,0,0,100,1,1.186,26.0,0.0,1.884,74.678,66.0,0.9,26.0,26.0,26.0,26.0,0.71,-0.26,0.06,379.8,-2.76,-1.94,-1.82,-0.83,-712.54,598.09,5.8,0.00,0.00,0.00,0.00,0.06,-7.49,-7.49,-0.48,0.46,0.18,-2.28,49.11,0.39,-0.61,-12.09,100.0,0,0,137.55,0,0,0.0,0,0,0,0,7337,0,30.00,4,176.9,1,0,0.0,0.0,0.0,0.0,1,0,2.081,2.081,74.679,19.926,1,110.00,435.8,8750,0.0,0.0,110.0,110.0,433.0,0.00,0,0,1,333.3,67.2,67.2,70.0,70.0,34.0,16.34,78.71,16.3,64.3,1,-79.340,-17.3,100.0,21.2,30.3,28.4,39.6,0,1,0.0,0.00,0.00,0.00,0.00,2117,5093,3311,5136,318.8,310.4,346.7,341.4,24.59,23.01,25.32,24.54,325.0,325.0,355.0,355.0,99.67,99.59,99.67,99.63,1.12,1.14,0.69,0.83,-0.1,-0.1,-0.2,-0.4,79.7,69.8,78.0,73.1,81.8,68.0,81.0,74.3,79.1,66.0,79.4,72.5,77.2,64.9,78.8,71.6,-1.01,1.01,0.09,0.04,0.00,150.03,151.01,137.23,137.87,356.7,7.7,0.7584853327520579,168.88770241550495,45.732917300873204,-72.02034215233368,3.6010169938118963
2.100,98.4,44.053776357109129,-78.681708293730125,-59.3,-80.5,15.7,16.4,1669.6,1670,176.3,0,1,1,0,1,1,0,0,0,100,1,1.186,26.0,0.0,1.947,74.678,66.0,27.3,26.0,26.0,26.0,26.0,0.85,-0.61,-0.14,379.0,-2.90,-2.74,-2.40,-0.49,-711.92,595.82,5.8,0.00,0.00,0.00,0.00,0.06,-7.49,-7.49,-0.50,-2.24,0.04,-3.23,48.95,0.56,-0.56,-12.37,100.0,0,0,136.44,0,0,0.0,0,0,0,0,7278,0,30.00,4,176.3,0,0,0.0,0.0,0.0,0.0,0,0,2.130,2.130,74.679,19.926,0,110.00,435.8,8750,0.0,0.0,110.0,110.0,433.0,0.00,0,0,1,166.7,68.3,68.3,68.5,68.5,34.0,30.94,97.65,28.0,80.7,1,-79.390,-16.7,100.0,18.3,26.3,29.2,40.4,0,1,0.0,0.00,0.00,0.00,0.00,3868,5837,4350,5717,315.8,308.7,344.5,340.2,24.59,23.01,25.32,24.54,325.0,325.0,355.0,355.0,99.67,99.59,99.67,99.63,1.22,1.31,0.91,1.07,-1.4,-1.1,-0.5,-0.8,79.7,69.8,78.0,73.1,81.7,68.0,80.9,74.3,79.0,66.0,79.4,72.5,77.1,64.9,78.7,71.6,-0.97,0.96,0.08,0.03,0.00,147.41,148.77,136.18,136.71,356.7,7.7,1.0555567251455509,167.80739726045897,46.45312069963558,18.00508525357145,28.80813651951918
2.150,100.8,44.053754863322752,-78.681702268275373,152.8,172.8,-66.1,-79.8,1672.0,1672,174.2,0,1,1,0,1,1,0,0,0,100,1,1.186,26.0,0.0,1.977,74.678,66.0,100.0,26.0,26.0,26.0,26.0,0.76,-1.90,0.02,375.4,-2.68,-2.12,-1.93,0.60,-711.25,593.43,5.8,0.00,0.00,0.00,0.00,0.06,-7.49,-7.49,-0.56,0.37,0.04,0.25,48.32,0.74,-0.67,-14.78,100.0,0,0,131.16,0,0,0.0,0,0,0,0,6996,0,30.00,4,174.2,1,0,0.0,0.0,0.0,0.0,0,0,2.181,2.181,74.679,19.926,1,110.00,435.8,8750,0.0,0.0,110.0,110.0,433.0,0.00,0,0,1,333.3,52.9,52.9,74.3,74.3,34.0,10.26,86.70,9.8,55.4,1,-79.440,-16.8,100.0,25.9,34.9,25.9,36.4,0,1,0.0,0.00,0.00,0.00,0.00,5455,8575,2260,5482,311.2,300.9,350.2,341.9,24.59,23.01,25.33,24.54,325.0,325.0,355.0,355.0,99.67,99.59,99.67,99.63,1.33,1.45,1.18,1.30,-7.2,-4.6,-4.0,-3.0,79.7,69.8,78.0,73.1,81.8,68.1,80.9,74.3,79.1,66.1,79.4,72.5,77.2,65.0,78.7,71.6,-0.96,0.98,0.09,0.05,0.00,136.79,142.50,129.37,132.95,356.7,7.7,2.046460358765837,170.6882109408621,48.61373095282512,-54.01525632973829,10.803051550459628
2.200,103.1,44.053733729265012,-78.681696152888449,-10.0,53.2,71.9,97.8,1674.4,1674,170.9,1,1,1,0,1,1,0,0,0,100,1,1.186,26.0,0.0,2.043,74.678,66.0,100.0,26.0,26.0,26.0,26.0,0.79,-1.53,-0.00,375.5,-3.27,-2.40,-1.52,0.19,-710.57,591.08,5.9,0.00,0.00,0.00,0.00,0.06,-7.49,-7.49,-0.63,-3.60,0.05,-1.86,47.42,0.89,-0.84,-11.80,100.0,0,0,129.28,0,0,0.0,0,0,0,0,6896,0,30.00,4,170.9,0,0,0.0,0.0,0.0,0.0,0,0,2.231,2.231,74.679,19.926,0,110.00,435.8,8750,0.0,0.0,110.0,110.0,433.0,0.00,0,0,1,333.3,59.7,59.7,67.1,67.1,34.0,-0.80,35.35,20.9,84.6,1,-79.490,-19.0,100.0,25.4,37.6,29.5,41.3,0,1,0.0,0.00,0.00,0.00,0.00,2069,6567,2845,6316,319.4,306.9,347.9,339.6,24.59,23.01,25.33,24.54,325.0,325.0,355.0,355.0,99.67,99.59,99.67,99.63,1.80,1.82,1.33,1.49,-13.1,-6.3,-3.3,-2.5,79.7,69.8,78.0,73.1,81.9,68.2,80.9,74.3,79.2,66.3,79.3,72.6,77.3,65.1,78.7,71.7,-1.07,1.08,0.08,0.04,0.00,123.23,136.32,128.03,130.53,356.7,7.7,1.7219175357722565,162.40587162748514,47.533425854681546,-72.02034186782157,7.202034556647519
2.250,105.5,44.053714303918319,-78.681690397230170,18.4,-133.7,-105.1,-84.8,1676.7,1677,168.2,0,1,1,0,1,1,0,0,0,100,1,1.186,26.0,0.0,2.076,74.678,66.0,100.0,26.0,26.0,26.0,26.0,0.58,-1.67,-0.09,380.9,-2.79,-2.87,-1.96,-1.26,-709.93,588.92,5.9,0.00,0.00,0.00,0.00,0.06,-7.49,-7.49,-0.93,-6.44,-0.14,-3.18,46.64,0.96,-1.05,-9.28,100.0,0,0,124.66,0,0,0.0,0,0,0,0,6650,0,30.00,4,168.2,1,0,0.0,0.0,0.0,0.0,0,0,2.280,2.280,74.679,19.926,1,110.00,435.8,8750,0.0,0.0,110.0,110.0,433.0,0.00,0,0,1,333.3,59.1,59.1,83.8,83.8,34.0,4.87,-7.62,3.1,26.4,1,-79.540,-21.0,100.0,26.3,30.9,24.2,37.0,0,1,0.0,0.00,0.00,0.00,0.00,4714,6713,964,2729,312.9,306.9,352.0,347.7,24.59,23.01,25.33,24.54,325.0,325.0,355.0,355.0,99.68,99.59,99.67,99.63,2.06,2.17,1.39,1.53,-8.2,-11.8,-5.3,-3.7,79.7,69.8,78.0,73.1,82.0,68.4,80.8,74.3,79.3,66.4,79.3,72.6,77.3,65.3,78.6,71.7,-1.19,1.20,0.10,0.06,0.00,129.85,126.25,123.01,126.32,356.7,7.7,1.7701412373028318,163.48617675407993,49.333934408489874,-18.005085822595106,21.606102531895175
2.300,107.8,44.053692900064100,-78.681683832182443,204.3,101.7,-174.3,-313.3,1679.0,1679,164.7,0,1,1,0,1,1,0,0,0,100,1,1.186,26.0,0.0,2.109,74.678,66.0,100.0,26.0,26.0,26.0,26.0,0.66,-1.75,0.18,383.2,-3.50,-3.34,-1.52,-0.99,-709.20,586.54,5.9,0.00,0.00,0.00,0.00,0.06,-7.49,-7.49,-0.89,7.06,-0.12,8.15,45.66,1.16,-1.05,-15.38,100.0,0,0,117.72,0,0,0.0,0,0,0,0,6279,0,30.00,4,164.7,0,0,0.0,0.0,0.0,0.0,0,0,2.334,2.334,74.679,19.926,0,110.00,435.8,8750,0.0,0.0,110.0,110.0,433.0,0.00,0,0,1,166.7,52.6,52.6,92.8,92.8,34.0,16.10,-6.51,-0.0,6.4,1,-79.590,-20.1,100.0,36.5,36.0,15.5,21.4,0,1,0.0,0.00,0.00,0.00,0.00,4077,5851,1596,2941,313.6,308.6,350.7,347.1,24.59,23.01,25.32,24.54,325.0,325.0,355.0,355.0,99.68,99.60,99.67,99.63,2.04,2.13,1.68,1.92,-6.1,-10.4,-9.4,-7.4,79.7,69.8,78.0,73.1,82.1,68.7,80.8,74.3,79.4,66.7,79.3,72.6,77.5,65.5,78.6,71.7,-1.14,1.18,0.11,0.09,0.00,129.56,125.86,115.60,119.84,356.7,7.7,1.8789624796679683,160.60536304522563,49.694036107871064,-154.84373585512685,-21.606103100918972
2.350,110.0,44.053674194174697,-78.681677986592007,-305.8,-103.0,200.1,245.5,1681.2,1681,161.7,1,1,1,0,1,1,0,0,0,100,1,1.186,26.0,0.0,2.178,74.678,66.0,100.0,26.0,26.0,26.0,26.0,0.81,-1.57,0.11,382.4,-3.18,-1.84,-2.89,-2.08,-708.55,584.46,5.9,0.00,0.00,0.00,0.00,0.07,-7.49,-7.49,-0.66,1.04,0.34,9.25,44.84,1.33,-0.84,-12.62,100.0,0,0,120.32,0,0,0.0,0,0,0,0,6418,0,30.00,4,161.7,1,0,0.0,0.0,0.0,0.0,0,0,2.381,2.381,74.679,19.926,1,110.00,435.8,8750,0.0,0.0,110.0,110.0,433.0,0.00,0,0,1,333.3,65.5,65.5,72.1,72.1,34.0,-1.00,23.58,14.0,40.8,1,-79.640,-16.4,100.0,21.2,30.8,25.5,33.6,0,1,0.0,0.00,0.00,0.00,0.00,2282,6852,2647,3962,319.2,306.3,348.0,344.8,24.59,23.01,25.32,24.54,325.0,325.0,355.0,355.0,99.68,99.60,99.67,99.63,2.21,2.28,1.87,2.08,-14.7,-7.0,-5.0,-4.2,79.7,69.8,78.0,73.1,82.2,68.9,80.8,74.4,79.5,66.8,79.3,72.6,77.5,65.6,78.6,71.7,-0.99,0.99,0.08,0.05,0.00,119.12,128.25,119.34,121.29,356.7,7.7,1.7700564962734948,148.00180316856725,47.17332409839798,-111.631530222312,-7.2020345566474475
2.400,112.2,44.053655937946097,-78.681672051069413,-156.9,52.1,-131.1,-61.4,1683.5,1683,159.4,1,1,1,0,1,1,0,0,0,100,1,1.186,26.0,0.0,2.214,74.678,66.0,100.0,26.0,26.0,26.0,26.0,0.78,-1.50,-0.19,385.7,-3.28,-0.97,-2.47,-0.50,-707.89,582.43,5.9,0.00,0.00,0.00,0.00,0.07,-7.49,-7.49,-0.66,-0.72,0.31,-10.71,44.20,1.32,-0.74,-6.25,100.0,0,0,114.94,0,0,0.0,0,0,0,0,6131,0,30.00,4,159.4,0,0,0.0,0.0,0.0,0.0,0,0,2.430,2.430,74.679,19.926,0,110.00,435.8,8750,0.0,0.0,110.0,110.0,433.0,0.00,0,0,1,166.7,67.7,67.7,72.9,72.9,34.0,-0.54,19.60,-0.8,69.3,1,-79.690,-10.9,100.0,13.4,33.4,18.9,30.6,0,1,0.0,0.00,0.00,0.00,0.00,1335,8131,1814,5028,321.7,303.2,350.8,342.0,24.59,23.01,25.32,24.54,325.0,325.0,355.0,355.0,99.68,99.60,99.67,99.63,2.25,2.34,1.89,2.11,-13.8,-7.6,-11.9,-3.1,79.7,69.8,78.0,73.1,82.2,69.1,80.8,74.4,79.5,67.0,79.3,72.7,77.5,65.8,78.6,71.8,-0.69,0.68,0.11,0.06,0.00,118.18,125.92,108.99,120.89,356.7,7.7,1.7013230145977571,149.44221002299443,48.97383265220632,28.808136804030653,32.40915465137853
2.450,114.4,44.053636872328049,-78.681665755818173,185.1,-36.8,-5.8,-14.3,1685.6,1686,156.5,0,1,1,0,1,1,0,0,0,100,1,1.186,26.0,0.0,2.247,74.678,66.0,100.0,26.0,26.0,26.0,26.0,0.57,-1.77,-0.07,383.9,-2.50,-2.28,-1.72,-0.60,-707.19,580.31,5.9,0.00,0.00,0.00,0.00,0.07,-7.49,-7.49,-0.75,-2.32,-0.62,-19.08,43.39,1.13,-0.75,-4.96,100.0,0,0,112.32,0,0,0.0,0,0,0,0,5991,0,30.00,4,156.5,1,0,0.0,0.0,0.0,0.0,0,0,2.481,2.481,74.679,19.926,1,110.00,435.8,8750,0.0,0.0,110.0,110.0,433.0,0.00,0,0,1,166.7,60.1,60.1,85.9,85.9,34.0,24.29,-3.00,-1.4,12.3,1,-79.740,-5.0,100.0,22.6,31.6,18.7,29.9,0,1,0.0,0.00,0.00,0.00,0.00,6335,5154,2904,1845,308.9,310.6,348.0,349.9,24.59,23.01,25.32,24.54,325.0,325.0,355.0,355.0,99.68,99.60,99.67,99.63,1.73,1.89,1.71,1.89,-6.4,-9.8,-10.8,-4.8,79.7,69.8,78.0,73.1,82.3,69.2,80.9,74.4,79.5,67.2,79.3,72.7,77.6,66.0,78.6,71.8,-0.32,0.34,0.10,0.07,0.00,124.63,119.36,109.16,115.49,356.7,7.7,1.86083314673831,150.88261684897032,50.41423956353583,-61.21729117089785,5.690237259159403e-07
2.500,116.5,44.053618256370811,-78.681659460566920,229.9,28.7,58.1,-69.7,1687.8,1688,152.9,0,1,1,0,1,1,0,0,0,100,1,1.186,26.0,0.0,2.283,74.678,66.0,100.0,26.0,26.0,26.0,26.0,0.68,-1.84,0.18,379.5,-3.15,-2.75,-1.61,-0.48,-706.49,578.24,5.9,0.00,0.00,0.00,0.00,0.07,-7.49,-7.49,-0.83,0.63,-0.96,2.79,42.39,1.04,-0.88,-8.56,100.0,0,0,112.27,0,0,0.0,0,0,0,0,5989,0,30.00,4,152.9,0,0,0.0,0.0,0.0,0.0,0,0,2.531,2.531,74.679,19.926,0,110.00,435.8,8750,0.0,0.0,110.0,110.0,433.0,0.00,0,0,1,333.3,50.7,50.7,86.3,86.3,34.0,30.32,38.29,11.8,8.2,1,-79.790,-2.4,100.0,34.1,33.0,21.6,26.4,0,1,0.0,0.00,0.00,0.00,0.00,6282,7052,2542,2454,308.6,305.3,348.5,349.6,24.59,23.01,25.32,24.54,325.0,325.0,355.0,355.0,99.68,99.60,99.67,99.63,1.23,1.33,1.55,1.73,-4.6,-6.2,-5.3,-6.4,79.7,69.8,78.0,73.1,82.4,69.4,80.9,74.5,79.6,67.3,79.3,72.7,77.7,66.1,78.7,71.8,-0.14,0.16,0.10,0.08,0.00,123.31,122.68,112.48,112.07,356.7,7.7,1.9698730923589978,143.32048090590465,48.97383270910869,-68.41932487400896,-5.690236548616667e-07
2.550,118.6,44.053601079328139,-78.681653525044325,-160.2,23.4,63.3,38.7,1689.8,1690,149.7,0,1,1,0,1,1,0,0,0,100,1,1.186,26.0,0.0,2.358,74.678,66.0,100.0,26.0,26.0,26.0,26.0,0.66,-1.65,-0.08,381.2,-2.91,-1.65,-1.81,-0.62,-705.83,576.33,6.0,0.00,0.00,0.00,0.00,0.07,-7.49,-7.49,-0.81,-0.63,-0.51,9.70,41.52,1.00,-0.90,-5.90,100.0,0,0,112.17,0,0,0.0,0,0,0,0,5983,0,30.00,4,149.7,1,0,0.0,0.0,0.0,0.0,0,0,2.580,2.580,74.679,19.926,1,110.00,435.8,8750,0.0,0.0,110.0,110.0,433.0,0.00,0,0,1,166.7,60.8,60.8,74.3,74.3,34.0,-0.56,33.39,11.4,61.9,1,-79.840,-1.7,100.0,26.1,34.2,24.7,28.3,0,1,0.0,0.00,0.00,0.00,0.00,2114,7139,2499,4833,319.3,305.9,348.7,342.6,24.59,23.01,25.32,24.54,325.0,325.0,355.0,355.0,99.68,99.60,99.67,99.63,1.18,1.26,1.39,1.62,-11.8,-6.3,-4.9,-3.0,79.7,69.8,78.0,73.1,82.5,69.5,80.9,74.5,79.7,67.4,79.3,72.7,77.7,66.2,78.6,71.8,-0.09,0.12,0.09,0.08,0.00,114.25,119.96,110.80,113.53,356.7,7.7,1.7789041570584965,144.04068436156942,50.414239506633464,14.404068828783352,28.80813651951918
2.600,120.6,44.053582283506572,-78.681646870064441,-54.6,-4.9,-171.0,46.8,1691.9,1692,146.7,1,1,1,0,1,1,0,0,0,100,1,1.186,26.0,0.0,2.394,74.678,66.0,100.0,26.0,26.0,26.0,26.0,0.58,-1.53,-0.01,384.3,-3.43,-1.67,-1.53,-1.18,-705.09,574.24,6.0,0.00,0.00,0.00,0.00,0.07,-7.49,-7.49,-0.90,-0.41,-0.41,-4.72,40.68,0.81,-0.94,-2.64,100.0,0,0,105.21,0,0,0.0,0,0,0,0,5612,0,30.00,4,146.7,0,0,0.0,0.0,0.0,0.0,1,0,2.634,2.634,74.679,19.926,0,110.00,435.8,8750,0.0,0.0,110.0,110.0,433.0,0.00,0,0,1,166.7,58.2,58.2,88.6,88.6,34.0,-1.15,52.07,-0.1,28.7,1,-79.890,-2.8,100.0,23.4,33.9,16.2,30.6,0,1,0.0,0.00,0.00,0.00,0.00,4782,7574,333,2570,313.1,304.7,353.8,347.7,24.59,23.01,25.32,24.54,325.0,325.0,355.0,355.0,99.68,99.60,99.67,99.63,1.15,1.33,1.19,1.37,-13.3,-5.4,-12.2,-2.8,79.7,69.8,78.0,73.1,82.5,69.6,80.8,74.5,79.8,67.6,79.3,72.7,77.8,66.3,78.6,71.8,-0.14,0.17,0.11,0.07,0.00,107.40,118.44,99.39,111.03,356.7,7.7,1.636276260293475,144.76088778878298,51.85464636106061,-144.0406845891792,-28.808137088542907
2.650,122.6,44.053564926599577,-78.681640574813201,-41.4,-65.7,28.0,-153.3,1693.9,1694,143.9,0,1,1,0,1,1,0,0,0,100,1,1.186,26.0,0.0,2.433,74.678,66.0,100.0,26.0,26.0,26.0,26.0,0.35,-1.58,-0.27,389.1,-2.42,-2.72,-1.37,-1.29,-704.39,572.31,6.0,0.00,0.00,0.00,0.00,0.07,-7.49,-7.49,-0.77,2.38,-0.88,-11.55,39.92,0.69,-0.73,-2.69,100.0,0,0,103.90,0,0,0.0,0,0,0,0,5542,0,30.00,4,143.9,1,0,0.0,0.0,0.0,0.0,1,0,2.684,2.684,74.679,19.926,1,110.00,435.8,8750,0.0,0.0,110.0,110.0,433.0,0.00,0,0,1,166.7,68.1,68.1,84.6,84.6,34.0,-0.44,-1.83,4.3,2.5,1,-79.940,-5.0,100.0,21.3,30.7,17.6,23.0,0,1,0.0,0.00,0.00,0.00,0.00,2713,3713,2445,2827,317.4,314.4,348.1,348.0,24.59,23.01,25.32,24.54,325.0,325.0,355.0,355.0,99.68,99.60,99.67,99.63,1.25,1.27,1.02,1.31,-10.1,-10.3,-6.8,-8.3,79.7,69.8,78.0,73.1,82.6,69.8,80.8,74.5,79.8,67.7,79.3,72.7,77.8,66.4,78.6,71.8,-0.25,0.26,0.11,0.09,0.00,108.12,108.53,104.37,103.44,356.7,7.7,1.6406705946045357,129.6366159026515,47.533425797779174,-176.44983867153385,-46.81322262662633
2.700,124.6,44.053549907928762,-78.681634999019252,-75.6,-201.3,174.2,23.0,1695.8,1696,141.6,1,1,1,0,1,1,0,0,0,100,1,1.186,26.0,0.0,2.472,74.678,66.0,100.0,26.0,26.0,26.0,26.0,0.27,-1.05,-0.39,392.3,-2.73,-2.58,-1.89,-2.02,-703.77,570.64,6.0,0.00,0.00,0.00,0.00,0.07,-7.49,-7.49,-0.84,-5.38,-1.18,-2.73,39.28,0.60,-0.66,-1.34,100.0,0,0,104.89,0,0,0.0,0,0,0,0,5595,0,30.00,4,141.6,0,0,0.0,0.0,0.0,0.0,1,0,2.730,2.730,74.679,19.926,0,110.00,435.8,8750,0.0,0.0,110.0,110.0,433.0,0.00,0,0,1,333.3,78.3,78.3,82.2,82.2,34.0,-0.47,-1.47,6.7,8.9,1,-79.990,-9.0,100.0,17.6,20.6,26.3,24.1,0,1,0.0,0.00,0.00,0.00,0.00,2117,2575,2125,1704,320.0,318.0,349.5,350.3,24.59,23.01,25.32,24.54,325.0,325.0,355.0,355.0,99.68,99.60,99.67,99.63,1.33,1.36,0.86,1.05,-15.7,-12.6,-4.1,-5.0,79.7,69.8,78.0,73.1,82.7,69.8,80.8,74.5,79.9,67.7,79.3,72.7,77.9,66.5,78.6,71.8,-0.49,0.49,0.10,0.09,0.00,103.56,107.58,105.24,104.54,356.7,7.7,1.1521718621802912,127.1159039216296,47.17332409839798,28.808137088542765,18.005086107107005
2.750,126.5,44.053533180546893,-78.681628793700170,58.8,-27.9,-120.1,-82.0,1697.8,1698,139.1,0,1,1,0,1,1,0,0,0,100,1,1.186,26.0,0.0,-15.171,74.678,66.0,100.0,26.0,26.0,26.0,26.0,0.34,-1.54,-0.22,391.2,-2.36,-3.00,-1.93,-0.71,-703.08,568.78,6.0,0.00,0.00,0.00,0.00,0.08,-7.49,-7.49,-1.22,-7.56,-1.17,5.68,38.59,0.50,-0.73,-3.61,100.0,0,0,100.62,0,0,0.0,0,0,0,0,5367,0,30.00,4,139.1,1,0,0.0,0.0,0.0,0.0,1,0,2.781,2.781,74.679,19.926,1,110.00,435.8,8750,0.0,0.0,110.0,110.0,433.0,0.00,0,0,1,333.3,69.9,69.9,93.5,93.5,34.0,2.83,-3.11,1.5,1.6,1,-80.040,-17.3,100.0,20.5,19.2,20.3,20.0,0,1,0.0,0.00,0.00,0.00,0.00,5015,4688,1099,1904,311.9,312.4,351.6,350.2,24.59,23.01,25.32,24.54,325.0,325.0,355.0,355.0,99.68,99.60,99.67,99.63,1.40,1.53,0.72,0.91,-8.7,-10.3,-5.5,-8.0,79.7,69.8,78.0,73.1,82.7,69.9,80.8,74.5,79.9,67.8,79.3,72.7,77.9,66.6,78.6,71.8,-0.93,0.92,0.09,0.10,0.00,107.33,105.07,101.37,99.88,356.7,7.7,1.5923567439490436,132.51742961150578,49.333934408489874,25.207120094731152,21.606103100918972
