Time,Distance,GPS Latitude,GPS Longitude,Damper Velocity (Calc) FL,Damper Velocity (Calc) FR,Damper Velocity (Calc) RL,Damper Velocity (Calc) RR,Corr Dist,Corr Dist (Unstretched),Corr Speed,ABS Active,ABS Enabled,AID Allow Tire Blankets,AID Auto Blip,AID Auto Clutch,AID Auto Shift,AID Fuel Rate,AID Ideal Line,AID Mech Damage,AID Stability,AID Tire Wear Rate,Air Density,Air Temp,Ballast,Best Lap Delta,Best Lap Time,Brake Bias,Brake Pos,Brake Temp FL,Brake Temp FR,Brake Temp RL,Brake Temp RR,CG Accel Lateral,CG Accel Longitudinal,CG Accel Vertical,CG Height,Camber FL,Camber FR,Camber RL,Camber RR,Car Coord X,Car Coord Y,Car Coord Z,Car Damage Front,Car Damage Left,Car Damage Rear,Car Damage Right,Car Pos Norm,Caster FL,Caster FR,Chassis Pitch Angle,Chassis Pitch Rate,Chassis Roll Angle,Chassis Roll Rate,Chassis Velocity X,Chassis Velocity Y,Chassis Velocity Z,Chassis Yaw Rate,Clutch Pos,DRS Active,DRS Available,Drive Train Speed,ERS Heat Charging,ERS Is Charging,ERS Max Energy,ERS Power Level,ERS Recovery Level,Engine Brake Setting,Engine Limiter,Engine RPM,Flags,Fuel Level,Gear,Ground Speed,HR Sample Clock,In Pit,KERS Charge,KERS Deployed Energy,KERS Input,KERS Max Energy,LR Sample Clock,Lap Invalidated,Lap Time,Lap Time2,Last Lap Time,Last Sector Time,MR Sample Clock,Max Fuel,Max Power,Max RPM,Max Sus Travel FL,Max Sus Travel FR,Max Sus Travel RL,Max Sus Travel RR,Max Torque,Max Turbo Boost,Num Tires Off Track,Penalties Enabled,Position,Raw Data Sample Rate,Ride Height FL,Ride Height FR,Ride Height RL,Ride Height RR,Road Temp,Self Align Torque FL,Self Align Torque FR,Self Align Torque RL,Self Align Torque RR,Session Lap Count,Session Time Left,Steering Angle,Surface Grip,Suspension Travel FL,Suspension Travel FR,Suspension Travel RL,Suspension Travel RR,TC Active,TC Enabled,Throttle Pos,Tire Dirt Level FL,Tire Dirt Level FR,Tire Dirt Level RL,Tire Dirt Level RR,Tire Load FL,Tire Load FR,Tire Load RL,Tire Load RR,Tire Loaded Radius FL,Tire Loaded Radius FR,Tire Loaded Radius RL,Tire Loaded Radius RR,Tire Pressure FL,Tire Pressure FR,Tire Pressure RL,Tire Pressure RR,Tire Radius FL,Tire Radius FR,Tire Radius RL,Tire Radius RR,Tire Rubber Grip FL,Tire Rubber Grip FR,Tire Rubber Grip RL,Tire Rubber Grip RR,Tire Slip Angle FL,Tire Slip Angle FR,Tire Slip Angle RL,Tire Slip Angle RR,Tire Slip Ratio FL,Tire Slip Ratio FR,Tire Slip Ratio RL,Tire Slip Ratio RR,Tire Temp Core FL,Tire Temp Core FR,Tire Temp Core RL,Tire Temp Core RR,Tire Temp Inner FL,Tire Temp Inner FR,Tire Temp Inner RL,Tire Temp Inner RR,Tire Temp Middle FL,Tire Temp Middle FR,Tire Temp Middle RL,Tire Temp Middle RR,Tire Temp Outer FL,Tire Temp Outer FR,Tire Temp Outer RL,Tire Temp Outer RR,Toe In FL,Toe In FR,Toe In RL,Toe In RR,Turbo Boost,Wheel Angular Speed FL,Wheel Angular Speed FR,Wheel Angular Speed RL,Wheel Angular Speed RR,Wind Direction,Wind Speed,CG Distance,Lateral Velocity,Longitudinal Velocity,Lateral Acceleration,Longitudinal Acceleration
s,m,deg,deg,mm/s,mm/s,mm/s,mm/s,m,m,km/h,,,,,,,,,%,%,,kg/m3,C,kg,s,s,%,%,C,C,C,C,G,G,G,mm,deg,deg,deg,deg,m,m,m,,,,,,deg,deg,deg,deg/s,deg,deg/s,m/s,m/s,m/s,deg/s,%,,,rad/s,,,MJ,,,,,rpm,,l,,km/h,,,%,kJ,%,MJ,,,s,s,s,s,,l,hp,rpm,mm,mm,mm,mm,N.m,,,,,Hz,mm,mm,mm,mm,C,N.m,N.m,N.m,N.m,,s,deg,%,mm,mm,mm,mm,,,%,,,,,N,N,N,N,mm,mm,mm,mm,psi,psi,psi,psi,mm,mm,mm,mm,%,%,%,%,deg,deg,deg,deg,%,%,%,%,C,C,C,C,C,C,C,C,C,C,C,C,C,C,C,C,deg,deg,deg,deg,,rad/s,rad/s,rad/s,rad/s,deg,km/h,G,Km/h,Km/h,Km/h^2,Km/h^2
0.000,0.0,44.054620460368447,-78.681959114526023,20.5,4.5,-26.6,-61.1,3328.0,3328,155.3,0,1,1,0,1,1,0,0,0,100,1,1.186,26.0,0.0,0.000,65.681,66.0,0.0,26.0,26.0,26.0,26.0,-0.11,0.32,0.08,378.3,-2.60,-2.43,-1.15,-1.32,-739.81,689.68,5.7,0.00,0.00,0.00,0.00,0.00,-7.49,-7.49,-0.35,-1.75,-0.05,-2.77,43.14,-0.07,-0.38,0.79,100.0,0,0,123.13,0,0,0.0,0,0,0,0,8254,0,30.00,3,155.3,1,0,0.0,0.0,0.0,0.0,1,0,0.036,0.036,65.681,26.401,1,110.00,435.8,8750,0.0,0.0,110.0,110.0,433.0,0.00,0,0,1,166.7,70.6,70.6,61.7,61.7,34.0,-29.07,21.78,-25.3,8.4,2,-135.690,-0.9,100.0,21.0,20.4,40.9,36.6,0,1,76.2,0.00,0.00,0.00,0.00,5129,4797,5628,4352,313.4,312.5,341.6,344.1,28.75,24.08,27.07,25.17,325.0,325.0,355.0,355.0,100.00,99.82,99.97,99.84,-0.10,0.04,-0.17,-0.04,-0.1,-0.1,1.6,1.6,105.7,76.5,88.9,77.1,110.8,76.3,98.5,83.9,106.6,74.1,96.7,81.3,101.5,73.1,95.9,80.1,-0.03,0.05,0.05,0.04,0.00,132.41,132.27,123.13,123.13,176.9,6.4,0.3477067730142742
0.050,2.2,44.054601484682557,-78.681953358867744,28.3,-40.9,-101.3,-48.5,3330.2,3330,155.8,0,1,1,0,1,1,0,0,0,100,1,1.186,26.0,0.0,0.006,65.681,66.0,0.0,26.0,26.0,26.0,26.0,-0.09,0.34,-0.22,384.1,-2.08,-1.91,-1.02,-1.37,-739.17,687.57,5.7,0.00,0.00,0.00,0.00,0.00,-7.49,-7.49,-0.32,1.08,-0.17,-0.91,43.30,-0.07,-0.33,0.23,100.0,0,0,123.65,0,0,0.0,0,0,0,0,8289,0,30.00,3,155.8,0,0,0.0,0.0,0.0,0.0,1,0,0.087,0.087,65.681,26.401,0,110.00,435.8,8750,0.0,0.0,110.0,110.0,433.0,0.00,0,0,1,166.7,78.3,78.3,70.8,70.8,34.0,-8.43,2.10,-23.3,9.7,2,-135.740,-1.8,100.0,22.4,18.3,35.8,34.1,0,1,76.6,0.00,0.00,0.00,0.00,2854,1117,5740,4063,318.0,322.6,341.2,345.3,28.75,24.08,27.07,25.17,325.0,325.0,355.0,355.0,100.00,99.82,99.97,99.84,0.01,-0.02,-0.16,-0.00,-0.0,-0.0,1.7,1.7,105.7,76.5,89.0,77.1,110.7,76.2,98.4,83.8,106.5,74.1,96.7,81.3,101.4,73.0,95.8,80.1,-0.09,0.09,0.07,0.06,0.00,132.79,132.63,123.65,123.65,176.9,6.4,0.41484937025383084,151.96292200401632,46.093019000254394
0.100,4.3,44.054582508996674,-78.681947603209466,-25.3,-68.5,48.7,109.1,3332.4,3332,156.4,0,1,1,0,1,1,0,0,0,100,1,1.186,26.0,0.0,0.006,65.681,66.0,0.0,26.0,26.0,26.0,26.0,-0.06,0.32,-0.04,382.8,-2.65,-2.50,-1.47,-1.35,-738.53,685.46,5.7,0.00,0.00,0.00,0.00,0.00,-7.49,-7.49,-0.42,-3.36,0.02,6.03,43.45,-0.03,-0.39,-0.39,100.0,0,0,123.96,0,0,0.0,0,0,0,0,8310,0,30.00,3,156.4,1,0,0.0,0.0,0.0,0.0,1,0,0.138,0.138,65.681,26.401,1,110.00,435.8,8750,0.0,0.0,110.0,110.0,433.0,0.00,0,0,1,166.7,78.5,78.5,71.0,71.0,34.0,-12.26,10.30,-21.4,7.9,2,-135.800,-2.4,100.0,21.2,14.9,38.2,39.6,0,1,76.6,0.00,0.00,0.00,0.00,3295,2544,4492,3925,317.6,318.7,344.0,344.4,28.75,24.08,27.08,25.17,325.0,325.0,355.0,355.0,100.00,99.82,99.97,99.84,0.02,0.05,-0.16,-0.05,-0.0,-0.0,1.5,1.6,105.7,76.5,89.0,77.1,110.6,76.2,98.4,83.8,106.4,74.0,96.6,81.2,101.3,73.0,95.8,80.0,-0.13,0.13,0.06,0.05,0.00,133.11,133.10,123.96,123.96,176.9,6.4,0.3280243893371345,152.6831254027787,46.45312069963558,-75.62135943065726,-21.606102531895246
0.150,6.5,44.054563353446468,-78.681941757619029,-107.6,102.4,-99.0,-137.2,3334.5,3335,156.9,0,1,1,0,1,1,0,0,0,100,1,1.186,26.0,0.0,0.006,65.681,66.0,0.0,26.0,26.0,26.0,26.0,0.03,0.36,-0.11,384.5,-2.51,-0.77,-1.55,-1.30,-737.88,683.33,5.7,0.00,0.00,0.00,0.00,0.01,-7.49,-7.49,-0.53,-1.55,0.27,1.20,43.60,0.01,-0.37,-1.33,100.0,0,0,124.43,0,0,0.0,0,0,0,0,8341,0,30.00,3,156.9,0,0,0.0,0.0,0.0,0.0,1,0,0.189,0.189,65.681,26.401,0,110.00,435.8,8750,0.0,0.0,110.0,110.0,433.0,0.00,0,0,1,166.7,77.6,77.6,64.5,64.5,34.0,-3.83,13.89,-18.9,15.2,2,-135.850,-2.2,100.0,15.8,20.0,33.3,32.7,0,1,76.2,0.00,0.00,0.00,0.00,1730,5040,4863,4332,321.3,312.2,343.4,343.9,28.75,24.08,27.08,25.18,325.0,325.0,355.0,355.0,100.00,99.82,99.97,99.84,0.08,0.11,-0.08,0.09,-0.0,-0.1,1.7,1.6,105.7,76.5,89.0,77.1,110.5,76.1,98.3,83.8,106.3,74.0,96.6,81.2,101.2,72.9,95.7,80.0,-0.13,0.11,0.08,0.05,0.00,133.45,133.83,124.43,124.43,176.9,6.4,0.37762415176998415,144.4007860609506,43.93240874706487,-79.2223764244693,-25.207119525707142
0.200,8.7,44.054546446200277,-78.681936631485868,23.9,25.0,4.1,19.8,3336.7,3337,157.4,0,1,1,0,1,1,0,0,0,100,1,1.186,26.0,0.0,0.006,65.681,66.0,0.0,26.0,26.0,26.0,26.0,0.09,0.31,0.03,384.0,-1.84,-1.67,-1.69,-1.27,-737.31,681.45,5.7,0.00,0.00,0.00,0.00,0.01,-7.49,-7.49,-0.61,-1.55,0.17,-4.15,43.73,0.03,-0.39,-1.51,100.0,0,0,124.79,0,0,0.0,0,0,0,0,8366,0,30.00,3,157.4,1,0,0.0,0.0,0.0,0.0,1,0,0.234,0.234,65.681,26.401,1,110.00,435.8,8750,0.0,0.0,110.0,110.0,433.0,0.00,0,0,1,333.3,76.5,76.5,67.1,67.1,34.0,-2.47,19.81,-10.3,22.0,2,-135.890,-1.7,100.0,17.0,21.3,33.5,33.7,0,1,76.2,0.00,0.00,0.00,0.00,1851,4225,3921,4506,320.3,313.8,345.1,343.4,28.74,24.08,27.08,25.18,325.0,325.0,355.0,355.0,100.00,99.82,99.97,99.84,0.10,0.15,0.04,0.19,0.0,-0.0,1.6,1.5,105.7,76.5,89.0,77.1,110.4,76.1,98.2,83.8,106.3,73.9,96.5,81.2,101.1,72.9,95.7,80.0,-0.10,0.10,0.07,0.05,0.00,134.00,134.15,124.79,124.79,176.9,6.4,0.32419130154894654,144.76088776033177,43.93240874706487,97.2274619625523,28.80813651951918
0.250,10.9,44.054527200717914,-78.681930785895432,68.3,28.9,10.8,-30.5,3338.9,3339,157.9,0,1,1,0,1,1,0,0,0,100,1,1.186,26.0,0.0,0.006,65.681,66.0,0.0,26.0,26.0,26.0,26.0,0.09,0.35,-0.11,382.5,-1.72,-1.42,-0.84,-0.88,-736.66,679.31,5.7,0.00,0.00,0.00,0.00,0.01,-7.49,-7.49,-0.59,1.75,-0.27,-6.46,43.88,0.04,-0.37,-1.04,100.0,0,0,125.23,0,0,0.0,0,0,0,0,8395,0,30.00,3,157.9,0,0,0.0,0.0,0.0,0.0,1,0,0.284,0.284,65.681,26.401,0,110.00,435.8,8750,0.0,0.0,110.0,110.0,433.0,0.00,0,0,1,333.3,74.7,74.7,67.0,67.0,34.0,-3.12,9.89,-4.5,17.6,2,-135.940,-1.3,100.0,20.4,22.7,34.0,32.2,0,1,76.2,0.00,0.00,0.00,0.00,3485,2614,5925,4183,317.0,318.4,340.7,345.0,28.74,24.08,27.08,25.18,325.0,325.0,355.0,355.0,100.00,99.82,99.97,99.84,0.13,0.15,0.07,0.23,-0.0,-0.1,1.7,1.6,105.6,76.5,89.0,77.1,110.3,76.1,98.2,83.7,106.2,73.9,96.5,81.1,101.0,72.8,95.6,79.9,-0.07,0.07,0.07,0.06,0.00,134.55,134.61,125.23,125.23,176.9,6.4,0.37775653535048204,154.12353225720582,46.81322239901679,54.01525689876223,18.00508553808335
0.300,13.1,44.054507955235543,-78.681924940304995,171.8,-14.2,79.8,134.4,3341.1,3341,158.5,0,1,1,0,1,1,0,0,0,100,1,1.186,26.0,0.0,0.006,65.681,66.0,0.0,26.0,26.0,26.0,26.0,0.05,0.27,0.18,376.7,-1.46,-2.62,-1.04,-0.93,-736.01,677.17,5.7,0.00,0.00,0.00,0.00,0.01,-7.49,-7.49,-0.49,2.94,-0.29,4.34,44.03,0.04,-0.39,-0.60,100.0,0,0,125.58,0,0,0.0,0,0,0,0,8418,0,30.00,3,158.5,1,0,0.0,0.0,0.0,0.0,1,0,0.336,0.336,65.681,26.401,1,110.00,435.8,8750,0.0,0.0,110.0,110.0,433.0,0.00,0,0,1,166.7,66.7,66.7,70.6,70.6,34.0,-11.21,18.62,-11.8,12.9,2,-135.990,-1.0,100.0,29.0,22.0,38.0,38.9,0,1,76.2,0.00,0.00,0.00,0.00,5173,3589,4722,4397,313.2,315.3,343.5,343.7,28.74,24.08,27.09,25.18,325.0,325.0,355.0,355.0,100.00,99.82,99.97,99.84,0.02,0.09,-0.03,0.09,-0.0,-0.1,1.3,1.3,105.6,76.5,89.0,77.1,110.2,76.0,98.1,83.7,106.1,73.9,96.4,81.1,101.0,72.8,95.6,79.9,-0.05,0.06,0.05,0.04,0.00,135.04,135.16,125.58,125.58,176.9,6.4,0.3283291031876401,150.162413450208,45.732917300873204,-36.01017107616656,-7.202033987623935
0.350,15.3,44.054489699006943,-78.681919364511032,-109.8,-1.3,39.7,54.3,3343.3,3343,159.0,0,1,1,0,1,1,0,0,0,100,1,1.186,26.0,0.0,0.006,65.681,66.0,0.0,26.0,26.0,26.0,26.0,0.03,0.33,0.23,375.6,-2.49,-2.83,-2.02,-0.96,-735.39,675.14,5.7,0.00,0.00,0.00,0.00,0.01,-7.49,-7.49,-0.32,2.18,0.08,6.91,44.17,0.06,-0.30,-1.04,100.0,0,0,125.54,0,0,0.0,0,0,0,0,8415,0,30.00,3,159.0,0,0,0.0,0.0,0.0,0.0,1,0,0.384,0.384,65.681,26.401,0,110.00,435.8,8750,0.0,0.0,110.0,110.0,433.0,0.00,0,0,1,333.3,71.8,71.8,56.8,56.8,34.0,-7.82,25.38,-39.5,20.6,2,-136.040,-0.9,100.0,23.5,21.9,40.0,41.6,0,1,76.2,0.00,0.00,0.00,0.00,2867,4531,7021,5757,319.0,312.8,338.2,340.3,28.74,24.08,27.09,25.18,325.0,325.0,355.0,355.0,100.00,99.82,99.97,99.84,0.06,0.07,-0.07,0.11,-0.0,-0.1,1.2,1.1,105.6,76.5,89.1,77.1,110.1,76.0,98.1,83.7,106.0,73.8,96.4,81.1,100.9,72.8,95.5,79.9,-0.06,0.05,0.06,0.05,0.00,135.35,135.67,125.54,125.54,176.9,6.4,0.4033608806019741,150.52251514958917,46.093019000254394,54.01525632973801,18.005084969059695
0.400,17.5,44.054470363592415,-78.681913428988437,-84.3,25.9,34.4,-13.3,3345.5,3346,159.5,0,1,1,0,1,1,0,0,0,100,1,1.186,26.0,0.0,0.006,65.681,66.0,0.0,26.0,26.0,26.0,26.0,0.07,0.26,0.05,378.9,-2.89,-1.96,-1.94,-1.60,-734.73,672.99,5.7,0.00,0.00,0.00,0.00,0.01,-7.49,-7.49,-0.33,-0.42,0.22,0.75,44.31,0.07,-0.34,-0.97,100.0,0,0,126.38,0,0,0.0,0,0,0,0,8472,0,30.00,3,159.5,1,0,0.0,0.0,0.0,0.0,1,0,0.436,0.436,65.681,26.401,1,110.00,435.8,8750,0.0,0.0,110.0,110.0,433.0,0.00,0,0,1,333.3,74.7,74.7,58.4,58.4,34.0,-3.54,20.52,-12.8,30.3,2,-136.100,-0.9,100.0,19.3,23.2,41.7,41.0,0,1,76.2,0.00,0.00,0.00,0.00,1380,4268,4223,5564,320.9,313.6,344.7,341.4,28.74,24.08,27.09,25.19,325.0,325.0,355.0,355.0,100.00,99.82,99.97,99.84,0.12,0.12,0.05,0.17,0.0,-0.0,1.5,1.4,105.6,76.5,89.1,77.2,110.0,75.9,98.0,83.6,105.9,73.8,96.3,81.0,100.8,72.7,95.4,79.9,-0.04,0.04,0.06,0.04,0.00,135.83,135.91,126.38,126.38,176.9,6.4,0.2738612787525831,155.5639390831818,47.533425797779174,10.803051265947659,3.6010169938118963
0.450,19.7,44.054450848313571,-78.681907493465843,-86.0,-82.5,-101.2,-25.6,3347.8,3348,160.0,0,1,1,0,1,1,0,0,0,100,1,1.186,26.0,0.0,0.006,65.681,66.0,0.0,26.0,26.0,26.0,26.0,0.12,0.35,-0.25,383.6,-2.47,-2.53,-1.45,-1.16,-734.07,670.82,5.7,0.00,0.00,0.00,0.00,0.01,-7.49,-7.49,-0.45,-3.75,-0.13,-9.11,44.46,0.05,-0.34,-0.85,100.0,0,0,126.69,0,0,0.0,0,0,0,0,8493,0,30.00,3,160.0,0,0,0.0,0.0,0.0,0.0,0,0,0.486,0.486,65.681,26.401,0,110.00,435.8,8750,0.0,0.0,110.0,110.0,433.0,0.00,0,0,1,333.3,81.8,81.8,62.4,62.4,34.0,-2.12,13.52,-10.0,23.1,2,-136.150,-0.9,100.0,15.0,19.1,36.7,39.7,0,1,76.2,0.00,0.00,0.00,0.00,1465,2546,5952,4506,321.6,318.4,341.3,343.6,28.74,24.08,27.10,25.19,325.0,325.0,355.0,355.0,100.00,99.82,99.97,99.84,0.15,0.15,0.09,0.24,-0.0,-0.0,1.6,1.5,105.6,76.5,89.1,77.2,109.9,75.9,98.0,83.6,105.8,73.7,96.2,81.0,100.7,72.7,95.4,79.8,-0.05,0.04,0.06,0.05,0.00,136.15,136.19,126.69,126.69,176.9,6.4,0.44654227123532214,151.60282027618393,46.45312069963558,-39.611188069978596,-7.202033418600209
0.500,22.0,44.054432502152807,-78.681901827739722,42.0,-59.2,-23.5,-118.6,3350.0,3350,160.2,0,1,1,0,1,1,0,0,0,100,1,1.186,26.0,0.0,0.003,65.681,66.0,0.0,26.0,26.0,26.0,26.0,0.09,-0.10,-0.47,386.9,-2.10,-2.34,-1.04,-2.12,-733.44,668.78,5.7,0.00,0.00,0.00,0.00,0.01,-7.49,-7.49,-0.67,-5.99,-0.37,-1.88,44.48,0.04,-0.41,-0.33,100.0,0,0,124.84,0,0,0.0,0,0,0,0,8245,0,30.00,0,160.2,1,0,0.0,0.0,0.0,0.0,0,0,0.534,0.534,65.681,26.401,1,110.00,435.8,8750,0.0,0.0,110.0,110.0,433.0,0.00,0,0,1,333.3,80.5,80.5,72.5,72.5,34.0,-5.29,12.76,-7.6,17.4,2,-136.190,-0.9,100.0,17.1,16.1,35.5,33.8,0,1,0.0,0.00,0.00,0.00,0.00,2789,2784,3549,2965,319.1,318.5,346.3,347.4,28.74,24.07,27.10,25.19,325.0,325.0,355.0,355.0,100.00,99.82,99.97,99.84,0.09,0.13,0.01,0.13,0.0,0.0,-0.0,0.0,105.6,76.5,89.1,77.2,109.8,75.8,97.9,83.6,105.7,73.7,96.2,81.0,100.6,72.6,95.3,79.8,-0.06,0.05,0.06,0.06,0.00,136.19,136.20,124.84,124.84,176.9,6.4,0.48887626246321264,151.60282027618393,46.81322245591915,43.21220534830218,14.404068544271453
0.550,24.2,44.054412986873963,-78.681895802284956,150.6,60.3,-70.4,-59.5,3352.2,3352,160.0,0,1,1,0,1,1,0,0,0,100,1,1.186,26.0,0.0,0.003,65.681,66.0,0.0,26.0,26.0,26.0,26.0,-0.03,-0.11,-0.17,384.7,-2.46,-2.39,-1.09,-1.32,-732.77,666.61,5.7,0.00,0.00,0.00,0.00,0.02,-7.49,-7.49,-0.91,-3.13,-0.26,6.94,44.43,0.04,-0.51,-0.11,100.0,0,0,124.71,0,0,0.0,0,0,0,0,7870,0,30.00,0,160.0,0,0,0.0,0.0,0.0,0.0,0,0,0.584,0.584,65.681,26.401,0,110.00,435.8,8750,0.0,0.0,110.0,110.0,433.0,0.00,0,0,1,333.3,72.2,72.2,81.8,81.8,34.0,-19.18,10.29,-8.4,10.8,2,-136.250,-0.8,100.0,24.6,19.2,32.0,30.8,0,1,0.0,0.00,0.00,0.00,0.00,4633,2669,2612,3004,314.4,318.2,348.0,347.0,28.74,24.07,27.10,25.19,325.0,325.0,355.0,355.0,100.00,99.82,99.97,99.84,-0.01,0.04,-0.08,0.06,-0.0,-0.0,-0.0,-0.0,105.6,76.5,89.1,77.2,109.7,75.8,97.8,83.5,105.6,73.6,96.1,80.9,100.5,72.6,95.2,79.7,-0.03,0.04,0.08,0.07,0.00,136.14,136.15,124.71,124.71,176.9,6.4,0.20469489490458723,155.92404081101415,47.89352755406273,-3.6010169938120384,-3.6010175628356933
0.600,26.4,44.054393561527270,-78.681889866762361,-34.5,46.9,-35.8,94.9,3354.4,3354,160.2,0,1,1,0,1,1,0,0,0,100,1,1.186,26.0,0.0,0.003,65.681,66.0,0.0,26.0,26.0,26.0,26.0,-0.03,-0.22,0.00,381.5,-3.41,-1.93,-2.59,-1.57,-732.11,664.45,5.7,0.00,0.00,0.00,0.00,0.02,-7.49,-7.49,-0.93,0.13,0.09,4.01,44.50,0.04,-0.49,-0.23,100.0,0,0,124.20,0,0,0.0,0,0,0,0,6625,0,30.00,4,160.2,1,0,0.0,0.0,0.0,0.0,0,0,0.636,0.636,65.681,26.401,1,110.00,435.8,8750,0.0,0.0,110.0,110.0,433.0,0.00,0,0,1,333.3,70.9,70.9,75.1,75.1,34.0,-23.56,17.76,-31.6,16.9,2,-136.300,-0.8,100.0,22.9,21.5,30.2,35.5,0,1,0.0,0.00,0.00,0.00,0.00,4432,4325,4450,3691,315.7,314.1,344.6,344.7,28.74,24.07,27.10,25.19,325.0,325.0,355.0,355.0,100.00,99.82,99.97,99.84,-0.01,0.08,-0.12,0.08,0.0,0.0,-0.6,-0.6,105.6,76.4,89.1,77.2,109.6,75.8,97.8,83.5,105.5,73.6,96.0,80.9,100.4,72.5,95.2,79.7,-0.03,0.03,0.08,0.06,0.00,136.47,136.55,124.20,124.20,176.9,6.4,0.22203603311174516,151.24271857680273,46.45312069963558,-46.81322262662604,-10.803051550459415
0.650,28.6,44.054375215366512,-78.681884201036240,32.3,44.2,51.8,-10.2,3356.7,3357,159.9,0,1,1,0,1,1,0,0,0,100,1,1.186,26.0,0.0,0.003,65.681,66.0,0.0,26.0,26.0,26.0,26.0,0.04,-0.19,0.14,378.8,-3.75,-2.29,-1.00,-1.40,-731.48,662.41,5.7,0.00,0.00,0.00,0.00,0.02,-7.49,-7.49,-0.91,0.86,0.26,3.20,44.41,0.05,-0.48,-0.39,100.0,0,0,124.51,0,0,0.0,0,0,0,0,6641,0,30.00,4,159.9,0,0,0.0,0.0,0.0,0.0,0,0,0.684,0.684,65.681,26.401,0,110.00,435.8,8750,0.0,0.0,110.0,110.0,433.0,0.00,0,0,1,333.3,66.8,66.8,74.0,74.0,34.0,-33.85,21.82,-9.4,25.9,2,-136.340,-1.0,100.0,24.5,23.7,32.8,35.0,0,1,0.0,0.00,0.00,0.00,0.00,5558,4298,3515,4931,313.0,312.9,345.8,342.5,28.74,24.07,27.10,25.19,325.0,325.0,355.0,355.0,100.00,99.82,99.97,99.84,-0.01,0.09,-0.03,0.14,-0.0,-0.0,-0.2,-0.3,105.6,76.4,89.2,77.2,109.5,75.7,97.7,83.4,105.4,73.6,96.0,80.8,100.3,72.5,95.1,79.7,-0.05,0.05,0.07,0.07,0.00,136.25,136.27,124.51,124.51,176.9,6.4,0.23937418407171648,151.24271854835155,46.81322239901679,43.212205348302746,18.00508553808335
0.700,30.9,44.054355790019827,-78.681878175581488,7.3,-44.5,5.9,75.2,3358.9,3359,159.6,0,1,1,0,1,1,0,0,0,100,1,1.186,26.0,0.0,0.003,65.681,66.0,0.0,26.0,26.0,26.0,26.0,0.01,-0.17,-0.02,380.3,-2.73,-2.71,-1.86,-2.10,-730.81,660.25,5.7,0.00,0.00,0.00,0.00,0.02,-7.49,-7.49,-0.86,-0.66,0.42,2.71,44.33,0.05,-0.43,-0.35,100.0,0,0,124.23,0,0,0.0,0,0,0,0,6626,0,30.00,4,159.6,1,0,0.0,0.0,0.0,0.0,0,0,0.734,0.734,65.681,26.401,1,110.00,435.8,8750,0.0,0.0,110.0,110.0,433.0,0.00,0,0,1,333.3,72.8,72.8,72.0,72.0,34.0,-8.60,15.50,-25.5,23.6,2,-136.400,-1.2,100.0,24.9,21.5,33.1,38.8,0,1,0.0,0.00,0.00,0.00,0.00,2886,2900,4974,3851,318.3,317.5,342.9,344.1,28.74,24.07,27.11,25.20,325.0,325.0,355.0,355.0,100.00,99.82,99.97,99.84,0.08,0.13,-0.05,0.10,0.0,-0.0,-0.2,-0.2,105.6,76.4,89.2,77.2,109.4,75.7,97.6,83.4,105.3,73.5,95.9,80.8,100.3,72.5,95.0,79.6,-0.06,0.07,0.07,0.04,0.00,135.92,135.96,124.23,124.23,176.9,6.4,0.17146428199482247,155.563939111633,48.25362925344392,2.8451182743083336e-07,0.0
0.750,33.1,44.054336364673134,-78.681872150126722,-116.9,29.9,69.1,-66.2,3361.1,3361,159.4,0,1,1,0,1,1,0,0,0,100,1,1.186,26.0,0.0,0.000,65.681,66.0,0.0,26.0,26.0,26.0,26.0,0.05,0.10,-0.08,381.1,-2.14,-2.06,-2.19,-2.04,-730.14,658.09,5.7,0.00,0.00,0.00,0.00,0.02,-7.49,-7.49,-1.01,-2.92,0.45,-0.85,44.27,0.06,-0.50,-1.13,100.0,0,0,126.47,0,0,0.0,0,0,0,0,6746,0,30.00,4,159.4,0,0,0.0,0.0,0.0,0.0,0,0,0.786,0.786,65.681,26.401,0,110.00,435.8,8750,0.0,0.0,110.0,110.0,433.0,0.00,0,0,1,333.3,72.4,72.4,66.0,66.0,34.0,-9.99,22.64,-16.2,18.8,2,-136.450,-1.2,100.0,19.0,23.0,36.5,35.5,0,1,76.2,0.00,0.00,0.00,0.00,3766,4453,4234,3240,316.5,313.3,344.9,346.6,28.73,24.07,27.11,25.20,325.0,325.0,355.0,355.0,100.00,99.82,99.97,99.84,0.05,0.13,0.03,0.18,-0.1,-0.0,1.3,1.3,105.6,76.4,89.2,77.2,109.3,75.6,97.5,83.3,105.2,73.5,95.8,80.7,100.2,72.4,95.0,79.6,-0.05,0.06,0.06,0.07,0.00,135.69,135.72,126.47,126.47,176.9,6.4,0.13747727084867523,151.24271857680273,46.81322239901679,3.60101699381147,0.0
0.800,35.3,44.054318018512376,-78.681866484400615,7.0,-26.0,-139.9,-29.2,3363.3,3363,159.8,0,1,1,0,1,1,0,0,0,100,1,1.186,26.0,0.0,0.003,65.681,66.0,0.0,26.0,26.0,26.0,26.0,0.12,0.23,-0.23,384.9,-2.91,-3.01,-2.24,-1.62,-729.51,656.05,5.6,0.00,0.00,0.00,0.00,0.02,-7.49,-7.49,-1.05,-0.09,0.35,-4.65,44.40,0.07,-0.45,-1.34,100.0,0,0,126.90,0,0,0.0,0,0,0,0,6769,0,30.00,4,159.8,1,0,0.0,0.0,0.0,0.0,0,0,0.834,0.834,65.681,26.401,1,110.00,435.8,8750,0.0,0.0,110.0,110.0,433.0,0.00,0,0,1,333.3,77.2,77.2,74.8,74.8,34.0,-5.31,16.03,-12.8,27.7,2,-136.490,-0.9,100.0,19.4,21.7,29.5,34.0,0,1,76.2,0.00,0.00,0.00,0.00,2040,2753,4139,4670,321.0,317.6,346.3,343.2,28.73,24.07,27.11,25.20,325.0,325.0,355.0,355.0,100.00,99.82,99.97,99.84,0.09,0.13,0.06,0.24,-0.0,-0.1,1.8,1.7,105.6,76.4,89.2,77.2,109.2,75.6,97.5,83.3,105.1,73.4,95.7,80.7,100.1,72.4,94.9,79.5,-0.05,0.04,0.08,0.07,0.00,136.04,136.19,126.90,126.90,176.9,6.4,0.3466987164671943,155.92404081101415,48.25362925344392,46.813222342114216,18.005086107107076
0.850,37.5,44.054297424047597,-78.681860099217204,-50.7,-80.0,68.1,-14.5,3365.5,3366,160.4,0,1,1,0,1,1,0,0,0,100,1,1.186,26.0,0.0,0.003,65.681,66.0,0.0,26.0,26.0,26.0,26.0,0.04,0.32,-0.20,385.0,-2.65,-2.70,-0.97,-1.58,-728.80,653.76,5.6,0.00,0.00,0.00,0.00,0.02,-7.49,-7.49,-1.11,-2.42,0.24,-0.15,44.56,0.06,-0.40,-0.39,100.0,0,0,127.07,0,0,0.0,0,0,0,0,6778,0,30.00,4,160.4,0,0,0.0,0.0,0.0,0.0,0,0,0.888,0.888,65.681,26.401,0,110.00,435.8,8750,0.0,0.0,110.0,110.0,433.0,0.00,0,0,1,166.7,80.3,80.3,69.8,69.8,34.0,-6.47,12.68,-10.4,18.5,2,-136.550,-0.8,100.0,16.8,17.7,32.9,33.3,0,1,76.2,0.00,0.00,0.00,0.00,2507,2438,5493,3807,319.3,318.6,342.3,345.2,28.73,24.07,27.11,25.20,325.0,325.0,355.0,355.0,100.00,99.82,99.97,99.84,0.10,0.13,0.00,0.17,-0.1,-0.0,1.6,1.6,105.6,76.4,89.2,77.3,109.1,75.5,97.4,83.2,105.0,73.4,95.7,80.7,100.0,72.3,94.8,79.5,-0.04,0.04,0.07,0.06,0.00,136.52,136.55,127.07,127.07,176.9,6.4,0.37947331922020555,155.92404081101415,48.613731009727495,-86.42441069660464,-21.606102531895246
0.900,39.7,44.054279077886839,-78.681854343558925,117.8,132.3,-10.6,-35.2,3367.8,3368,160.8,0,1,1,0,1,1,0,0,0,100,1,1.186,26.0,0.0,0.003,65.681,66.0,0.0,26.0,26.0,26.0,26.0,0.06,0.26,0.08,379.2,-2.59,-2.03,-1.28,-2.39,-728.16,651.72,5.6,0.00,0.00,0.00,0.00,0.03,-7.49,-7.49,-1.20,1.06,0.22,-1.04,44.68,0.05,-0.43,-0.50,100.0,0,0,127.86,0,0,0.0,0,0,0,0,6820,0,30.00,4,160.8,1,0,0.0,0.0,0.0,0.0,0,0,0.936,0.936,65.681,26.401,1,110.00,435.8,8750,0.0,0.0,110.0,110.0,433.0,0.00,0,0,1,166.7,65.6,65.6,74.0,74.0,34.0,-30.28,30.52,-6.0,20.4,2,-136.590,-0.6,100.0,22.7,24.3,32.4,31.5,0,1,76.2,0.00,0.00,0.00,0.00,6236,5748,2942,3464,311.7,311.0,347.2,344.1,28.73,24.07,27.12,25.20,325.0,325.0,355.0,355.0,100.00,99.82,99.97,99.84,-0.04,0.14,0.02,0.11,-0.0,-0.0,1.8,1.7,105.6,76.4,89.2,77.3,109.0,75.5,97.3,83.2,104.9,73.3,95.6,80.6,99.9,72.3,94.8,79.5,-0.02,0.04,0.08,0.07,0.00,137.23,137.11,127.86,127.86,176.9,6.4,0.2785677655436824,147.2815997413537,46.093019000254394,-32.40915408235452,-10.803052119483212
0.950,42.0,44.054260641793917,-78.681848587900646,97.0,-6.0,-2.2,142.3,3370.0,3370,161.4,0,1,1,0,1,1,0,0,0,100,1,1.186,26.0,0.0,0.000,65.681,66.0,0.0,26.0,26.0,26.0,26.0,0.07,0.33,0.16,375.8,-1.95,-2.97,-1.42,-1.30,-727.52,649.67,5.6,0.00,0.00,0.00,0.00,0.03,-7.49,-7.49,-0.96,5.34,0.27,1.29,44.83,0.04,-0.29,-0.38,100.0,0,0,127.34,0,0,0.0,0,0,0,0,6793,0,30.00,4,161.4,0,0,0.0,0.0,0.0,0.0,1,0,0.984,0.984,65.681,26.401,0,110.00,435.8,8750,0.0,0.0,110.0,110.0,433.0,0.00,0,0,1,166.7,69.0,69.0,69.0,69.0,34.0,-7.98,15.95,-25.1,35.2,2,-136.640,-0.5,100.0,27.6,24.0,32.3,38.6,0,1,76.2,0.00,0.00,0.00,0.00,3254,3032,6610,6602,316.9,316.7,339.5,338.5,28.73,24.06,27.12,25.20,325.0,325.0,355.0,355.0,100.00,99.82,99.97,99.84,0.05,0.07,-0.04,0.17,-0.0,-0.1,1.2,1.2,105.6,76.4,89.2,77.3,109.0,75.5,97.3,83.2,104.9,73.3,95.6,80.6,99.8,72.3,94.7,79.4,-0.01,0.03,0.06,0.06,0.00,137.65,137.66,127.34,127.34,176.9,6.4,0.37336309405188944,152.6831254027787,47.533425797779174,104.4294962346882,32.40915351333115
1.000,44.2,44.054240946650751,-78.681842472513736,-78.4,25.8,282.9,97.3,3372.3,3372,161.8,0,1,1,0,1,1,0,0,0,100,1,1.186,26.0,0.0,0.003,65.681,66.0,0.0,26.0,26.0,26.0,26.0,0.04,0.31,0.02,374.0,-3.37,-2.61,-1.38,-1.56,-726.84,647.48,5.6,0.00,0.00,0.00,0.00,0.03,-7.49,-7.49,-0.83,1.77,0.36,2.57,44.96,0.04,-0.32,-0.22,100.0,0,0,128.15,0,0,0.0,0,0,0,0,6836,0,30.00,4,161.8,1,0,0.0,0.0,0.0,0.0,1,0,1.034,1.034,65.681,26.401,1,110.00,435.8,8750,0.0,0.0,110.0,110.0,433.0,0.00,0,0,1,333.3,72.0,72.0,53.2,53.2,34.0,-6.29,18.78,-17.0,22.3,2,-136.690,-0.5,100.0,23.6,25.3,46.4,43.5,0,1,76.2,0.00,0.00,0.00,0.00,1760,3829,5551,5335,320.7,314.9,342.3,341.4,28.73,24.06,27.12,25.21,325.0,325.0,355.0,355.0,100.00,99.82,99.97,99.84,0.08,0.06,-0.02,0.07,-0.0,-0.0,1.4,1.4,105.6,76.4,89.3,77.3,108.9,75.4,97.2,83.2,104.8,73.3,95.5,80.6,99.7,72.2,94.7,79.4,-0.03,0.02,0.04,0.03,0.00,137.82,137.93,128.15,128.15,176.9,6.4,0.3132091952673165,157.7245493648225,49.33393435158751,7.2020345566474475,7.2020345566474475
1.050,46.5,44.054221251507578,-78.681836267194655,-158.8,-139.4,-69.6,67.4,3374.5,3375,162.4,0,1,1,0,1,1,0,0,0,100,1,1.186,26.0,0.0,0.000,65.681,66.0,0.0,26.0,26.0,26.0,26.0,0.04,0.24,-0.03,378.8,-2.91,-1.73,-2.40,-1.71,-726.15,645.29,5.5,0.00,0.00,0.00,0.00,0.03,-7.49,-7.49,-0.87,-4.59,0.41,-2.19,45.11,0.04,-0.32,-0.30,100.0,0,0,128.23,0,0,0.0,0,0,0,0,6840,0,30.00,4,162.4,0,0,0.0,0.0,0.0,0.0,1,0,1.086,1.086,65.681,26.401,0,110.00,435.8,8750,0.0,0.0,110.0,110.0,433.0,0.00,0,0,1,333.3,81.0,81.0,57.0,57.0,34.0,-1.70,16.68,-22.3,27.9,2,-136.750,-0.5,100.0,15.7,18.3,43.0,46.9,0,1,76.2,0.00,0.00,0.00,0.00,853,4186,4624,5365,322.9,315.3,343.5,341.2,28.73,24.06,27.12,25.21,325.0,325.0,355.0,355.0,100.00,99.82,99.97,99.84,0.13,0.11,0.02,0.11,-0.0,-0.0,1.1,1.1,105.5,76.4,89.3,77.3,108.8,75.4,97.2,83.1,104.7,73.2,95.5,80.6,99.6,72.2,94.6,79.4,-0.03,0.01,0.05,0.03,0.00,138.06,138.16,128.23,128.23,176.9,6.4,0.24515301344262524,153.40332885844344,48.25362925344392,-36.01017107616684,-10.803050981435902
1.100,48.8,44.054202635550332,-78.681830421604218,24.0,4.4,-90.4,-259.8,3376.8,3377,162.8,0,1,1,0,1,1,0,0,0,100,1,1.186,26.0,0.0,0.003,65.681,66.0,0.0,26.0,26.0,26.0,26.0,0.02,0.26,-0.32,384.1,-2.35,-2.17,-1.56,-1.22,-725.50,643.22,5.5,0.00,0.00,0.00,0.00,0.03,-7.49,-7.49,-1.11,-4.54,0.16,-1.58,45.23,0.03,-0.41,-0.04,100.0,0,0,129.21,0,0,0.0,0,0,0,0,6892,0,30.00,4,162.8,1,0,0.0,0.0,0.0,0.0,1,0,1.134,1.134,65.681,26.401,1,110.00,435.8,8750,0.0,0.0,110.0,110.0,433.0,0.00,0,0,1,333.3,79.4,79.4,68.7,68.7,34.0,-8.64,9.69,-9.9,14.1,2,-136.790,-0.4,100.0,16.9,18.5,38.4,33.9,0,1,76.2,0.00,0.00,0.00,0.00,2988,2377,3756,3909,318.2,319.0,346.0,345.3,28.73,24.06,27.13,25.21,325.0,325.0,355.0,355.0,100.00,99.82,99.97,99.84,0.04,0.10,0.01,0.13,-0.0,-0.1,1.7,1.7,105.5,76.4,89.3,77.3,108.7,75.3,97.1,83.1,104.6,73.2,95.4,80.5,99.5,72.1,94.6,79.4,-0.01,0.02,0.06,0.07,0.00,138.51,138.49,129.21,129.21,176.9,6.4,0.4127953488110059,154.12353225720582,48.25362925344392,57.61627332355033,14.404068544271453
1.150,51.0,44.054182760542844,-78.681824216285136,183.3,74.7,-125.8,-22.7,3379.0,3379,163.3,0,1,1,0,1,1,0,0,0,100,1,1.186,26.0,0.0,0.003,65.681,66.0,0.0,26.0,26.0,26.0,26.0,0.02,0.25,0.24,378.2,-2.14,-2.35,-1.30,-1.87,-724.81,641.01,5.5,0.00,0.00,0.00,0.00,0.03,-7.49,-7.49,-1.26,-0.17,0.04,-0.80,45.37,0.04,-0.48,-0.47,100.0,0,0,129.43,0,0,0.0,0,0,0,0,6904,0,30.00,4,163.3,0,0,0.0,0.0,0.0,0.0,1,0,1.186,1.186,65.681,26.401,0,110.00,435.8,8750,0.0,0.0,110.0,110.0,433.0,0.00,0,0,1,166.7,64.3,64.3,75.7,75.7,34.0,-33.64,27.60,-12.0,17.0,2,-136.840,-0.4,100.0,26.1,22.3,32.1,32.7,0,1,76.2,0.00,0.00,0.00,0.00,6946,4735,4570,3273,309.4,312.4,343.8,346.3,28.72,24.06,27.13,25.21,325.0,325.0,355.0,355.0,100.00,99.82,99.97,99.84,-0.07,0.14,-0.01,0.16,-0.0,-0.1,1.6,1.5,105.5,76.4,89.3,77.3,108.6,75.3,97.1,83.1,104.5,73.1,95.4,80.5,99.5,72.1,94.5,79.3,0.00,0.02,0.07,0.06,0.00,139.40,139.26,129.43,129.43,176.9,6.4,0.34713109915419565,159.16495619079848,49.694036107871064,3.6010169938123227,3.6010175628357644
1.200,53.3,44.054162885535355,-78.681818010966055,158.6,129.3,16.3,31.1,3381.3,3381,163.8,0,1,1,0,1,1,0,0,0,100,1,1.186,26.0,0.0,0.000,65.681,66.0,0.0,26.0,26.0,26.0,26.0,-0.07,0.37,0.33,370.2,-3.03,-2.33,-1.56,-1.35,-724.12,638.80,5.5,0.00,0.00,0.00,0.00,0.03,-7.49,-7.49,-0.96,10.31,0.27,6.93,45.51,0.05,-0.37,-0.13,100.0,0,0,129.36,0,0,0.0,0,0,0,0,6900,0,30.00,4,163.8,1,0,0.0,0.0,0.0,0.0,1,0,1.236,1.236,65.681,26.401,1,110.00,435.8,8750,0.0,0.0,110.0,110.0,433.0,0.00,0,0,1,333.3,56.5,56.5,68.1,68.1,34.0,-40.81,28.13,-36.0,32.4,2,-136.900,-0.2,100.0,34.0,28.7,33.0,34.3,0,1,76.2,0.00,0.00,0.00,0.00,6686,5680,7099,7087,309.9,310.6,338.5,337.3,28.72,24.06,27.13,25.21,325.0,325.0,355.0,355.0,100.00,99.82,99.97,99.84,-0.06,0.07,-0.11,0.11,-0.1,-0.1,1.3,1.3,105.5,76.4,89.3,77.3,108.5,75.3,97.0,83.0,104.4,73.1,95.3,80.5,99.4,72.1,94.4,79.3,0.02,0.03,0.07,0.05,0.00,139.94,139.91,129.36,129.36,176.9,6.4,0.5006995106848018,154.48363395658706,48.613731009727495,-39.611188069978596,-7.202033987623722
1.250,55.6,44.054144179645952,-78.681812075443446,-173.3,12.6,305.0,322.0,3383.6,3384,164.3,0,1,1,0,1,1,0,0,0,100,1,1.186,26.0,0.0,0.000,65.681,66.0,0.0,26.0,26.0,26.0,26.0,0.03,0.28,0.34,368.1,-3.33,-2.76,-1.79,-2.15,-723.46,636.72,5.5,0.00,0.00,0.00,0.00,0.03,-7.49,-7.49,-0.49,7.35,0.55,2.21,45.64,0.05,-0.23,-0.25,100.0,0,0,129.72,0,0,0.0,0,0,0,0,6919,0,30.00,4,164.3,0,0,0.0,0.0,0.0,0.0,1,0,1.284,1.284,65.681,26.401,0,110.00,435.8,8750,0.0,0.0,110.0,110.0,433.0,0.00,0,0,1,333.3,68.0,68.0,47.6,47.6,34.0,-12.86,17.46,-30.4,44.9,2,-136.940,-0.1,100.0,25.3,29.4,48.2,50.4,0,1,76.2,0.00,0.00,0.00,0.00,2990,3792,6718,7051,318.1,315.1,338.9,336.8,28.72,24.06,27.13,25.22,325.0,325.0,355.0,355.0,100.00,99.82,99.97,99.84,0.04,0.02,-0.03,0.09,-0.1,-0.0,1.0,1.0,105.5,76.4,89.3,77.3,108.4,75.2,97.0,83.0,104.3,73.1,95.3,80.5,99.3,72.0,94.4,79.3,0.01,0.01,0.04,0.02,0.00,140.17,140.16,129.72,129.72,176.9,6.4,0.44147480109288234,155.20383738380062,48.97383270910869,61.21729088638574,18.005084969059695
1.300,57.9,44.054124124774141,-78.681805780192207,-29.1,-84.7,3.8,55.4,3385.9,3386,164.8,0,1,1,0,1,1,0,0,0,100,1,1.186,26.0,0.0,0.003,65.681,66.0,0.0,26.0,26.0,26.0,26.0,0.09,0.31,0.35,368.6,-3.10,-2.60,-1.95,-2.66,-722.76,634.49,5.5,0.00,0.00,0.00,0.00,0.04,-7.49,-7.49,-0.34,0.61,0.55,-2.91,45.78,0.04,-0.29,-0.21,100.0,0,0,130.16,0,0,0.0,0,0,0,0,6943,0,30.00,4,164.8,1,0,0.0,0.0,0.0,0.0,1,0,1.334,1.334,65.681,26.401,1,110.00,435.8,8750,0.0,0.0,110.0,110.0,433.0,0.00,0,0,1,333.3,66.9,66.9,52.8,52.8,34.0,-21.76,28.21,-18.7,47.2,2,-136.990,-0.1,100.0,23.9,25.1,48.4,53.2,0,1,76.2,0.00,0.00,0.00,0.00,4765,5050,5172,6411,314.4,311.9,342.2,337.7,28.72,24.06,27.14,25.22,325.0,325.0,355.0,355.0,100.00,99.82,99.97,99.84,0.03,0.09,0.04,0.09,-0.0,-0.1,1.1,1.2,105.5,76.4,89.4,77.4,108.3,75.2,96.9,83.0,104.2,73.0,95.2,80.4,99.2,72.0,94.3,79.3,-0.00,0.01,0.04,0.02,0.00,140.40,140.45,130.16,130.16,176.9,6.4,0.47613023428469653,160.60536304522563,50.414239506633464,10.80305155045977,-5.690237259159403e-07
1.350,60.2,44.054104069902330,-78.681799484940967,49.9,3.5,-65.3,-183.3,3388.2,3388,165.2,0,1,1,0,1,1,0,0,0,100,1,1.186,26.0,0.0,0.000,65.681,66.0,0.0,26.0,26.0,26.0,26.0,0.03,0.29,0.29,371.6,-2.16,-3.07,-1.99,-1.79,-722.06,632.26,5.5,0.00,0.00,0.00,0.00,0.04,-7.49,-7.49,-0.25,2.33,0.37,0.16,45.91,0.03,-0.32,0.04,100.0,0,0,130.58,0,0,0.0,0,0,0,0,6965,0,30.00,4,165.2,0,0,0.0,0.0,0.0,0.0,1,0,1.386,1.386,65.681,26.401,0,110.00,435.8,8750,0.0,0.0,110.0,110.0,433.0,0.00,0,0,1,333.3,65.7,65.7,56.5,56.5,34.0,-20.42,23.09,-27.1,29.9,2,-137.050,1.0,100.0,26.4,25.3,45.1,44.0,0,1,76.2,0.00,0.00,0.00,0.00,5182,4233,6100,5938,313.2,313.5,340.2,340.5,28.72,24.06,27.14,25.22,325.0,325.0,355.0,355.0,100.00,99.82,99.97,99.84,-0.02,0.04,-0.00,0.09,-0.0,-0.1,1.3,1.2,105.5,76.4,89.4,77.4,108.2,75.2,96.9,83.0,104.1,73.0,95.2,80.4,99.1,72.0,94.3,79.2,0.05,-0.04,0.05,0.03,0.00,140.92,140.88,130.58,130.58,176.9,6.4,0.4112177038990417,156.2841425388466,48.97383265220632,-39.611188069978596,-10.803050981435902
1.400,62.5,44.054085094216440,-78.681793549418373,-19.8,56.6,-19.3,-3.3,3390.5,3390,165.7,0,1,1,0,1,1,0,0,0,100,1,1.186,26.0,0.0,0.003,65.681,66.0,0.0,26.0,26.0,26.0,26.0,-0.04,0.30,0.03,372.7,-1.94,-1.96,-2.26,-2.55,-721.40,630.15,5.5,0.00,0.00,0.00,0.00,0.04,-7.49,-7.49,-0.17,2.23,0.37,-2.95,46.03,0.02,-0.36,0.72,100.0,0,0,131.07,0,0,0.0,0,0,0,0,6992,0,30.00,4,165.7,1,0,0.0,0.0,0.0,0.0,1,0,1.434,1.434,65.681,26.401,1,110.00,435.8,8750,0.0,0.0,110.0,110.0,433.0,0.00,0,0,1,333.3,66.8,66.8,54.1,54.1,34.0,-18.64,10.68,-40.0,31.0,2,-137.090,2.4,100.0,25.4,28.1,44.2,43.8,0,1,76.2,0.00,0.00,0.00,0.00,4199,4098,6909,5135,315.7,314.5,339.3,342.2,28.72,24.06,27.14,25.22,325.0,325.0,355.0,355.0,100.00,99.82,99.97,99.84,-0.11,-0.04,-0.06,0.07,-0.0,-0.0,1.3,1.4,105.5,76.4,89.4,77.4,108.1,75.1,96.8,82.9,104.1,73.0,95.1,80.4,99.1,71.9,94.2,79.2,0.14,-0.12,0.05,0.05,0.00,141.22,141.13,131.07,131.07,176.9,6.4,0.30413812651491096,156.64424423822777,49.333934408489874,54.015256329737724,18.005086107107005
1.450,64.8,44.054064949412471,-78.681787164234962,-50.5,-29.3,-10.0,29.4,3392.8,3393,166.2,0,1,1,0,1,1,0,0,0,100,1,1.186,26.0,0.0,0.000,65.681,66.0,0.0,26.0,26.0,26.0,26.0,-0.07,0.27,0.37,372.5,-3.06,-2.62,-1.53,-1.84,-720.69,627.91,5.5,0.00,0.00,0.00,0.00,0.04,-7.49,-7.49,-0.14,0.41,0.24,-7.44,46.16,-0.01,-0.41,1.75,100.0,0,0,131.21,0,0,0.0,0,0,0,0,6999,0,30.00,4,166.2,0,0,0.0,0.0,0.0,0.0,0,0,1.484,1.484,65.681,26.401,0,110.00,435.8,8750,0.0,0.0,110.0,110.0,433.0,0.00,0,0,1,333.3,66.3,66.3,55.5,55.5,34.0,-34.14,18.14,-23.3,23.0,2,-137.150,4.0,100.0,22.9,26.7,43.7,45.3,0,1,76.2,0.00,0.00,0.00,0.00,4659,5676,5484,5237,314.6,310.5,342.1,339.6,28.72,24.06,27.14,25.22,325.0,325.0,355.0,355.0,100.00,99.82,99.97,99.84,-0.20,-0.09,-0.07,0.02,-0.1,-0.0,1.1,1.3,105.5,76.4,89.4,77.4,108.0,75.1,96.8,82.9,104.0,72.9,95.1,80.4,99.0,71.9,94.2,79.2,0.23,-0.23,0.05,0.03,0.00,141.67,141.59,131.21,131.21,176.9,6.4,0.46335731352812376,161.68566817182037,50.77434126291702,7.20203427213562,-3.601017562835551
1.500,67.1,44.054044714676337,-78.681780868983722,231.9,141.7,-32.0,-153.6,3395.1,3395,166.6,0,1,1,0,1,1,0,0,0,100,1,1.186,26.0,0.0,0.003,65.681,66.0,0.0,26.0,26.0,26.0,26.0,-0.17,0.24,0.55,368.1,-2.83,-3.66,-1.51,-1.60,-719.99,625.66,5.5,0.00,0.00,0.00,0.00,0.04,-7.49,-7.49,0.12,9.88,-0.18,-6.84,46.28,-0.07,-0.39,3.85,100.0,0,0,131.71,0,0,0.0,0,0,0,0,7026,0,30.00,4,166.6,1,0,0.0,0.0,0.0,0.0,0,0,1.536,1.536,65.681,26.401,1,110.00,435.8,8750,0.0,0.0,110.0,110.0,433.0,0.00,0,0,1,333.3,52.3,52.3,60.1,60.1,34.0,-77.12,20.32,-39.4,16.8,2,-137.200,5.4,100.0,34.5,33.7,42.1,37.6,0,1,75.0,0.00,0.00,0.00,0.00,8360,5319,6482,5974,306.7,310.7,340.2,340.1,28.72,24.06,27.15,25.23,325.0,325.0,355.0,355.0,100.00,99.82,99.97,99.84,-0.30,-0.17,-0.19,-0.05,-0.1,-0.1,1.0,1.3,105.5,76.4,89.4,77.4,107.9,75.1,96.7,82.9,103.9,72.9,95.0,80.3,98.9,71.9,94.1,79.2,0.33,-0.29,0.07,0.04,0.00,142.47,142.14,131.71,131.71,176.9,6.4,0.6236986451805071,157.36444766544133,48.97383265220632,-39.611188069978596,-18.005086107107005
1.550,69.4,44.054025649058289,-78.681774933461128,60.9,-32.2,237.4,261.4,3397.4,3397,167.0,0,1,1,0,1,1,0,0,0,100,1,1.186,26.0,0.0,0.000,65.681,66.0,0.0,26.0,26.0,26.0,26.0,-0.25,0.24,0.71,364.0,-2.70,-3.74,-1.77,-2.30,-719.33,623.54,5.5,0.00,0.00,0.00,0.00,0.04,-7.49,-7.49,0.68,10.86,-0.32,-0.66,46.39,-0.11,-0.27,4.45,100.0,0,0,131.72,0,0,0.0,0,0,0,0,7026,0,30.00,4,167.0,0,0,0.0,0.0,0.0,0.0,0,0,1.584,1.584,65.681,26.401,0,110.00,435.8,8750,0.0,0.0,110.0,110.0,433.0,0.00,0,0,1,333.3,58.9,58.9,44.7,44.7,34.0,-26.43,8.76,-64.1,16.3,2,-137.240,5.7,100.0,37.5,32.1,53.9,50.7,0,1,56.6,0.00,0.00,0.00,0.00,3415,4104,7285,6898,316.7,313.8,337.0,337.3,28.72,24.06,27.15,25.23,325.0,325.0,355.0,355.0,100.00,99.82,99.97,99.84,-0.31,-0.28,-0.29,-0.20,0.0,-0.0,0.7,1.0,105.5,76.4,89.4,77.4,107.9,75.0,96.7,82.9,103.8,72.9,95.0,80.3,98.9,71.8,94.1,79.1,0.36,-0.31,0.03,0.03,0.00,142.67,142.44,131.72,131.72,176.9,6.4,0.7900632886041472,157.7245493648225,48.97383265220632,57.61627360806216,10.803051550459486
1.600,71.7,44.054005324389998,-78.681768638209888,-334.9,-355.1,116.3,30.7,3399.7,3400,167.2,0,1,1,0,1,1,0,0,0,100,1,1.186,26.0,0.0,0.003,65.681,66.0,0.0,26.0,26.0,26.0,26.0,-0.24,0.01,0.14,375.0,-2.79,-2.72,-1.79,-2.26,-718.63,621.28,5.6,0.00,0.00,0.00,0.00,0.04,-7.49,-7.49,0.87,-4.41,-0.21,7.39,46.45,-0.11,-0.28,3.14,100.0,0,0,130.42,0,0,0.0,0,0,0,0,6957,0,30.00,4,167.2,1,0,0.0,0.0,0.0,0.0,0,0,1.634,1.634,65.681,26.401,1,110.00,435.8,8750,0.0,0.0,110.0,110.0,433.0,0.00,0,0,1,166.7,83.3,83.3,45.3,45.3,34.0,-16.21,-1.14,-63.2,10.9,2,-137.290,5.7,100.0,20.8,14.4,59.8,52.2,0,1,5.9,0.00,0.00,0.00,0.00,2125,716,6911,6871,319.9,322.9,337.5,338.0,28.72,24.06,27.15,25.23,325.0,325.0,355.0,355.0,100.00,99.82,99.97,99.84,-0.39,-0.51,-0.29,-0.25,0.0,0.1,0.2,0.3,105.5,76.3,89.5,77.4,107.8,75.0,96.6,82.8,103.7,72.8,94.9,80.3,98.8,71.8,94.1,79.1,0.33,-0.34,0.02,0.02,0.00,142.36,142.12,130.61,130.24,176.9,6.4,0.2780287754891569,163.12607502624755,50.05413780725227,7.202034272135904,-10.803050981435902
1.650,74.0,44.053984909789541,-78.681762432890807,-172.3,-73.4,-441.1,-292.2,3402.1,3402,166.9,0,1,1,0,1,1,0,0,0,100,1,1.186,26.0,0.0,0.000,65.681,66.0,0.0,26.0,26.0,26.0,26.0,-0.18,-0.18,-0.65,392.4,-2.10,-1.51,-1.73,-1.31,-717.94,619.01,5.6,0.00,0.00,0.00,0.00,0.05,-7.49,-7.49,0.31,-13.79,0.01,1.40,46.36,-0.13,-0.52,2.39,100.0,0,0,129.47,0,0,0.0,0,0,0,0,6906,0,30.00,4,166.9,0,0,0.0,0.0,0.0,0.0,0,0,1.686,1.686,65.681,26.401,0,110.00,435.8,8750,0.0,0.0,110.0,110.0,433.0,0.00,0,0,1,333.3,87.7,87.7,73.1,73.1,34.0,-9.63,-5.72,-17.1,-0.7,2,-137.340,5.5,100.0,12.1,10.7,37.7,37.6,0,1,0.0,0.00,0.00,0.00,0.00,1513,2298,2590,1845,321.7,319.0,348.6,350.3,28.72,24.05,27.16,25.23,325.0,325.0,355.0,355.0,100.00,99.82,99.97,99.84,-0.44,-0.40,-0.29,-0.23,0.1,0.0,-0.4,-0.4,105.5,76.3,89.5,77.5,107.7,74.9,96.6,82.8,103.6,72.8,94.9,80.2,98.7,71.7,94.0,79.1,0.33,-0.33,0.07,0.06,0.00,141.78,141.63,129.47,129.47,176.9,6.4,0.6980687645210893,158.4447527920361,47.89352755406273,-54.015256614250404,-28.80813651951918
1.700,76.4,44.053965754239336,-78.681756677232528,182.0,225.8,-288.5,-362.6,3404.4,3404,166.6,0,1,1,0,1,1,0,0,0,100,1,1.186,26.0,0.0,0.000,65.681,66.0,0.0,26.0,26.0,26.0,26.0,-0.33,-0.24,-0.22,391.4,-2.33,-2.71,-1.21,-1.42,-717.30,616.88,5.7,0.00,0.00,0.00,0.00,0.05,-7.49,-7.49,-0.19,-5.50,-0.10,-4.93,46.26,-0.14,-0.69,4.09,100.0,0,0,129.07,0,0,0.0,0,0,0,0,6884,0,30.00,4,166.6,1,0,0.0,0.0,0.0,0.0,0,0,1.734,1.734,65.681,26.401,1,110.00,435.8,8750,0.0,0.0,110.0,110.0,433.0,0.00,0,0,1,333.3,67.1,67.1,89.3,89.3,34.0,-68.76,2.10,-9.7,0.4,2,-137.390,5.5,100.0,21.2,22.0,23.3,19.5,0,1,0.0,0.00,0.00,0.00,0.00,6461,4440,1756,726,309.7,312.8,350.6,353.1,28.71,24.05,27.16,25.23,325.0,325.0,355.0,355.0,100.00,99.82,99.97,99.84,-0.51,-0.28,-0.33,-0.16,-0.1,-0.1,-0.6,-0.5,105.5,76.3,89.5,77.5,107.6,74.9,96.5,82.7,103.6,72.7,94.8,80.2,98.6,71.7,93.9,79.0,0.33,-0.33,0.08,0.09,0.00,142.17,141.68,129.07,129.07,176.9,6.4,0.4635730794599704,157.7245493648225,47.17332415530035,39.61118806997831,3.6010169938118963
1.750,78.7,44.053945519503202,-78.681750651777762,257.0,135.6,10.4,57.1,3406.7,3407,166.2,0,1,1,0,1,1,0,0,0,100,1,1.186,26.0,0.0,0.003,65.681,66.0,0.0,26.0,26.0,26.0,26.0,-0.37,-0.23,0.19,380.5,-2.13,-3.79,-0.72,-1.73,-716.63,614.63,5.7,0.00,0.00,0.00,0.00,0.05,-7.49,-7.49,-0.07,7.21,-0.35,-5.81,46.15,-0.21,-0.60,6.03,100.0,0,0,129.48,0,0,0.0,0,0,0,0,6907,0,30.00,4,166.2,0,0,0.0,0.0,0.0,0.0,0,0,1.784,1.784,65.681,26.401,0,110.00,435.8,8750,0.0,0.0,110.0,110.0,433.0,0.00,0,0,1,333.3,56.6,56.6,83.3,83.3,34.0,-64.97,10.24,-47.1,3.3,2,-137.440,4.8,100.0,34.1,28.8,23.8,22.4,0,1,0.0,0.00,0.00,0.00,0.00,7044,4298,5343,4979,308.5,313.0,342.4,343.4,28.71,24.05,27.16,25.23,325.0,325.0,355.0,355.0,100.00,99.82,99.97,99.84,-0.39,-0.28,-0.52,-0.22,-0.0,0.0,-0.4,-0.2,105.5,76.3,89.5,77.5,107.5,74.9,96.4,82.7,103.5,72.7,94.7,80.1,98.5,71.7,93.8,78.9,0.30,-0.27,0.09,0.09,0.00,142.16,141.53,129.48,129.48,176.9,6.4,0.47528938553264577,162.40587159903393,48.25362925344392,0.0,-7.202034556647661
1.800,81.0,44.053925194834910,-78.681744626323010,-14.5,-123.0,389.1,307.3,3409.0,3409,165.8,0,1,1,0,1,1,0,0,0,100,1,1.186,26.0,0.0,0.003,65.681,66.0,0.0,26.0,26.0,26.0,26.0,-0.38,-0.20,0.03,376.4,-2.10,-2.94,-1.36,-1.89,-715.96,612.37,5.7,0.00,0.00,0.00,0.00,0.05,-7.49,-7.49,0.32,5.92,-0.26,5.93,46.04,-0.22,-0.42,4.74,100.0,0,0,129.29,0,0,0.0,0,0,0,0,6896,0,30.00,4,165.8,1,0,0.0,0.0,0.0,0.0,0,0,1.836,1.836,65.681,26.401,1,110.00,435.8,8750,0.0,0.0,110.0,110.0,433.0,0.00,0,0,1,333.3,68.3,68.3,65.8,65.8,34.0,-33.70,-0.65,-69.3,-7.2,2,-137.490,2.9,100.0,33.4,22.6,43.2,37.7,0,1,0.0,0.00,0.00,0.00,0.00,4205,1403,6461,5429,315.3,320.9,339.9,341.3,28.71,24.05,27.16,25.23,325.0,325.0,355.0,355.0,100.00,99.82,99.97,99.84,-0.39,-0.38,-0.53,-0.38,0.0,0.0,-0.3,-0.1,105.5,76.3,89.5,77.5,107.4,74.8,96.3,82.6,103.4,72.7,94.6,80.1,98.5,71.6,93.8,78.9,0.21,-0.18,0.05,0.05,0.00,141.57,141.19,129.38,129.19,176.9,6.4,0.4304648650006177,157.7245493648225,46.45312069963558,-50.41423933592597,-28.80813651951918
1.850,83.3,44.053906129216863,-78.681739050529046,-393.8,-148.0,91.7,80.1,3411.3,3411,165.5,0,1,1,0,1,1,0,0,0,100,1,1.186,26.0,0.0,0.006,65.681,66.0,0.0,26.0,26.0,26.0,26.0,-0.26,-0.18,-0.36,384.3,-2.51,-1.60,-1.63,-1.74,-715.34,610.25,5.7,0.00,0.00,0.00,0.00,0.05,-7.49,-7.49,0.32,-5.57,0.14,6.56,45.95,-0.19,-0.38,1.82,100.0,0,0,128.65,0,0,0.0,0,0,0,0,6862,0,30.00,4,165.5,0,0,0.0,0.0,0.0,0.0,0,0,1.884,1.884,65.681,26.401,0,110.00,435.8,8750,0.0,0.0,110.0,110.0,433.0,0.00,0,0,1,333.3,85.4,85.4,58.0,58.0,34.0,-9.95,-3.87,-31.9,-4.7,2,-137.540,1.8,100.0,13.7,15.2,47.8,41.7,0,1,0.0,0.00,0.00,0.00,0.00,1653,2206,3646,4672,321.5,319.5,345.4,343.0,28.71,24.05,27.16,25.24,325.0,325.0,355.0,355.0,100.00,99.82,99.97,99.84,-0.34,-0.35,-0.40,-0.34,0.0,0.0,-0.3,-0.1,105.4,76.3,89.5,77.5,107.3,74.8,96.3,82.6,103.3,72.6,94.6,80.0,98.4,71.6,93.7,78.9,0.13,-0.11,0.04,0.04,0.00,140.73,140.72,128.65,128.65,176.9,6.4,0.4791659420284376,157.36444766544133,45.372815601492,39.611188069978596,0.0
1.900,85.6,44.053885894480729,-78.681733294870767,0.3,43.0,-314.5,-213.7,3413.6,3414,165.1,0,1,1,0,1,1,0,0,0,100,1,1.186,26.0,0.0,0.006,65.681,66.0,0.0,26.0,26.0,26.0,26.0,-0.12,-0.18,-0.44,390.1,-2.53,-1.80,-1.08,-1.06,-714.70,608.00,5.8,0.00,0.00,0.00,0.00,0.05,-7.49,-7.49,-0.04,-6.35,0.22,-3.09,45.86,-0.16,-0.48,1.54,100.0,0,0,128.22,0,0,0.0,0,0,0,0,6839,0,30.00,4,165.1,1,0,0.0,0.0,0.0,0.0,0,0,1.936,1.936,65.681,26.401,1,110.00,435.8,8750,0.0,0.0,110.0,110.0,433.0,0.00,0,0,1,333.3,79.4,79.4,77.0,77.0,34.0,-19.96,1.75,-5.8,0.5,2,-137.590,1.4,100.0,13.7,17.4,32.1,31.0,0,1,0.0,0.00,0.00,0.00,0.00,2987,3964,1427,3801,318.4,314.8,351.5,345.3,28.71,24.05,27.16,25.24,325.0,325.0,355.0,355.0,100.00,99.82,99.97,99.84,-0.28,-0.18,-0.24,-0.15,-0.0,0.0,-0.5,-0.3,105.4,76.3,89.5,77.5,107.2,74.7,96.2,82.5,103.2,72.6,94.5,80.0,98.3,71.5,93.6,78.8,0.10,-0.08,0.08,0.07,0.00,140.51,140.38,128.22,128.22,176.9,6.4,0.4903060268852505,161.68566817182037,46.45312069963558,-7.202034556647732,-3.60101756283548
1.950,87.8,44.053865749676760,-78.681727449280331,192.0,67.3,-72.6,-82.2,3415.9,3416,164.8,0,1,1,0,1,1,0,0,0,100,1,1.186,26.0,0.0,0.009,65.681,66.0,0.0,26.0,26.0,26.0,26.0,-0.12,-0.17,-0.15,387.4,-2.55,-2.32,-1.20,-1.26,-714.05,605.76,5.8,0.00,0.00,0.00,0.00,0.05,-7.49,-7.49,-0.22,-1.52,-0.22,-7.44,45.76,-0.14,-0.52,1.57,100.0,0,0,128.09,0,0,0.0,0,0,0,0,6833,0,30.00,4,164.8,0,0,0.0,0.0,0.0,0.0,1,0,1.986,1.986,65.681,26.401,0,110.00,435.8,8750,0.0,0.0,110.0,110.0,433.0,0.00,0,0,1,333.3,72.1,72.1,77.7,77.7,34.0,-19.27,8.06,-24.6,3.6,2,-137.650,1.9,100.0,23.3,20.7,28.5,26.9,0,1,0.0,0.00,0.00,0.00,0.00,3238,3938,4137,2524,317.5,314.7,345.4,348.6,28.71,24.05,27.17,25.24,325.0,325.0,355.0,355.0,100.00,99.82,99.97,99.84,-0.18,-0.12,-0.25,-0.08,0.1,-0.0,-0.4,-0.3,105.4,76.3,89.5,77.5,107.2,74.7,96.1,82.4,103.2,72.5,94.4,79.9,98.2,71.5,93.6,78.7,0.11,-0.10,0.09,0.06,0.00,140.38,140.26,128.09,128.09,176.9,6.4,0.2565151067676132,156.64424420977656,45.01271384520845,-50.41423933592597,-21.606102531895317
2.000,90.1,44.053846773990877,-78.681722053350697,-83.1,-79.1,109.7,13.9,3418.2,3418,164.4,0,1,1,0,1,1,0,0,0,100,1,1.186,26.0,0.0,0.009,65.681,66.0,1.6,26.0,26.0,26.0,26.0,-0.23,-0.20,-0.26,386.6,-3.51,-3.08,-1.80,-1.02,-713.45,603.65,5.8,0.00,0.00,0.00,0.00,0.05,-7.49,-7.49,-0.32,-3.83,-0.40,-1.21,45.66,-0.12,-0.49,1.16,100.0,0,0,127.85,0,0,0.0,0,0,0,0,6819,0,30.00,4,164.4,1,0,0.0,0.0,0.0,0.0,1,0,2.034,2.034,65.681,26.401,1,110.00,435.8,8750,0.0,0.0,110.0,110.0,433.0,0.00,0,0,1,333.3,79.2,79.2,67.7,67.7,34.0,-20.49,5.79,-53.9,3.0,2,-137.690,2.0,100.0,19.1,16.8,34.0,27.6,0,1,0.0,0.00,0.00,0.00,0.00,2935,2873,6031,3857,319.2,317.4,339.5,345.5,28.71,24.04,27.17,25.24,325.0,325.0,355.0,355.0,100.00,99.82,99.97,99.84,-0.24,-0.20,-0.30,-0.10,0.0,-0.1,-0.2,-0.2,105.4,76.3,89.6,77.5,107.1,74.6,96.1,82.4,103.1,72.5,94.4,79.9,98.1,71.4,93.5,78.7,0.12,-0.13,0.07,0.08,0.00,139.70,139.82,127.85,127.85,176.9,6.4,0.40062451248020264,156.64424423822777,44.29251044644605,90.02542797492907,14.404068544271311
2.050,92.4,44.053826629186901,-78.681716387624576,101.6,103.5,-5.7,-60.0,3420.4,3420,164.0,0,1,1,0,1,1,0,0,0,100,1,1.186,26.0,0.0,0.012,65.681,66.0,10.9,26.0,26.0,26.0,26.0,-0.14,-0.31,-0.19,386.2,-2.63,-2.54,-1.16,-1.79,-712.82,601.41,5.8,0.00,0.00,0.00,0.00,0.06,-7.49,-7.49,-0.51,-1.13,-0.41,2.55,45.53,-0.10,-0.60,1.68,100.0,0,0,127.09,0,0,0.0,0,0,0,0,6779,0,30.00,4,164.0,0,0,0.0,0.0,0.0,0.0,1,0,2.084,2.084,65.681,26.401,0,110.00,435.8,8750,0.0,0.0,110.0,110.0,433.0,0.00,0,0,1,333.3,69.9,69.9,77.9,77.9,34.0,-30.25,6.54,-9.7,6.1,2,-137.750,1.9,100.0,24.2,22.0,33.7,24.6,0,1,0.0,0.00,0.00,0.00,0.00,4216,4004,2025,2799,315.3,314.5,349.8,348.3,28.70,24.04,27.17,25.24,325.0,325.0,355.0,355.0,100.00,99.82,99.97,99.84,-0.25,-0.17,-0.24,-0.10,-0.4,-0.4,-0.7,-0.6,105.4,76.3,89.6,77.5,107.0,74.6,96.0,82.3,103.0,72.5,94.3,79.8,98.1,71.4,93.4,78.6,0.11,-0.12,0.07,0.09,0.00,139.07,138.88,127.09,127.09,176.9,6.4,0.38961519477556317,165.64678700726947,46.45312069963558,36.01017107616656,3.6010169938119674
2.100,94.7,44.053805405197004,-78.681710452101981,11.6,47.4,-30.6,127.4,3422.7,3423,163.0,0,1,1,0,1,1,0,0,0,100,1,1.186,26.0,0.0,0.015,65.681,66.0,28.2,26.0,26.0,26.0,26.0,-0.09,-0.57,0.13,381.8,-2.68,-2.61,-0.82,-1.52,-712.16,599.05,5.8,0.00,0.00,0.00,0.00,0.06,-7.49,-7.49,-0.49,-0.17,-0.44,-2.38,45.27,-0.11,-0.55,1.54,100.0,0,0,126.25,0,0,0.0,0,0,0,0,6734,0,30.00,4,163.0,1,0,0.0,0.0,0.0,0.0,1,0,2.139,2.139,65.681,26.401,1,110.00,435.8,8750,0.0,0.0,110.0,110.0,433.0,0.00,0,0,1,166.7,69.3,69.3,69.6,69.6,34.0,-15.39,14.91,-31.4,8.4,2,-137.800,-0.1,100.0,24.8,24.3,32.1,31.0,0,1,0.0,0.00,0.00,0.00,0.00,3210,4402,5091,3891,317.7,313.3,342.7,344.9,28.70,24.04,27.17,25.24,325.0,325.0,355.0,355.0,100.00,99.82,99.97,99.84,-0.11,-0.04,-0.30,-0.08,-1.2,-1.0,-0.7,-0.6,105.4,76.3,89.6,77.5,106.9,74.6,95.9,82.3,102.9,72.4,94.2,79.7,98.0,71.4,93.4,78.6,0.01,-0.00,0.07,0.08,0.00,136.91,137.16,126.25,126.25,176.9,6.4,0.5915234568468101,160.24526134584443,44.65261214582725,-162.04576984275036,-46.813222626626185
2.150,96.9,44.053786609375436,-78.681705236036663,-51.2,-60.9,52.5,-29.2,3424.9,3425,161.7,0,1,1,0,1,1,0,0,0,100,1,1.186,26.0,0.0,0.015,65.681,66.0,50.1,26.0,26.0,26.0,26.0,-0.10,-0.98,-0.24,383.1,-2.55,-1.98,-1.42,-1.13,-711.58,596.96,5.8,0.00,0.00,0.00,0.00,0.06,-7.49,-7.49,-0.59,-4.11,-0.57,-0.61,44.89,-0.10,-0.55,0.24,100.0,0,0,124.70,0,0,0.0,0,0,0,0,6652,0,30.00,4,161.7,0,0,0.0,0.0,0.0,0.0,1,0,2.187,2.187,65.681,26.401,0,110.00,435.8,8750,0.0,0.0,110.0,110.0,433.0,0.00,0,0,1,166.7,73.6,73.6,69.8,69.8,34.0,-10.01,4.92,-31.6,10.1,2,-137.850,-1.8,100.0,22.2,21.3,34.8,29.5,0,1,0.0,0.00,0.00,0.00,0.00,3204,3482,5016,5222,317.5,316.6,342.9,343.0,28.70,24.04,27.17,25.24,325.0,325.0,355.0,355.0,100.00,99.82,99.97,99.84,-0.05,-0.04,-0.24,-0.03,-2.6,-3.7,-1.0,-1.1,105.4,76.3,89.6,77.5,106.8,74.5,95.9,82.2,102.8,72.4,94.2,79.7,97.9,71.4,93.3,78.5,-0.10,0.09,0.07,0.08,0.00,133.68,132.62,124.70,124.70,176.9,6.4,1.0139033484509261,149.44221002299443,41.771798436972965,-82.82339370279288,-21.606102531895317
2.200,99.1,44.053768083350356,-78.681700019971359,251.8,144.9,-121.6,15.5,3427.2,3427,159.7,0,1,1,0,1,1,0,0,0,100,1,1.186,26.0,0.0,0.018,65.681,66.0,70.3,26.0,26.0,26.0,26.0,-0.08,-1.30,0.09,378.6,-2.59,-2.82,-2.13,-1.41,-711.00,594.90,5.8,0.00,0.00,0.00,0.00,0.06,-7.49,-7.49,-0.77,-0.90,-0.57,1.45,44.33,-0.08,-0.75,0.06,100.0,0,0,121.72,0,0,0.0,0,0,0,0,6493,0,30.00,4,159.7,1,0,0.0,0.0,0.0,0.0,1,0,2.234,2.234,65.681,26.401,1,110.00,435.8,8750,0.0,0.0,110.0,110.0,433.0,0.00,0,0,1,166.7,55.1,55.1,87.0,87.0,34.0,-40.78,14.56,-14.7,3.6,2,-137.890,-1.9,100.0,34.8,28.5,28.7,30.3,0,1,0.0,0.00,0.00,0.00,0.00,8213,4476,2898,2174,306.6,313.0,348.7,348.3,28.70,24.04,27.17,25.24,325.0,325.0,355.0,355.0,100.00,99.82,99.97,99.84,-0.10,0.03,-0.22,-0.06,-2.1,-3.2,-2.3,-2.0,105.4,76.3,89.6,77.5,106.8,74.6,95.8,82.2,102.8,72.4,94.1,79.7,97.9,71.4,93.2,78.5,-0.08,0.12,0.09,0.06,0.00,133.41,130.97,121.98,121.46,176.9,6.4,1.3055650117860849,151.96292197556514,42.49200189263772,0.0,-3.6010164247882415
2.250,101.3,44.053748658003670,-78.681694624041711,22.9,86.8,79.9,27.4,3429.3,3429,157.0,0,1,1,0,1,1,0,0,0,100,1,1.186,26.0,0.0,0.021,65.681,66.0,91.8,26.0,26.0,26.0,26.0,-0.02,-1.50,0.37,374.8,-4.04,-2.54,-1.44,-1.41,-710.40,592.74,5.8,0.00,0.00,0.00,0.00,0.06,-7.49,-7.49,-0.65,2.22,-0.37,4.14,43.55,-0.05,-0.76,-0.20,100.0,0,0,120.08,0,0,0.0,0,0,0,0,6405,0,30.00,4,157.0,0,0,0.0,0.0,0.0,0.0,1,0,2.286,2.286,65.681,26.401,0,110.00,435.8,8750,0.0,0.0,110.0,110.0,433.0,0.00,0,0,1,333.3,54.5,54.5,73.0,73.0,34.0,-19.08,17.00,-23.6,12.7,2,-137.950,-1.7,100.0,36.0,32.9,32.7,31.7,0,1,0.0,0.00,0.00,0.00,0.00,5382,5980,4261,4143,312.5,309.7,344.8,344.3,28.70,24.04,27.18,25.24,325.0,325.0,355.0,355.0,100.00,99.82,99.97,99.84,-0.02,0.08,-0.23,0.03,-3.9,-4.2,-1.6,-1.7,105.4,76.3,89.6,77.5,106.8,74.6,95.7,82.2,102.8,72.5,94.0,79.6,97.9,71.4,93.2,78.5,-0.09,0.12,0.08,0.08,0.00,127.59,127.60,120.08,120.08,176.9,6.4,1.5450889942006576,149.44221002299443,41.41169679449414,-50.414239335926254,-18.005086107107076
2.300,103.5,44.053730761503708,-78.681689677772880,-213.8,-10.7,17.2,11.6,3431.5,3431,154.2,0,1,1,0,1,1,0,0,0,100,1,1.186,26.0,0.0,0.027,65.681,66.0,100.0,26.0,26.0,26.0,26.0,0.00,-1.59,0.02,379.9,-2.84,-2.24,-2.46,-0.62,-709.85,590.75,5.9,0.00,0.00,0.00,0.00,0.06,-7.49,-7.49,-0.65,-2.35,-0.38,-5.34,42.77,-0.05,-0.80,0.12,100.0,0,0,117.14,0,0,0.0,0,0,0,0,6248,0,30.00,4,154.2,1,0,0.0,0.0,0.0,0.0,1,0,2.334,2.334,65.681,26.401,1,110.00,435.8,8750,0.0,0.0,110.0,110.0,433.0,0.00,0,0,1,333.3,64.9,64.9,68.8,68.8,34.0,0.39,3.89,-19.0,6.9,2,-137.990,-0.7,100.0,25.3,32.3,33.5,32.2,0,1,0.0,0.00,0.00,0.00,0.00,3396,3980,3802,4108,317.1,313.4,346.1,344.5,28.70,24.04,27.18,25.24,325.0,325.0,355.0,355.0,100.00,99.82,99.97,99.84,0.02,0.02,-0.12,0.06,-10.3,-6.4,-2.6,-2.4,105.4,76.3,89.6,77.5,106.8,74.7,95.7,82.1,102.8,72.5,94.0,79.6,97.9,71.5,93.1,78.4,-0.05,0.04,0.08,0.06,0.00,116.10,121.44,117.14,117.14,176.9,6.4,1.590125781188394,146.9214980419725,40.69149328192701,-10.803051550459486,-3.6010175628356933
2.350,105.6,44.053711965682147,-78.681684461707576,70.2,-126.8,-221.8,-80.6,3433.6,3434,151.2,0,1,1,0,1,1,0,0,0,100,1,1.186,26.0,0.0,0.030,65.681,66.0,100.0,26.0,26.0,26.0,26.0,0.06,-1.67,-0.15,384.7,-3.08,-2.73,-2.37,-1.60,-709.27,588.66,5.9,0.00,0.00,0.00,0.00,0.06,-7.49,-7.49,-0.85,-3.25,-0.56,-3.85,41.94,-0.03,-0.88,-0.19,100.0,0,0,111.83,0,0,0.0,0,0,0,0,5965,0,30.00,4,151.2,0,0,0.0,0.0,0.0,0.0,1,0,2.384,2.384,65.681,26.401,0,110.00,435.8,8750,0.0,0.0,110.0,110.0,433.0,0.00,0,0,1,166.7,61.0,61.0,90.6,90.6,34.0,-1.04,-0.87,-1.3,5.4,2,-138.040,-6.2,100.0,28.8,26.0,22.4,28.2,0,1,0.0,0.00,0.00,0.00,0.00,5881,6227,1256,2315,312.5,309.0,352.3,348.8,28.70,24.04,27.18,25.24,325.0,325.0,355.0,355.0,100.00,99.82,99.97,99.84,0.11,0.32,-0.07,0.07,-8.1,-10.3,-6.2,-3.5,105.4,76.2,89.6,77.5,106.8,74.8,95.6,82.1,102.9,72.6,93.9,79.6,97.9,71.6,93.1,78.4,-0.27,0.28,0.10,0.07,0.00,118.20,115.54,110.19,113.47,176.9,6.4,1.6777961735562517,148.36190486794848,41.05159503821057,-61.217290886386024,-14.404067975247727
2.400,107.6,44.053693709453547,-78.681679425506573,160.2,121.6,21.5,-227.5,3435.6,3436,147.8,0,1,1,0,1,1,0,0,0,100,1,1.186,26.0,0.0,0.033,65.681,66.0,100.0,26.0,26.0,26.0,26.0,0.22,-1.61,0.11,384.2,-1.91,-3.28,-0.13,-1.35,-708.71,586.63,5.9,0.00,0.00,0.00,0.00,0.06,-7.49,-7.49,-0.76,5.52,-0.52,10.59,41.01,-0.00,-0.85,-5.42,100.0,0,0,106.92,0,0,0.0,0,0,0,0,5703,0,30.00,4,147.8,1,0,0.0,0.0,0.0,0.0,1,0,2.436,2.436,65.681,26.401,1,110.00,435.8,8750,0.0,0.0,110.0,110.0,433.0,0.00,0,0,1,333.3,56.0,56.0,89.6,89.6,34.0,21.01,3.12,-1.1,-0.3,2,-138.100,-26.6,100.0,36.8,32.1,23.5,16.8,0,1,0.0,0.00,0.00,0.00,0.00,5052,4441,1851,2303,312.3,313.3,350.1,349.0,28.70,24.04,27.18,25.24,325.0,325.0,355.0,355.0,100.00,99.82,99.97,99.84,0.90,1.05,-0.06,0.20,-4.1,-8.7,-3.0,-11.3,105.3,76.2,89.6,77.5,106.9,74.9,95.6,82.1,102.9,72.8,93.9,79.6,97.9,71.7,93.0,78.4,-1.29,1.33,0.10,0.10,0.00,119.40,114.28,110.86,102.99,176.9,6.4,1.6286804474788787,140.7997689533339,39.25108648440224,-64.81830788019806,-7.202034556647519
2.450,109.6,44.053676802207356,-78.681674659102072,-255.6,-132.9,27.0,343.4,3437.7,3438,144.9,0,1,1,0,1,1,0,0,0,100,1,1.186,26.0,0.0,0.045,65.681,66.0,100.0,26.0,26.0,26.0,26.0,0.38,-1.71,-0.01,382.2,-2.58,-1.49,-1.77,-0.99,-708.18,584.75,5.9,0.00,0.00,0.00,0.00,0.07,-7.49,-7.49,-0.62,-1.31,0.02,9.05,40.20,0.06,-0.69,-7.94,100.0,0,0,110.22,0,0,0.0,0,0,0,0,5879,0,30.00,4,144.9,0,0,0.0,0.0,0.0,0.0,0,0,2.484,2.484,65.681,26.401,0,110.00,435.8,8750,0.0,0.0,110.0,110.0,433.0,0.00,0,0,1,333.3,67.5,67.5,78.6,78.6,34.0,-1.82,-7.28,-4.8,35.4,2,-138.150,-56.5,100.0,24.0,25.4,24.9,34.0,0,1,0.0,0.00,0.00,0.00,0.00,3112,5961,3141,5972,317.8,310.1,347.3,340.4,28.69,24.04,27.18,25.24,325.0,325.0,355.0,355.0,100.00,99.82,99.97,99.84,2.65,2.68,0.11,0.38,-14.3,-10.3,-2.8,-2.6,105.3,76.2,89.6,77.5,106.9,75.0,95.6,82.1,102.9,72.8,93.9,79.6,98.0,71.8,93.0,78.4,-3.02,2.95,0.10,0.06,0.00,108.25,110.46,109.40,111.05,176.9,6.4,1.7517419901343918,141.88007407992868,40.33139158254582,-18.005085538083563,14.404068544271453
2.500,111.6,44.053658276182276,-78.681669353104596,-144.8,96.7,-116.9,-159.4,3439.6,3440,142.3,1,1,1,0,1,1,0,0,0,100,1,1.186,26.0,0.0,0.051,65.681,66.0,100.0,26.0,26.0,26.0,26.0,0.62,-1.59,-0.19,387.6,-2.85,-2.78,-1.86,-1.33,-707.59,582.69,5.9,0.00,0.00,0.00,0.00,0.07,-7.49,-7.49,-0.78,-1.91,0.07,-5.41,39.48,0.11,-0.70,-10.70,100.0,0,0,104.10,0,0,0.0,0,0,0,0,5553,0,30.00,4,142.3,1,0,0.0,0.0,0.0,0.0,0,0,2.538,2.538,65.681,26.401,1,110.00,435.8,8750,0.0,0.0,110.0,110.0,433.0,0.00,0,0,1,166.7,66.8,66.8,80.3,80.3,34.0,-2.88,-14.08,0.1,22.4,2,-138.200,-91.3,100.0,16.8,30.3,19.0,26.0,0,1,0.0,0.00,0.00,0.00,0.00,3279,6924,1119,3957,317.7,306.6,352.0,345.4,28.69,24.04,27.18,25.24,325.0,325.0,355.0,355.0,100.00,99.82,99.97,99.84,4.83,4.73,0.46,0.65,-16.4,-11.4,-8.4,-4.2,105.3,76.2,89.6,77.5,106.9,75.2,95.5,82.1,102.9,73.0,93.8,79.6,98.0,71.9,92.9,78.4,-5.13,4.90,0.10,0.08,0.00,103.33,106.70,100.55,107.64,176.9,6.4,1.717148799609399,138.99926039952555,40.69149333882938,-97.22746167804104,-3.6010164247883125
2.550,113.5,44.053642088393367,-78.681664496767922,89.4,49.2,-46.7,-3.2,3441.6,3442,139.8,1,1,1,0,1,1,0,0,0,100,1,1.186,26.0,0.0,0.057,65.681,66.0,100.0,26.0,26.0,26.0,26.0,0.80,-1.38,-0.09,385.7,-2.85,-2.25,-1.73,0.37,-707.05,580.89,5.9,0.00,0.00,0.00,0.00,0.07,-7.49,-7.49,-0.82,0.58,-0.30,-9.89,38.78,0.21,-0.70,-17.19,100.0,0,0,101.03,0,0,0.0,0,0,0,0,5389,0,30.00,4,139.8,0,0,0.0,0.0,0.0,0.0,0,0,2.586,2.586,65.681,26.401,0,110.00,435.8,8750,0.0,0.0,110.0,110.0,433.0,0.00,0,0,1,333.3,62.0,62.0,84.8,84.8,34.0,-5.61,-19.90,-0.1,36.4,2,-138.250,-120.6,100.0,21.3,32.7,16.7,25.9,0,1,0.0,0.00,0.00,0.00,0.00,4814,7050,997,4093,315.4,306.5,352.8,344.7,28.69,24.04,27.18,25.24,325.0,325.0,355.0,355.0,100.00,99.82,99.97,99.84,6.55,6.38,0.89,1.05,-16.6,-7.2,-11.9,-2.7,105.3,76.2,89.6,77.5,107.0,75.5,95.5,82.0,103.0,73.3,93.8,79.5,98.0,72.2,92.9,78.4,-6.93,6.54,0.10,0.08,0.00,101.37,108.41,94.87,107.19,176.9,6.4,1.5976545308670456,132.15732791212457,39.97128994006699,-97.22746196255201,0.0
2.600,115.4,44.053625271079333,-78.681659370634762,215.8,33.2,49.9,101.3,3443.5,3443,136.8,1,1,1,0,1,1,0,0,0,100,1,1.186,26.0,0.0,0.063,65.681,66.0,100.0,26.0,26.0,26.0,26.0,1.14,-1.47,0.30,379.6,-2.22,-3.24,-1.65,-0.46,-706.48,579.02,5.9,0.00,0.00,0.00,0.00,0.07,-7.49,-7.49,-0.70,3.01,-0.40,4.57,37.96,0.46,-0.71,-26.81,100.0,0,0,101.79,0,0,0.0,0,0,0,0,5429,0,30.00,4,136.8,1,0,0.0,0.0,0.0,0.0,0,0,2.637,2.637,65.681,26.401,1,110.00,435.8,8750,0.0,0.0,110.0,110.0,433.0,0.00,0,0,1,166.7,53.8,53.8,87.4,87.4,34.0,-10.09,-17.04,2.6,64.3,2,-138.300,-150.3,100.0,32.0,34.4,19.2,31.0,0,1,0.0,0.00,0.00,0.00,0.00,5603,7047,1331,4597,312.4,306.7,352.0,343.1,28.69,24.04,27.18,25.25,325.0,325.0,355.0,355.0,100.00,99.82,99.97,99.84,8.30,7.93,1.45,1.66,-12.8,-12.8,-6.6,-2.5,105.3,76.2,89.6,77.5,107.1,75.8,95.4,82.0,103.1,73.6,93.8,79.5,98.2,72.4,92.9,78.4,-8.71,8.19,0.11,0.07,0.00,97.98,100.35,98.35,105.22,176.9,6.4,1.8842770496930645,129.27651420327035,40.69149333882938,-57.61627389257356,21.606101962871662
2.650,117.3,44.053609802747715,-78.681654334433773,-155.3,1.8,122.4,68.2,3445.3,3445,134.3,1,1,1,0,1,1,0,0,0,100,1,1.186,26.0,0.0,0.072,65.681,66.0,100.0,26.0,26.0,26.0,26.0,1.26,-1.41,0.14,379.7,-2.26,-2.23,-1.62,-0.80,-705.92,577.30,5.9,0.00,0.00,0.00,0.00,0.07,-7.49,-7.49,-0.56,0.83,-0.12,8.04,37.27,0.82,-0.66,-29.32,100.0,0,0,101.10,0,0,0.0,0,0,0,0,5393,0,30.00,4,134.3,0,0,0.0,0.0,0.0,0.0,0,0,2.684,2.684,65.681,26.401,0,110.00,435.8,8750,0.0,0.0,110.0,110.0,433.0,0.00,0,0,1,333.3,62.2,62.2,72.7,72.7,34.0,-5.10,-18.07,17.6,86.0,2,-138.340,-179.0,100.0,24.3,34.5,25.3,34.4,0,1,0.0,0.00,0.00,0.00,0.00,3112,6342,2202,5919,317.9,308.3,349.1,340.1,28.68,24.04,27.18,25.25,325.0,325.0,355.0,355.0,100.00,99.83,99.97,99.84,10.62,9.87,2.09,2.28,-13.9,-8.4,-4.0,-3.1,105.3,76.2,89.6,77.5,107.2,76.1,95.4,82.1,103.2,73.9,93.7,79.6,98.3,72.7,92.9,78.4,-10.59,9.73,0.09,0.07,0.00,97.69,106.41,98.94,103.25,176.9,6.4,1.8961276328348786,126.39570052286722,42.131900136354155,-57.6162736080623,25.207119525707284
2.700,119.1,44.053593704890964,-78.681648848571982,-182.4,-35.8,-114.7,95.7,3447.2,3447,132.4,0,1,1,0,1,1,0,0,0,100,1,1.186,26.0,0.0,0.078,65.681,66.0,100.0,26.0,26.0,26.0,26.0,1.29,-0.94,-0.02,384.1,-2.10,-3.96,-2.29,0.10,-705.31,575.51,6.0,0.00,0.00,0.00,0.00,0.07,-7.49,-7.49,-0.65,-3.55,0.05,-4.30,36.72,1.15,-0.69,-26.02,100.0,0,0,95.41,0,0,0.0,0,0,0,0,5090,0,30.00,4,132.4,1,0,0.0,0.0,0.0,0.0,0,0,2.736,2.736,65.681,26.401,1,110.00,435.8,8750,0.0,0.0,110.0,110.0,433.0,0.00,0,0,1,333.3,67.9,67.9,76.7,76.7,34.0,-3.95,-21.42,-0.3,84.1,2,-138.400,-213.8,100.0,15.2,32.7,19.6,39.1,0,1,0.0,0.00,0.00,0.00,0.00,2275,6961,608,5300,319.9,306.3,353.5,341.0,28.68,24.04,27.18,25.25,325.0,325.0,355.0,355.0,100.00,99.83,99.97,99.84,13.59,12.45,2.73,2.79,-9.5,-7.3,-11.9,-2.2,105.3,76.2,89.6,77.5,107.3,76.5,95.4,82.1,103.3,74.2,93.7,79.6,98.3,73.1,92.8,78.4,-12.85,11.56,0.09,0.05,0.00,94.34,99.67,89.07,101.76,176.9,6.4,1.5962769183321546,123.51488684246412,43.21220529140011,-54.01525689876209,21.606103100918972
2.750,121.0,44.053578956016629,-78.681643542574506,122.7,-0.0,-105.2,-119.6,3449.0,3449,130.4,0,1,1,0,1,1,0,0,0,100,1,1.186,26.0,0.0,0.084,65.681,66.0,100.0,26.0,26.0,26.0,26.0,1.14,-0.96,-0.11,386.2,-1.84,-4.29,-1.82,0.03,-704.72,573.87,6.0,0.00,0.00,0.00,0.00,0.07,-7.49,-7.49,-0.74,0.16,-0.25,-6.82,36.17,1.45,-0.71,-28.96,100.0,0,0,91.72,0,0,0.0,0,0,0,0,4892,0,30.00,4,130.4,0,0,0.0,0.0,0.0,0.0,0,0,2.784,2.784,65.681,26.401,0,110.00,435.8,8750,0.0,0.0,110.0,110.0,433.0,0.00,0,0,1,166.7,62.9,62.9,88.4,88.4,34.0,-7.96,-20.27,0.0,21.9,2,-138.440,-247.1,100.0,21.3,32.7,14.3,33.2,0,1,0.0,0.00,0.00,0.00,0.00,3751,6868,0,3713,315.9,306.9,355.0,345.8,28.68,24.04,27.18,25.25,325.0,325.0,355.0,355.0,100.00,99.83,99.97,99.84,16.18,14.71,0.00,3.43,-9.0,-9.5,0.0,-4.9,105.3,76.2,89.6,77.6,107.4,77.0,95.3,82.1,103.4,74.7,93.7,79.6,98.4,73.5,92.8,78.5,-15.02,13.36,0.11,0.06,0.00,92.35,95.15,85.22,98.20,176.9,6.4,1.4944229655622936,120.994174832991,44.29251044644605,-10.80305155045977,32.40915408235473
