Time,Distance,GPS Latitude,GPS Longitude,Damper Velocity (Calc) FL,Damper Velocity (Calc) FR,Damper Velocity (Calc) RL,Damper Velocity (Calc) RR,Corr Dist,Corr Dist (Unstretched),Corr Speed,ABS Active,ABS Enabled,AID Allow Tire Blankets,AID Auto Blip,AID Auto Clutch,AID Auto Shift,AID Fuel Rate,AID Ideal Line,AID Mech Damage,AID Stability,AID Tire Wear Rate,Air Density,Air Temp,Ballast,Best Lap Delta,Best Lap Time,Brake Bias,Brake Pos,Brake Temp FL,Brake Temp FR,Brake Temp RL,Brake Temp RR,CG Accel Lateral,CG Accel Longitudinal,CG Accel Vertical,CG Height,Camber FL,Camber FR,Camber RL,Camber RR,Car Coord X,Car Coord Y,Car Coord Z,Car Damage Front,Car Damage Left,Car Damage Rear,Car Damage Right,Car Pos Norm,Caster FL,Caster FR,Chassis Pitch Angle,Chassis Pitch Rate,Chassis Roll Angle,Chassis Roll Rate,Chassis Velocity X,Chassis Velocity Y,Chassis Velocity Z,Chassis Yaw Rate,Clutch Pos,DRS Active,DRS Available,Drive Train Speed,ERS Heat Charging,ERS Is Charging,ERS Max Energy,ERS Power Level,ERS Recovery Level,Engine Brake Setting,Engine Limiter,Engine RPM,Flags,Fuel Level,Gear,Ground Speed,HR Sample Clock,In Pit,KERS Charge,KERS Deployed Energy,KERS Input,KERS Max Energy,LR Sample Clock,Lap Invalidated,Lap Time,Lap Time2,Last Lap Time,Last Sector Time,MR Sample Clock,Max Fuel,Max Power,Max RPM,Max Sus Travel FL,Max Sus Travel FR,Max Sus Travel RL,Max Sus Travel RR,Max Torque,Max Turbo Boost,Num Tires Off Track,Penalties Enabled,Position,Raw Data Sample Rate,Ride Height FL,Ride Height FR,Ride Height RL,Ride Height RR,Road Temp,Self Align Torque FL,Self Align Torque FR,Self Align Torque RL,Self Align Torque RR,Session Lap Count,Session Time Left,Steering Angle,Surface Grip,Suspension Travel FL,Suspension Travel FR,Suspension Travel RL,Suspension Travel RR,TC Active,TC Enabled,Throttle Pos,Tire Dirt Level FL,Tire Dirt Level FR,Tire Dirt Level RL,Tire Dirt Level RR,Tire Load FL,Tire Load FR,Tire Load RL,Tire Load RR,Tire Loaded Radius FL,Tire Loaded Radius FR,Tire Loaded Radius RL,Tire Loaded Radius RR,Tire Pressure FL,Tire Pressure FR,Tire Pressure RL,Tire Pressure RR,Tire Radius FL,Tire Radius FR,Tire Radius RL,Tire Radius RR,Tire Rubber Grip FL,Tire Rubber Grip FR,Tire Rubber Grip RL,Tire Rubber Grip RR,Tire Slip Angle FL,Tire Slip Angle FR,Tire Slip Angle RL,Tire Slip Angle RR,Tire Slip Ratio FL,Tire Slip Ratio FR,Tire Slip Ratio RL,Tire Slip Ratio RR,Tire Temp Core FL,Tire Temp Core FR,Tire Temp Core RL,Tire Temp Core RR,Tire Temp Inner FL,Tire Temp Inner FR,Tire Temp Inner RL,Tire Temp Inner RR,Tire Temp Middle FL,Tire Temp Middle FR,Tire Temp Middle RL,Tire Temp Middle RR,Tire Temp Outer FL,Tire Temp Outer FR,Tire Temp Outer RL,Tire Temp Outer RR,Toe In FL,Toe In FR,Toe In RL,Toe In RR,Turbo Boost,Wheel Angular Speed FL,Wheel Angular Speed FR,Wheel Angular Speed RL,Wheel Angular Speed RR,Wind Direction,Wind Speed,CG Distance,Lateral Velocity,Longitudinal Velocity,Lateral Acceleration,Longitudinal Acceleration
s,m,deg,deg,mm/s,mm/s,mm/s,mm/s,m,m,km/h,,,,,,,,,%,%,,kg/m3,C,kg,s,s,%,%,C,C,C,C,G,G,G,mm,deg,deg,deg,deg,m,m,m,,,,,,deg,deg,deg,deg/s,deg,deg/s,m/s,m/s,m/s,deg/s,%,,,rad/s,,,MJ,,,,,rpm,,l,,km/h,,,%,kJ,%,MJ,,,s,s,s,s,,l,hp,rpm,mm,mm,mm,mm,N.m,,,,,Hz,mm,mm,mm,mm,C,N.m,N.m,N.m,N.m,,s,deg,%,mm,mm,mm,mm,,,%,,,,,N,N,N,N,mm,mm,mm,mm,psi,psi,psi,psi,mm,mm,mm,mm,%,%,%,%,deg,deg,deg,deg,%,%,%,%,C,C,C,C,C,C,C,C,C,C,C,C,C,C,C,C,deg,deg,deg,deg,,rad/s,rad/s,rad/s,rad/s,deg,km/h,G,Km/h,Km/h,Km/h^2,Km/h^2
0.000,0.0,44.054632061617163,-78.681943646194398,-37.5,-91.5,135.1,193.8,3377.0,3377,152.0,0,1,1,0,1,1,0,0,0,100,1,1.186,26.0,0.0,0.000,74.146,66.0,0.0,26.0,26.0,26.0,26.0,0.30,0.38,0.07,376.9,-1.78,-1.46,-2.19,-1.53,-738.09,690.97,5.7,0.00,0.00,0.00,0.00,0.00,-7.49,-7.49,-0.31,-0.65,0.36,4.88,42.24,0.19,-0.30,-5.96,100.0,0,0,121.02,0,0,0.0,0,0,0,0,8112,0,30.00,3,152.0,0,0,0.0,0.0,0.0,0.0,0,0,0.020,0.020,74.146,20.191,0,110.00,435.8,8750,0.0,0.0,110.0,110.0,433.0,0.00,0,0,1,333.3,73.0,73.0,63.8,63.8,34.0,12.67,33.80,-0.5,46.6,2,-182.960,-8.4,100.0,20.4,18.8,38.2,44.1,0,1,100.0,0.00,0.00,0.00,0.00,3508,4062,5584,5416,314.4,314.0,340.5,340.4,22.77,20.95,24.39,23.42,325.0,325.0,355.0,355.0,99.85,99.69,99.87,99.81,0.49,0.53,0.33,0.47,-0.0,-0.1,2.1,1.7,68.3,56.9,72.2,66.2,76.3,59.8,79.7,71.9,72.9,57.4,77.7,69.5,71.2,56.6,77.2,68.7,-0.48,0.48,0.06,0.05,0.00,129.25,129.71,121.01,121.02,152.3,2.9,0.4891829923454003
0.050,2.1,44.054613175863437,-78.681939059654212,-32.6,80.1,-60.7,-82.6,3379.1,3379,152.7,0,1,1,0,1,1,0,0,0,100,1,1.186,26.0,0.0,-0.003,74.146,66.0,0.0,26.0,26.0,26.0,26.0,0.30,0.43,-0.09,380.0,-2.61,-2.26,-2.69,-1.08,-737.58,688.87,5.7,0.00,0.00,0.00,0.00,0.00,-7.49,-7.49,-0.33,0.58,0.53,1.68,42.44,0.26,-0.33,-6.37,100.0,0,0,122.34,0,0,0.0,0,0,0,0,8201,0,30.00,3,152.7,1,0,0.0,0.0,0.0,0.0,0,0,0.072,0.072,74.146,20.191,1,110.00,435.8,8750,0.0,0.0,110.0,110.0,433.0,0.00,0,0,1,166.7,72.6,72.6,64.2,64.2,34.0,4.80,45.27,0.6,34.6,2,-183.010,-6.6,100.0,18.8,22.8,35.2,40.0,0,1,100.0,0.00,0.00,0.00,0.00,2506,4569,4316,4615,318.4,311.7,344.2,342.7,22.77,20.95,24.39,23.43,325.0,325.0,355.0,355.0,99.85,99.69,99.87,99.81,0.48,0.53,0.42,0.55,-0.1,-0.1,2.8,2.3,68.3,56.9,72.2,66.2,76.2,59.8,79.7,71.9,72.9,57.4,77.7,69.5,71.2,56.6,77.2,68.7,-0.39,0.39,0.06,0.05,0.00,129.81,130.42,122.33,122.34,152.3,2.9,0.5319774431308154,146.9214980419725,36.010171076166756
0.100,4.3,44.054595369295640,-78.681934652978342,-16.9,-9.5,-6.8,69.0,3381.3,3381,153.5,0,1,1,0,1,1,0,0,0,100,1,1.186,26.0,0.0,-0.006,74.146,66.0,0.0,26.0,26.0,26.0,26.0,0.35,0.44,0.13,379.5,-3.46,-1.80,-2.51,-1.15,-737.09,686.89,5.7,0.00,0.00,0.00,0.00,0.00,-7.49,-7.49,-0.30,-0.60,0.60,-0.74,42.65,0.30,-0.33,-5.46,100.0,0,0,122.21,0,0,0.0,0,0,0,0,8192,0,30.00,3,153.5,0,0,0.0,0.0,0.0,0.0,0,0,0.120,0.120,74.146,20.191,0,110.00,435.8,8750,0.0,0.0,110.0,110.0,433.0,0.00,0,0,1,333.3,75.3,75.3,63.3,63.3,34.0,1.70,34.31,5.5,53.6,2,-183.060,-4.8,100.0,18.0,22.3,34.8,43.5,0,1,100.0,0.00,0.00,0.00,0.00,1739,3882,4519,5547,320.2,313.8,342.8,339.7,22.77,20.95,24.39,23.43,325.0,325.0,355.0,355.0,99.85,99.69,99.88,99.81,0.50,0.52,0.50,0.63,-0.1,-0.1,2.2,1.8,68.3,56.9,72.2,66.2,76.2,59.8,79.7,71.9,72.9,57.4,77.7,69.5,71.2,56.6,77.2,68.7,-0.29,0.29,0.08,0.04,0.00,130.47,130.98,122.21,122.21,152.3,2.9,0.5770615218501404,147.64170146918607,36.37027283245032,14.404068259759697,10.803051550459486
0.150,6.4,44.054576303677592,-78.681929976505984,-55.1,-35.0,14.5,-83.6,3383.4,3383,154.2,0,1,1,0,1,1,0,0,0,100,1,1.186,26.0,0.0,-0.006,74.146,66.0,0.0,26.0,26.0,26.0,26.0,0.33,0.40,-0.10,381.9,-3.04,-2.12,-1.66,-1.16,-736.57,684.77,5.7,0.00,0.00,0.00,0.00,0.01,-7.49,-7.49,-0.40,-3.07,0.43,-1.18,42.85,0.30,-0.35,-3.73,100.0,0,0,123.11,0,0,0.0,0,0,0,0,8253,0,30.00,3,154.2,1,0,0.0,0.0,0.0,0.0,0,0,0.170,0.170,74.146,20.191,1,110.00,435.8,8750,0.0,0.0,110.0,110.0,433.0,0.00,0,0,1,166.7,76.9,76.9,65.9,65.9,34.0,3.58,25.44,10.0,43.4,2,-183.110,-3.2,100.0,15.2,20.5,35.5,39.3,0,1,100.0,0.00,0.00,0.00,0.00,3141,2949,4265,5100,316.7,316.1,343.4,342.1,22.77,20.95,24.40,23.43,325.0,325.0,355.0,355.0,99.85,99.69,99.88,99.81,0.45,0.50,0.49,0.61,-0.1,-0.1,2.4,2.1,68.3,56.9,72.2,66.2,76.1,59.8,79.7,72.0,72.8,57.4,77.6,69.5,71.1,56.6,77.2,68.8,-0.19,0.18,0.06,0.05,0.00,131.13,131.42,123.11,123.11,152.3,2.9,0.5281098370604358,148.36190486794848,37.090476231212705,54.01525632973858,28.80813651951918
0.200,8.5,44.054558317245480,-78.681925389965798,-31.4,-85.2,-103.3,-38.2,3385.6,3386,154.9,0,1,1,0,1,1,0,0,0,100,1,1.186,26.0,0.0,-0.009,74.146,66.0,0.0,26.0,26.0,26.0,26.0,0.30,0.39,-0.35,387.3,-2.38,-2.52,-1.26,-1.41,-736.06,682.77,5.7,0.00,0.00,0.00,0.00,0.01,-7.49,-7.49,-0.59,-4.94,0.40,-2.59,43.04,0.30,-0.37,-3.03,100.0,0,0,124.12,0,0,0.0,0,0,0,0,8321,0,30.00,3,154.9,0,0,0.0,0.0,0.0,0.0,1,0,0.220,0.220,74.146,20.191,0,110.00,435.8,8750,0.0,0.0,110.0,110.0,433.0,0.00,0,0,1,333.3,82.0,82.0,72.9,72.9,34.0,1.33,31.95,6.0,31.7,2,-183.160,-1.9,100.0,13.6,16.3,30.4,37.4,0,1,100.0,0.00,0.00,0.00,0.00,983,3533,2822,4109,322.2,314.8,347.1,343.6,22.78,20.95,24.40,23.43,325.0,325.0,355.0,355.0,99.85,99.69,99.88,99.81,0.43,0.48,0.44,0.56,-0.1,-0.1,2.8,2.5,68.4,56.9,72.2,66.2,76.1,59.8,79.7,72.0,72.8,57.4,77.6,69.5,71.1,56.6,77.1,68.8,-0.11,0.12,0.08,0.05,0.00,131.56,131.90,124.12,124.12,152.3,2.9,0.6038211655780211,153.04322710215993,39.25108648440224,54.01525689876195,25.207119525707355
0.250,10.7,44.054538082509346,-78.681920173900480,65.2,85.0,-17.5,-144.1,3387.7,3388,155.6,0,1,1,0,1,1,0,0,0,100,1,1.186,26.0,0.0,-0.009,74.146,66.0,0.0,26.0,26.0,26.0,26.0,0.25,0.39,-0.21,385.1,-2.83,-2.26,-1.48,-2.01,-735.48,680.52,5.7,0.00,0.00,0.00,0.00,0.01,-7.49,-7.49,-0.77,-0.64,0.34,0.91,43.24,0.28,-0.43,-2.92,100.0,0,0,125.17,0,0,0.0,0,0,0,0,8391,0,30.00,3,155.6,1,0,0.0,0.0,0.0,0.0,1,0,0.272,0.272,74.146,20.191,1,110.00,435.8,8750,0.0,0.0,110.0,110.0,433.0,0.00,0,0,1,166.7,72.9,72.9,75.7,75.7,34.0,-5.48,33.93,3.3,26.0,2,-183.210,-0.3,100.0,16.9,20.5,29.5,30.2,0,1,100.0,0.00,0.00,0.00,0.00,4203,4306,2713,3450,314.7,312.3,347.7,344.7,22.78,20.95,24.40,23.43,325.0,325.0,355.0,355.0,99.85,99.69,99.88,99.81,0.23,0.35,0.38,0.50,-0.1,-0.1,3.0,2.8,68.4,56.9,72.3,66.2,76.0,59.8,79.7,72.0,72.7,57.4,77.6,69.5,71.0,56.6,77.1,68.8,-0.03,0.02,0.08,0.06,0.00,132.43,132.72,125.17,125.17,152.3,2.9,0.5086255990411808,153.76343055782468,39.61118818378344,-28.808136519519394,-3.6010169938119674
0.300,12.9,44.054519916212904,-78.681915497428136,158.4,106.0,24.5,82.3,3389.9,3390,156.4,0,1,1,0,1,1,0,0,0,100,1,1.186,26.0,0.0,-0.009,74.146,66.0,0.0,26.0,26.0,26.0,26.0,0.31,0.43,0.31,376.1,-3.11,-3.75,-1.09,-2.19,-734.96,678.50,5.7,0.00,0.00,0.00,0.00,0.01,-7.49,-7.49,-0.62,5.79,0.40,2.37,43.45,0.26,-0.37,-1.88,100.0,0,0,124.64,0,0,0.0,0,0,0,0,8355,0,30.00,3,156.4,0,0,0.0,0.0,0.0,0.0,1,0,0.320,0.320,74.146,20.191,0,110.00,435.8,8750,0.0,0.0,110.0,110.0,433.0,0.00,0,0,1,333.3,63.2,63.2,71.6,71.6,34.0,-15.92,43.64,6.7,61.9,2,-183.260,1.0,100.0,24.8,25.8,30.7,34.3,0,1,100.0,0.00,0.00,0.00,0.00,5285,4788,4407,6187,310.9,310.4,343.2,337.9,22.78,20.95,24.40,23.44,325.0,325.0,355.0,355.0,99.85,99.69,99.88,99.81,0.15,0.25,0.30,0.48,-0.0,-0.1,2.1,2.0,68.4,57.0,72.3,66.2,76.0,59.8,79.7,72.0,72.7,57.4,77.6,69.5,71.0,56.6,77.1,68.8,0.05,-0.05,0.08,0.05,0.00,133.38,133.62,124.64,124.64,152.3,2.9,0.6140846847137617,150.162413450208,38.89098478502104,-32.40915408235509,5.690236548616667e-07
0.350,15.1,44.054500580798376,-78.681910461227133,25.8,22.3,193.2,189.9,3392.1,3392,157.1,0,1,1,0,1,1,0,0,0,100,1,1.186,26.0,0.0,-0.012,74.146,66.0,0.0,26.0,26.0,26.0,26.0,0.11,0.45,0.27,371.4,-1.88,-2.63,-1.85,-0.83,-734.40,676.35,5.7,0.00,0.00,0.00,0.00,0.01,-7.49,-7.49,-0.25,6.96,0.52,2.41,43.66,0.21,-0.27,-0.61,100.0,0,0,124.82,0,0,0.0,0,0,0,0,8368,0,30.00,3,157.1,1,0,0.0,0.0,0.0,0.0,1,0,0.372,0.372,74.146,20.191,1,110.00,435.8,8750,0.0,0.0,110.0,110.0,433.0,0.00,0,0,1,166.7,66.5,66.5,56.1,56.1,34.0,-5.09,22.61,-9.0,45.5,2,-183.310,2.3,100.0,26.1,27.0,40.4,43.8,0,1,100.0,0.00,0.00,0.00,0.00,3201,3890,6484,6919,315.8,313.5,337.9,336.6,22.78,20.95,24.41,23.44,325.0,325.0,355.0,355.0,99.85,99.69,99.88,99.81,0.10,0.14,0.18,0.36,-0.1,-0.1,1.7,1.6,68.4,57.0,72.3,66.2,76.0,59.8,79.7,72.0,72.7,57.4,77.6,69.5,71.0,56.6,77.1,68.8,0.13,-0.13,0.06,0.04,0.00,134.05,134.15,124.82,124.83,152.3,2.9,0.5361902647381804,150.52251514958917,39.611188240685806,10.803051265947374,10.803050981435902
0.400,17.3,44.054482324569776,-78.681905604890460,-223.5,-108.8,108.8,90.2,3394.3,3394,157.9,0,1,1,0,1,1,0,0,0,100,1,1.186,26.0,0.0,-0.015,74.146,66.0,0.0,26.0,26.0,26.0,26.0,0.13,0.45,0.12,375.1,-2.09,-2.26,-2.03,-2.37,-733.86,674.32,5.7,0.00,0.00,0.00,0.00,0.01,-7.49,-7.49,-0.12,-1.51,0.48,-4.46,43.86,0.13,-0.23,0.99,100.0,0,0,125.08,0,0,0.0,0,0,0,0,8385,0,30.00,3,157.9,0,0,0.0,0.0,0.0,0.0,1,0,0.420,0.420,74.146,20.191,0,110.00,435.8,8750,0.0,0.0,110.0,110.0,433.0,0.00,0,0,1,333.3,79.5,79.5,46.2,46.2,34.0,-1.79,13.76,-16.3,55.6,2,-183.360,3.6,100.0,14.9,21.5,45.8,48.3,0,1,100.0,0.00,0.00,0.00,0.00,900,3663,6672,6614,322.0,314.8,337.4,336.4,22.78,20.95,24.41,23.44,325.0,325.0,355.0,355.0,99.85,99.69,99.88,99.81,0.05,0.03,0.14,0.25,-0.1,-0.0,1.5,1.6,68.4,57.0,72.3,66.3,75.9,59.8,79.6,72.0,72.6,57.4,77.6,69.6,70.9,56.6,77.1,68.8,0.21,-0.22,0.03,0.04,0.00,134.45,134.29,125.08,125.08,152.3,2.9,0.4835286961494633,151.24271857680273,39.97128988316463,10.803051265947659,3.6010164247882415
0.450,19.5,44.054462809290925,-78.681900478757314,-35.8,-87.8,-153.4,-117.8,3396.5,3396,158.5,0,1,1,0,1,1,0,0,0,100,1,1.186,26.0,0.0,-0.015,74.146,66.0,0.0,26.0,26.0,26.0,26.0,-0.03,0.41,-0.38,383.9,-2.09,-1.48,-0.91,-0.86,-733.29,672.15,5.7,0.00,0.00,0.00,0.00,0.01,-7.49,-7.49,-0.36,-6.15,0.09,-11.57,44.05,0.05,-0.34,1.87,100.0,0,0,126.58,0,0,0.0,0,0,0,0,8486,0,30.00,3,158.5,1,0,0.0,0.0,0.0,0.0,1,0,0.470,0.470,74.146,20.191,1,110.00,435.8,8750,0.0,0.0,110.0,110.0,433.0,0.00,0,0,1,166.7,82.2,82.2,63.9,63.9,34.0,-9.99,3.22,-3.7,7.5,2,-183.410,4.1,100.0,13.2,17.1,38.2,42.4,0,1,100.0,0.00,0.00,0.00,0.00,2708,2159,4783,2746,318.6,318.5,342.4,346.4,22.78,20.96,24.41,23.44,325.0,325.0,355.0,355.0,99.85,99.69,99.88,99.81,-0.08,-0.05,0.07,0.14,-0.1,-0.1,2.3,2.4,68.4,57.0,72.3,66.3,75.9,59.8,79.6,72.0,72.6,57.4,77.6,69.6,70.9,56.6,77.1,68.8,0.25,-0.25,0.06,0.04,0.00,134.86,134.64,126.58,126.58,152.3,2.9,0.5598214000911362,151.60282027618393,39.97128988316463,3.6010169938120384,3.60101756283548
0.500,21.7,44.054444463130167,-78.681895622420640,19.2,-55.2,-46.5,-203.1,3398.7,3399,158.6,0,1,1,0,1,1,0,0,0,100,1,1.186,26.0,0.0,-0.018,74.146,66.0,0.0,26.0,26.0,26.0,26.0,-0.02,-0.09,-0.27,388.0,-1.85,-2.45,-0.76,-2.88,-732.75,670.11,5.7,0.00,0.00,0.00,0.00,0.01,-7.49,-7.49,-0.72,-8.81,-0.34,-6.92,44.06,-0.02,-0.46,2.41,100.0,0,0,123.51,0,0,0.0,0,0,0,0,8201,0,30.00,0,158.6,0,0,0.0,0.0,0.0,0.0,1,0,0.518,0.518,74.146,20.191,0,110.00,435.8,8750,0.0,0.0,110.0,110.0,433.0,0.00,0,0,1,333.3,81.4,81.4,72.5,72.5,34.0,-12.94,6.85,-9.2,10.3,2,-183.460,3.3,100.0,14.1,14.4,35.8,32.2,0,1,0.0,0.00,0.00,0.00,0.00,2948,2632,3023,1871,317.0,317.4,346.2,348.9,22.79,20.96,24.41,23.45,325.0,325.0,355.0,355.0,99.85,99.69,99.88,99.81,-0.14,-0.07,-0.10,0.01,-0.0,-0.0,-0.0,0.0,68.4,57.0,72.3,66.3,75.8,59.7,79.6,72.0,72.5,57.3,77.5,69.5,70.8,56.5,77.0,68.8,0.22,-0.21,0.07,0.06,0.00,134.96,134.73,123.50,123.51,152.3,2.9,0.2853068523537421,151.60282027618393,40.33139163944818,93.62644496874026,25.20712009473087
0.550,23.9,44.054424947851317,-78.681890406355322,196.2,119.4,-157.2,-190.8,3400.9,3401,158.4,0,1,1,0,1,1,0,0,0,100,1,1.186,26.0,0.0,-0.018,74.146,66.0,0.0,26.0,26.0,26.0,26.0,-0.14,-0.11,-0.03,383.4,-2.39,-3.23,-0.93,-1.85,-732.17,667.94,5.7,0.00,0.00,0.00,0.00,0.02,-7.49,-7.49,-1.06,-3.08,-0.42,1.52,44.01,-0.07,-0.57,2.80,100.0,0,0,123.50,0,0,0.0,0,0,0,0,7829,0,30.00,0,158.4,1,0,0.0,0.0,0.0,0.0,1,0,0.570,0.570,74.146,20.191,1,110.00,435.8,8750,0.0,0.0,110.0,110.0,433.0,0.00,0,0,1,166.7,65.3,65.3,80.3,80.3,34.0,-40.49,24.61,-19.7,9.0,2,-183.510,1.9,100.0,23.9,20.3,28.0,22.7,0,1,0.0,0.00,0.00,0.00,0.00,5419,5055,3462,3242,309.8,309.8,345.5,346.1,22.79,20.96,24.41,23.45,325.0,325.0,355.0,355.0,99.85,99.69,99.88,99.81,-0.25,-0.04,-0.28,-0.08,-0.1,-0.0,0.0,0.0,68.4,57.0,72.3,66.3,75.8,59.7,79.5,71.9,72.5,57.3,77.5,69.5,70.8,56.5,77.0,68.7,0.14,-0.12,0.08,0.08,0.00,135.20,134.94,123.63,123.37,152.3,2.9,0.18055470085267789,160.96546477305796,42.49200189263772,3.6010169938120384,-7.2020345566473765
0.600,26.1,44.054404263454380,-78.681885010425688,164.8,31.5,-6.7,97.0,3403.1,3403,158.7,0,1,1,0,1,1,0,0,0,100,1,1.186,26.0,0.0,-0.021,74.146,66.0,0.0,26.0,26.0,26.0,26.0,-0.22,-0.17,0.06,378.0,-2.39,-3.96,-1.80,-1.03,-731.57,665.64,5.7,0.00,0.00,0.00,0.00,0.02,-7.49,-7.49,-0.94,5.49,-0.13,10.78,44.07,-0.10,-0.48,2.47,100.0,0,0,123.41,0,0,0.0,0,0,0,0,6583,0,30.00,4,158.7,0,0,0.0,0.0,0.0,0.0,1,0,0.624,0.624,74.146,20.191,0,110.00,435.8,8750,0.0,0.0,110.0,110.0,433.0,0.00,0,0,1,166.7,63.3,63.3,80.0,80.0,34.0,-30.75,17.19,-58.2,-2.2,2,-183.570,-0.7,100.0,32.2,21.9,27.6,27.5,0,1,0.0,0.00,0.00,0.00,0.00,4927,3656,5664,6138,311.0,314.4,340.6,338.9,22.79,20.96,24.42,23.45,325.0,325.0,355.0,355.0,99.85,99.69,99.88,99.81,-0.16,-0.10,-0.45,-0.18,0.0,-0.0,-0.5,-0.3,68.5,57.0,72.4,66.3,75.8,59.7,79.5,71.9,72.5,57.3,77.4,69.5,70.8,56.5,77.0,68.7,-0.00,0.02,0.09,0.08,0.00,135.50,135.30,123.41,123.41,152.3,2.9,0.28442925306655786,151.96292197556514,39.61118818378344,-136.83865031704272,-43.21220563281429
0.650,28.3,44.054386996479550,-78.681880513817660,-206.0,30.5,208.8,207.0,3405.3,3405,158.4,0,1,1,0,1,1,0,0,0,100,1,1.186,26.0,0.0,-0.021,74.146,66.0,0.0,26.0,26.0,26.0,26.0,-0.09,-0.16,-0.16,378.4,-2.12,-2.49,-1.03,-1.77,-731.07,663.72,5.7,0.00,0.00,0.00,0.00,0.02,-7.49,-7.49,-0.79,1.54,0.18,4.59,43.99,-0.09,-0.41,-0.02,100.0,0,0,123.44,0,0,0.0,0,0,0,0,6585,0,30.00,4,158.4,1,0,0.0,0.0,0.0,0.0,1,0,0.668,0.668,74.146,20.191,1,110.00,435.8,8750,0.0,0.0,110.0,110.0,433.0,0.00,0,0,1,333.3,73.5,73.5,59.8,59.8,34.0,-7.71,11.58,-45.0,7.7,2,-183.610,-3.0,100.0,21.9,23.4,38.1,37.9,0,1,0.0,0.00,0.00,0.00,0.00,2537,3394,6492,3964,318.1,316.7,338.2,344.8,22.79,20.96,24.42,23.45,325.0,325.0,355.0,355.0,99.85,99.69,99.88,99.81,-0.00,-0.00,-0.29,-0.13,0.0,0.1,-0.2,-0.3,68.5,57.0,72.4,66.3,75.7,59.7,79.5,71.9,72.4,57.3,77.4,69.4,70.7,56.5,76.9,68.7,-0.15,0.14,0.07,0.04,0.00,134.95,134.92,123.44,123.45,152.3,2.9,0.24351591323771843,147.2815997413537,38.17078132935629,43.21220563281457,10.803051550459415
0.700,30.5,44.054367481200700,-78.681875477616671,47.4,40.3,-20.6,41.5,3407.5,3407,158.1,0,1,1,0,1,1,0,0,0,100,1,1.186,26.0,0.0,-0.024,74.146,66.0,0.0,26.0,26.0,26.0,26.0,0.06,-0.19,0.05,375.7,-3.13,-2.50,-1.54,-1.60,-730.51,661.55,5.7,0.00,0.00,0.00,0.00,0.02,-7.49,-7.49,-0.77,0.70,0.29,-1.29,43.91,-0.05,-0.45,-1.07,100.0,0,0,123.10,0,0,0.0,0,0,0,0,6566,0,30.00,4,158.1,0,0,0.0,0.0,0.0,0.0,0,0,0.720,0.720,74.146,20.191,0,110.00,435.8,8750,0.0,0.0,110.0,110.0,433.0,0.00,0,0,1,333.3,66.2,66.2,69.5,69.5,34.0,-13.04,25.43,-13.9,26.9,2,-183.660,-5.2,100.0,24.2,25.5,37.0,40.0,0,1,0.0,0.00,0.00,0.00,0.00,4199,3929,3247,6029,313.0,313.2,346.4,339.3,22.80,20.96,24.42,23.45,325.0,325.0,355.0,355.0,99.85,99.69,99.88,99.81,0.14,0.21,-0.08,0.04,-0.0,-0.0,-0.3,-0.3,68.5,57.0,72.4,66.3,75.7,59.7,79.4,71.8,72.4,57.3,77.4,69.4,70.7,56.5,76.9,68.6,-0.28,0.29,0.06,0.05,0.00,134.73,134.74,123.10,123.10,152.3,2.9,0.2054263858417414,156.2841425388466,40.69149333882938,43.21220534830246,14.404068544271524
0.750,32.7,44.054347965921849,-78.681870351483511,-65.7,-121.6,9.6,-9.2,3409.7,3410,158.0,0,1,1,0,1,1,0,0,0,100,1,1.186,26.0,0.0,-0.027,74.146,66.0,0.0,26.0,26.0,26.0,26.0,0.12,0.37,-0.01,379.8,-2.12,-2.65,-1.60,-1.59,-729.94,659.38,5.7,0.00,0.00,0.00,0.00,0.02,-7.49,-7.49,-0.81,-3.35,0.12,-1.91,43.90,-0.02,-0.42,-2.39,100.0,0,0,125.76,0,0,0.0,0,0,0,0,6708,0,30.00,4,158.0,1,0,0.0,0.0,0.0,0.0,0,0,0.770,0.770,74.146,20.191,1,110.00,435.8,8750,0.0,0.0,110.0,110.0,433.0,0.00,0,0,1,166.7,75.8,75.8,66.1,66.1,34.0,2.04,19.25,-17.5,19.8,2,-183.710,-7.7,100.0,20.9,19.4,37.5,39.5,0,1,100.0,0.00,0.00,0.00,0.00,2554,2668,4977,4545,317.7,317.3,341.6,342.5,22.80,20.96,24.42,23.45,325.0,325.0,355.0,355.0,99.85,99.69,99.88,99.81,0.31,0.33,-0.04,0.12,-0.0,-0.0,2.0,1.8,68.5,57.0,72.4,66.3,75.6,59.6,79.4,71.8,72.3,57.3,77.3,69.4,70.7,56.5,76.8,68.6,-0.41,0.41,0.06,0.05,0.00,134.38,134.51,125.76,125.76,152.3,2.9,0.38910152916687435,151.60282027618393,39.61118818378344,-43.21220563281457,-10.803051550459415
0.800,34.9,44.054329619761091,-78.681865585079009,-30.2,-31.3,-82.6,-146.7,3411.9,3412,158.6,0,1,1,0,1,1,0,0,0,100,1,1.186,26.0,0.0,-0.024,74.146,66.0,0.0,26.0,26.0,26.0,26.0,0.12,0.41,-0.40,384.8,-2.98,-2.27,-0.73,-1.80,-729.41,657.34,5.7,0.00,0.00,0.00,0.00,0.02,-7.49,-7.49,-1.00,-3.16,0.22,6.07,44.06,0.04,-0.47,-3.44,100.0,0,0,126.58,0,0,0.0,0,0,0,0,6752,0,30.00,4,158.6,0,0,0.0,0.0,0.0,0.0,0,0,0.820,0.820,74.146,20.191,0,110.00,435.8,8750,0.0,0.0,110.0,110.0,433.0,0.00,0,0,1,333.3,77.6,77.6,74.7,74.7,34.0,0.05,15.01,-3.0,18.3,2,-183.760,-8.7,100.0,19.4,17.8,33.4,32.2,0,1,85.9,0.00,0.00,0.00,0.00,3065,2125,3731,3903,316.9,318.8,345.0,344.5,22.80,20.96,24.43,23.46,325.0,325.0,355.0,355.0,99.85,99.69,99.88,99.81,0.35,0.40,0.03,0.17,-0.1,-0.1,2.6,2.3,68.5,57.0,72.4,66.3,75.6,59.6,79.4,71.8,72.3,57.2,77.3,69.4,70.6,56.5,76.8,68.6,-0.49,0.49,0.08,0.06,0.00,134.81,135.05,126.58,126.58,152.3,2.9,0.5852349955359812,151.96292197556514,39.61118818378344,54.01525661425012,18.005086107107005
0.850,37.1,44.054310014550083,-78.681860458945849,-52.8,35.6,-97.7,10.0,3414.1,3414,159.1,0,1,1,0,1,1,0,0,0,100,1,1.186,26.0,0.0,-0.024,74.146,66.0,0.0,26.0,26.0,26.0,26.0,0.22,0.21,-0.12,385.4,-2.67,-2.48,-2.35,-0.95,-728.84,655.16,5.6,0.00,0.00,0.00,0.00,0.02,-7.49,-7.49,-1.11,-1.55,0.45,1.32,44.20,0.11,-0.44,-5.33,100.0,0,0,125.23,0,0,0.0,0,0,0,0,6680,0,30.00,4,159.1,1,0,0.0,0.0,0.0,0.0,0,0,0.870,0.870,74.146,20.191,1,110.00,435.8,8750,0.0,0.0,110.0,110.0,433.0,0.00,0,0,1,333.3,77.8,77.8,73.3,73.3,34.0,3.81,30.01,-7.1,26.7,2,-183.810,-9.7,100.0,16.8,19.6,28.5,32.7,0,1,30.9,0.00,0.00,0.00,0.00,1649,3127,3579,4030,319.8,315.1,344.6,343.9,22.80,20.96,24.43,23.46,325.0,325.0,355.0,355.0,99.86,99.69,99.88,99.81,0.53,0.53,0.21,0.37,0.0,-0.1,1.2,0.9,68.5,57.0,72.4,66.4,75.5,59.6,79.3,71.8,72.3,57.2,77.3,69.4,70.6,56.4,76.8,68.6,-0.57,0.56,0.07,0.07,0.00,135.25,135.69,125.23,125.23,152.3,2.9,0.3269556544854363,157.00434593760895,41.41169679449414,46.81322262662633,25.20712009473087
0.900,39.3,44.054290409339075,-78.681855242880530,-62.4,-2.1,7.9,20.7,3416.3,3416,159.1,0,1,1,0,1,1,0,0,0,100,1,1.186,26.0,0.0,-0.024,74.146,66.0,0.0,26.0,26.0,26.0,26.0,0.41,-0.18,-0.19,383.8,-2.51,-1.55,-1.98,-1.85,-728.26,652.98,5.6,0.00,0.00,0.00,0.00,0.02,-7.49,-7.49,-1.27,-4.77,0.45,-2.68,44.18,0.19,-0.44,-5.67,100.0,0,0,123.60,0,0,0.0,0,0,0,0,6593,0,30.00,4,159.1,0,0,0.0,0.0,0.0,0.0,0,0,0.920,0.920,74.146,20.191,0,110.00,435.8,8750,0.0,0.0,110.0,110.0,433.0,0.00,0,0,1,333.3,75.2,75.2,70.9,70.9,34.0,9.67,61.31,1.3,43.9,2,-183.860,-10.0,100.0,13.7,19.5,28.9,33.7,0,1,0.0,0.00,0.00,0.00,0.00,3031,5524,3533,4260,317.8,309.0,346.2,343.1,22.80,20.96,24.43,23.46,325.0,325.0,355.0,355.0,99.86,99.69,99.88,99.81,0.60,0.70,0.33,0.50,0.0,-0.1,-0.2,-0.5,68.5,57.0,72.4,66.4,75.5,59.6,79.3,71.8,72.2,57.2,77.2,69.3,70.5,56.4,76.7,68.6,-0.57,0.57,0.08,0.06,0.00,135.13,135.55,123.60,123.61,152.3,2.9,0.48641546028061233,156.64424423822777,42.13190019325653,-54.01525661425012,-5.690236548616667e-07
0.950,41.5,44.054270894060224,-78.681849936883054,340.3,211.8,-61.9,-44.3,3418.5,3419,158.7,0,1,1,0,1,1,0,0,0,100,1,1.186,26.0,0.0,-0.027,74.146,66.0,0.0,26.0,26.0,26.0,26.0,0.43,-0.19,0.24,377.0,-3.02,-3.50,-1.77,-1.28,-727.67,650.81,5.6,0.00,0.00,0.00,0.00,0.03,-7.49,-7.49,-1.31,4.31,0.38,1.47,44.08,0.25,-0.50,-7.90,100.0,0,0,123.63,0,0,0.0,0,0,0,0,6594,0,30.00,4,158.7,1,0,0.0,0.0,0.0,0.0,0,0,0.972,0.972,74.146,20.191,1,110.00,435.8,8750,0.0,0.0,110.0,110.0,433.0,0.00,0,0,1,166.7,58.3,58.3,79.1,79.1,34.0,10.72,61.39,7.3,42.9,2,-183.910,-8.9,100.0,30.7,30.1,25.8,31.5,0,1,0.0,0.00,0.00,0.00,0.00,4434,4887,3329,4153,312.7,310.0,346.2,343.7,22.80,20.96,24.43,23.46,325.0,325.0,355.0,355.0,99.86,99.69,99.88,99.81,0.54,0.62,0.44,0.62,0.1,-0.0,-0.2,-0.5,68.5,57.0,72.4,66.4,75.5,59.6,79.2,71.7,72.2,57.3,77.2,69.3,70.5,56.5,76.7,68.6,-0.51,0.53,0.09,0.07,0.00,135.05,135.75,123.48,123.77,152.3,2.9,0.5278257288158659,151.60282027618393,41.411696737591775,-57.616273892574554,-5.690237259159403e-07
1.000,43.7,44.054252547899466,-78.681844900682066,-86.4,-18.1,236.2,261.6,3420.7,3421,158.4,0,1,1,0,1,1,0,0,0,100,1,1.186,26.0,0.0,-0.027,74.146,66.0,0.0,26.0,26.0,26.0,26.0,0.52,-0.18,0.36,367.9,-2.68,-1.08,-2.31,-1.23,-727.11,648.77,5.6,0.00,0.00,0.00,0.00,0.03,-7.49,-7.49,-1.10,2.44,0.59,5.39,44.00,0.29,-0.44,-6.76,100.0,0,0,123.37,0,0,0.0,0,0,0,0,6580,0,30.00,4,158.4,0,0,0.0,0.0,0.0,0.0,0,0,1.020,1.020,74.146,20.191,0,110.00,435.8,8750,0.0,0.0,110.0,110.0,433.0,0.00,0,0,1,166.7,60.6,60.6,55.7,55.7,34.0,10.25,63.89,4.6,78.4,2,-183.960,-7.2,100.0,26.4,29.2,37.6,44.6,0,1,0.0,0.00,0.00,0.00,0.00,4065,6633,6803,6713,313.5,306.7,337.6,336.9,22.81,20.97,24.43,23.46,325.0,325.0,355.0,355.0,99.86,99.69,99.88,99.81,0.51,0.60,0.40,0.61,-0.1,-0.0,-0.1,-0.3,68.5,57.0,72.5,66.4,75.5,59.6,79.2,71.7,72.2,57.3,77.2,69.3,70.5,56.5,76.7,68.6,-0.41,0.42,0.06,0.03,0.00,134.72,135.32,123.16,123.57,152.3,2.9,0.6575712889109439,150.88261684897032,42.131900136354155,-10.803051265947659,14.404068544271382
1.050,45.9,44.054233212484938,-78.681839414820274,-85.8,-6.9,8.3,0.4,3422.9,3423,158.1,0,1,1,0,1,1,0,0,0,100,1,1.186,26.0,0.0,-0.027,74.146,66.0,0.0,26.0,26.0,26.0,26.0,0.35,-0.15,-0.03,375.9,-3.48,-2.18,-2.29,-1.17,-726.50,646.62,5.5,0.00,0.00,0.00,0.00,0.03,-7.49,-7.49,-1.02,0.67,0.78,1.45,43.91,0.32,-0.46,-5.51,100.0,0,0,123.12,0,0,0.0,0,0,0,0,6567,0,30.00,4,158.1,1,0,0.0,0.0,0.0,0.0,0,0,1.070,1.070,74.146,20.191,1,110.00,435.8,8750,0.0,0.0,110.0,110.0,433.0,0.00,0,0,1,333.3,68.7,68.7,66.6,66.6,34.0,1.61,29.09,4.3,58.4,2,-184.010,-4.1,100.0,22.1,28.8,38.0,44.6,0,1,0.0,0.00,0.00,0.00,0.00,2657,3340,2435,5390,317.3,314.4,348.9,340.8,22.81,20.97,24.43,23.46,325.0,325.0,355.0,355.0,99.86,99.69,99.88,99.81,0.46,0.46,0.51,0.62,-0.0,-0.0,-0.2,-0.4,68.5,57.0,72.5,66.4,75.4,59.7,79.2,71.7,72.1,57.3,77.1,69.3,70.5,56.5,76.6,68.5,-0.25,0.26,0.07,0.03,0.00,134.51,134.88,123.03,123.20,152.3,2.9,0.3819685850956856,150.52251514958917,42.85210359201891,-7.202033987623224,10.803051550459557
1.100,48.1,44.054214956256338,-78.681834198754956,-144.1,-73.3,-84.9,10.4,3425.1,3425,157.8,0,1,1,0,1,1,0,0,0,100,1,1.186,26.0,0.0,-0.027,74.146,66.0,0.0,26.0,26.0,26.0,26.0,0.35,-0.13,-0.13,379.9,-3.94,-1.08,-2.55,-2.46,-725.92,644.59,5.5,0.00,0.00,0.00,0.00,0.03,-7.49,-7.49,-1.13,-4.27,0.59,-11.00,43.84,0.30,-0.50,-3.47,100.0,0,0,122.69,0,0,0.0,0,0,0,0,6544,0,30.00,4,157.8,0,0,0.0,0.0,0.0,0.0,0,0,1.120,1.120,74.146,20.191,0,110.00,435.8,8750,0.0,0.0,110.0,110.0,433.0,0.00,0,0,1,166.7,74.0,74.0,64.5,64.5,34.0,0.42,39.56,5.6,39.2,2,-184.060,-1.8,100.0,14.9,25.2,33.8,45.1,0,1,0.0,0.00,0.00,0.00,0.00,1872,4693,3567,3305,319.8,310.9,346.7,345.3,22.81,20.97,24.44,23.47,325.0,325.0,355.0,355.0,99.86,99.69,99.88,99.81,0.47,0.52,0.52,0.61,-0.0,0.0,-0.2,-0.4,68.6,57.0,72.5,66.4,75.4,59.7,79.1,71.7,72.1,57.3,77.1,69.3,70.4,56.5,76.6,68.5,-0.12,0.13,0.06,0.04,0.00,134.13,134.47,122.68,122.69,152.3,2.9,0.3953479480154159,150.162413450208,43.21220529140011,36.01017107616656,18.00508553808335
1.150,50.3,44.054195710773968,-78.681828622961007,66.2,-71.5,-83.8,-278.4,3427.3,3427,157.6,0,1,1,0,1,1,0,0,0,100,1,1.186,26.0,0.0,-0.024,74.146,66.0,0.0,26.0,26.0,26.0,26.0,0.25,-0.19,-0.36,383.9,-2.04,-2.52,-2.35,-0.91,-725.30,642.45,5.5,0.00,0.00,0.00,0.00,0.03,-7.49,-7.49,-1.33,-3.05,0.25,-3.60,43.75,0.28,-0.52,-2.22,100.0,0,0,122.50,0,0,0.0,0,0,0,0,6534,0,30.00,4,157.6,1,0,0.0,0.0,0.0,0.0,0,0,1.170,1.170,74.146,20.191,1,110.00,435.8,8750,0.0,0.0,110.0,110.0,433.0,0.00,0,0,1,166.7,74.4,74.4,77.2,77.2,34.0,0.71,24.47,1.6,58.4,2,-184.110,1.2,100.0,18.2,21.6,29.6,31.2,0,1,0.0,0.00,0.00,0.00,0.00,2696,3392,2483,5805,317.3,314.9,348.8,340.4,22.81,20.97,24.44,23.47,325.0,325.0,355.0,355.0,99.86,99.69,99.88,99.81,0.26,0.29,0.42,0.59,-0.0,-0.0,-0.3,-0.4,68.6,57.1,72.5,66.4,75.3,59.7,79.1,71.7,72.1,57.3,77.0,69.3,70.4,56.5,76.5,68.5,0.06,-0.07,0.09,0.08,0.00,134.04,134.22,122.50,122.50,152.3,2.9,0.47770283649984746,154.12353225720582,44.65261214582725,39.61118806997831,18.005086107107076
1.200,52.4,44.054176465291604,-78.681823047167043,271.3,109.5,-14.8,-33.2,3429.5,3429,157.2,0,1,1,0,1,1,0,0,0,100,1,1.186,26.0,0.0,-0.024,74.146,66.0,0.0,26.0,26.0,26.0,26.0,0.12,-0.20,0.13,376.3,-3.35,-3.24,-1.64,-1.19,-724.68,640.31,5.5,0.00,0.00,0.00,0.00,0.03,-7.49,-7.49,-1.38,3.19,0.14,4.11,43.66,0.25,-0.57,-1.04,100.0,0,0,122.39,0,0,0.0,0,0,0,0,6529,0,30.00,4,157.2,0,0,0.0,0.0,0.0,0.0,1,0,1.220,1.220,74.146,20.191,0,110.00,435.8,8750,0.0,0.0,110.0,110.0,433.0,0.00,0,0,1,166.7,56.5,56.5,79.9,79.9,34.0,-36.68,40.65,-0.8,26.9,2,-184.160,3.2,100.0,31.7,27.1,28.9,29.5,0,1,0.0,0.00,0.00,0.00,0.00,6474,5410,3650,3596,307.8,309.4,345.4,345.6,22.81,20.97,24.44,23.47,325.0,325.0,355.0,355.0,99.86,99.69,99.88,99.81,0.01,0.17,0.24,0.41,0.0,-0.0,-0.3,-0.4,68.6,57.1,72.5,66.4,75.3,59.6,79.0,71.7,72.0,57.3,77.0,69.2,70.3,56.5,76.5,68.5,0.19,-0.17,0.08,0.07,0.00,134.07,134.13,122.39,122.40,152.3,2.9,0.26702059845637377,154.12353225720582,45.01271390211082,-3.60101699381147,7.202033987623935
1.250,54.6,44.054157219809234,-78.681817381440922,63.5,118.1,134.5,208.6,3431.6,3432,156.9,0,1,1,0,1,1,0,0,0,100,1,1.186,26.0,0.0,-0.024,74.146,66.0,0.0,26.0,26.0,26.0,26.0,0.05,-0.18,0.64,365.9,-3.13,-2.95,-1.42,-1.82,-724.05,638.17,5.5,0.00,0.00,0.00,0.00,0.03,-7.49,-7.49,-0.98,10.26,0.46,6.33,43.57,0.18,-0.45,1.47,100.0,0,0,122.37,0,0,0.0,0,0,0,0,6527,0,30.00,4,156.9,1,0,0.0,0.0,0.0,0.0,1,0,1.272,1.272,74.146,20.191,1,110.00,435.8,8750,0.0,0.0,110.0,110.0,433.0,0.00,0,0,1,166.7,52.0,52.0,62.0,62.0,34.0,-39.61,31.02,-23.0,48.5,2,-184.210,5.1,100.0,34.9,33.0,35.6,40.0,0,1,0.0,0.00,0.00,0.00,0.00,5871,5767,6733,5785,308.7,307.5,337.4,338.4,22.82,20.97,24.44,23.47,325.0,325.0,355.0,355.0,99.86,99.69,99.88,99.81,-0.10,0.02,0.01,0.26,-0.0,-0.0,-0.2,-0.1,68.6,57.1,72.5,66.4,75.3,59.7,79.0,71.6,72.0,57.3,76.9,69.2,70.3,56.5,76.4,68.5,0.31,-0.25,0.07,0.05,0.00,134.10,134.03,122.37,122.37,152.3,2.9,0.6667083320313314,153.76343055782468,45.37281554458964,-10.803051550458918,3.6010164247882415
1.300,56.8,44.054138064259028,-78.681811715714815,-160.7,-58.2,213.8,171.5,3433.8,3434,156.6,0,1,1,0,1,1,0,0,0,100,1,1.186,26.0,0.0,-0.024,74.146,66.0,0.0,26.0,26.0,26.0,26.0,-0.07,-0.16,0.33,365.6,-2.87,-2.12,-2.24,-1.54,-723.42,636.04,5.5,0.00,0.00,0.00,0.00,0.03,-7.49,-7.49,-0.58,4.64,0.60,-1.11,43.49,0.09,-0.34,2.80,100.0,0,0,122.14,0,0,0.0,0,0,0,0,6515,0,30.00,4,156.6,0,0,0.0,0.0,0.0,0.0,1,0,1.322,1.322,74.146,20.191,0,110.00,435.8,8750,0.0,0.0,110.0,110.0,433.0,0.00,0,0,1,166.7,63.1,63.1,45.6,45.6,34.0,-16.40,13.39,-42.7,42.4,2,-184.270,6.2,100.0,26.9,30.0,46.3,48.5,0,1,0.0,0.00,0.00,0.00,0.00,2841,5705,7080,7512,316.8,308.9,336.6,334.6,22.82,20.97,24.45,23.47,325.0,325.0,355.0,355.0,99.86,99.69,99.88,99.81,-0.13,-0.09,-0.02,0.10,0.0,-0.0,-0.2,-0.1,68.6,57.1,72.5,66.5,75.2,59.6,79.0,71.6,72.0,57.3,76.9,69.2,70.3,56.5,76.4,68.4,0.36,-0.34,0.05,0.01,0.00,133.70,133.41,122.23,122.04,152.3,2.9,0.37336309405188944,153.04322710215993,45.37281554458964,-97.2274622470647,-32.40915351333115
1.350,59.0,44.054118998640988,-78.681806049988694,6.8,-59.4,-38.6,-29.2,3436.0,3436,156.3,0,1,1,0,1,1,0,0,0,100,1,1.186,26.0,0.0,-0.024,74.146,66.0,0.0,26.0,26.0,26.0,26.0,-0.16,-0.17,0.18,370.4,-2.81,-2.65,-2.41,-1.47,-722.79,633.92,5.5,0.00,0.00,0.00,0.00,0.04,-7.49,-7.49,-0.51,1.34,0.40,-5.89,43.41,0.01,-0.43,3.96,100.0,0,0,121.81,0,0,0.0,0,0,0,0,6497,0,30.00,4,156.3,1,0,0.0,0.0,0.0,0.0,1,0,1.374,1.374,74.146,20.191,1,110.00,435.8,8750,0.0,0.0,110.0,110.0,433.0,0.00,0,0,1,166.7,62.7,62.7,58.2,58.2,34.0,-36.15,9.84,-38.0,11.5,2,-184.320,6.4,100.0,27.2,27.1,44.4,47.1,0,1,0.0,0.00,0.00,0.00,0.00,4861,4497,5312,4134,311.7,311.7,341.5,343.5,22.82,20.98,24.45,23.48,325.0,325.0,355.0,355.0,99.86,99.69,99.88,99.81,-0.22,-0.15,-0.11,-0.04,-0.0,-0.0,-0.3,-0.2,68.6,57.1,72.5,66.5,75.2,59.6,78.9,71.6,71.9,57.3,76.9,69.2,70.3,56.5,76.4,68.4,0.37,-0.37,0.05,0.03,0.00,133.37,133.01,121.90,121.71,152.3,2.9,0.2947880594596735,144.0406843331182,42.13190019325653,-90.02542740590513,-36.010170507143116
1.400,61.1,44.054102091394796,-78.681801193652021,20.5,-34.0,-10.2,-175.3,3438.2,3438,156.0,0,1,1,0,1,1,0,0,0,100,1,1.186,26.0,0.0,-0.021,74.146,66.0,0.0,26.0,26.0,26.0,26.0,-0.23,-0.17,0.22,372.2,-2.51,-3.18,-1.78,-1.90,-722.25,632.04,5.5,0.00,0.00,0.00,0.00,0.04,-7.49,-7.49,-0.44,1.85,0.22,-0.18,43.33,-0.05,-0.43,4.27,100.0,0,0,121.59,0,0,0.0,0,0,0,0,6486,0,30.00,4,156.0,0,0,0.0,0.0,0.0,0.0,1,0,1.418,1.418,74.146,20.191,0,110.00,435.8,8750,0.0,0.0,110.0,110.0,433.0,0.00,0,0,1,333.3,63.6,63.6,59.6,59.6,34.0,-45.05,4.87,-50.5,13.4,2,-184.360,6.5,100.0,28.3,25.4,43.8,38.3,0,1,0.0,0.00,0.00,0.00,0.00,5288,3714,6305,5136,310.5,313.8,339.2,341.3,22.82,20.98,24.45,23.48,325.0,325.0,355.0,355.0,99.86,99.69,99.88,99.81,-0.33,-0.27,-0.25,-0.12,-0.0,0.0,-0.3,-0.1,68.6,57.1,72.6,66.5,75.2,59.6,78.9,71.6,71.9,57.2,76.8,69.1,70.2,56.5,76.3,68.4,0.40,-0.37,0.04,0.05,0.00,133.17,132.82,121.68,121.51,152.3,2.9,0.36083237105337435,144.04068436156942,41.77179849387533,129.63661604490738,32.40915408235473
1.450,63.3,44.054083025776748,-78.681795617858057,-12.8,63.6,-14.0,-34.8,3440.3,3440,155.7,0,1,1,0,1,1,0,0,0,100,1,1.186,26.0,0.0,-0.021,74.146,66.0,0.0,26.0,26.0,26.0,26.0,-0.25,-0.18,0.09,374.5,-2.40,-3.86,-1.10,-1.19,-721.63,629.92,5.5,0.00,0.00,0.00,0.00,0.04,-7.49,-7.49,-0.33,2.64,0.13,-4.13,43.24,-0.10,-0.47,4.57,100.0,0,0,121.36,0,0,0.0,0,0,0,0,6473,0,30.00,4,155.7,1,0,0.0,0.0,0.0,0.0,1,0,1.470,1.470,74.146,20.191,1,110.00,435.8,8750,0.0,0.0,110.0,110.0,433.0,0.00,0,0,1,333.3,65.3,65.3,58.1,58.1,34.0,-28.16,3.68,-40.4,1.0,2,-184.410,6.3,100.0,27.6,28.6,43.1,36.6,0,1,0.0,0.00,0.00,0.00,0.00,3595,2906,5597,4805,314.7,315.1,340.4,343.1,22.82,20.98,24.45,23.48,325.0,325.0,355.0,355.0,99.86,99.69,99.88,99.81,-0.33,-0.35,-0.31,-0.17,-0.0,0.0,-0.3,-0.2,68.7,57.1,72.6,66.5,75.2,59.6,78.9,71.5,71.9,57.2,76.8,69.1,70.2,56.5,76.3,68.4,0.38,-0.35,0.06,0.05,0.00,132.90,132.52,121.36,121.36,152.3,2.9,0.3209361307176242,157.00434593760895,45.372815601492,36.01017107616656,3.6010164247882415
1.500,65.5,44.054062880972779,-78.681789862199778,32.3,-24.4,-8.0,38.9,3442.5,3442,155.3,0,1,1,0,1,1,0,0,0,100,1,1.186,26.0,0.0,-0.021,74.146,66.0,0.0,26.0,26.0,26.0,26.0,-0.34,-0.19,0.41,371.3,-3.47,-2.35,-0.54,-1.29,-720.99,627.68,5.5,0.00,0.00,0.00,0.00,0.04,-7.49,-7.49,-0.29,1.23,-0.08,-6.36,43.14,-0.15,-0.53,5.28,100.0,0,0,120.94,0,0,0.0,0,0,0,0,6451,0,30.00,4,155.3,0,0,0.0,0.0,0.0,0.0,1,0,1.524,1.524,74.146,20.191,0,110.00,435.8,8750,0.0,0.0,110.0,110.0,433.0,0.00,0,0,1,166.7,58.1,58.1,63.7,63.7,34.0,-70.99,-2.18,-25.3,-1.9,2,-184.470,6.7,100.0,29.2,27.3,42.7,38.5,0,1,0.0,0.00,0.00,0.00,0.00,6199,5678,4186,5008,307.6,309.3,343.6,341.1,22.83,20.98,24.45,23.48,325.0,325.0,355.0,355.0,99.86,99.69,99.88,99.81,-0.43,-0.30,-0.35,-0.22,-0.1,0.0,-0.4,-0.1,68.7,57.1,72.6,66.5,75.1,59.6,78.8,71.5,71.9,57.2,76.8,69.1,70.2,56.4,76.3,68.3,0.40,-0.38,0.05,0.05,0.00,132.76,132.19,121.09,120.80,152.3,2.9,0.5655086206239477,147.64170146918607,42.131900136354155,-136.83865003253146,-50.41424018946181
1.550,67.6,44.054046153590903,-78.681785095795277,155.7,86.5,-45.3,-141.2,3444.6,3445,155.0,0,1,1,0,1,1,0,0,0,100,1,1.186,26.0,0.0,-0.018,74.146,66.0,0.0,26.0,26.0,26.0,26.0,-0.40,-0.19,0.36,369.1,-3.03,-2.86,-1.26,-1.99,-720.46,625.82,5.5,0.00,0.00,0.00,0.00,0.04,-7.49,-7.49,-0.04,9.35,-0.36,-3.19,43.05,-0.19,-0.48,6.45,100.0,0,0,121.06,0,0,0.0,0,0,0,0,6457,0,30.00,4,155.0,1,0,0.0,0.0,0.0,0.0,1,0,1.570,1.570,74.146,20.191,1,110.00,435.8,8750,0.0,0.0,110.0,110.0,433.0,0.00,0,0,1,333.3,50.6,50.6,64.8,64.8,34.0,-90.96,0.27,-58.1,-1.3,2,-184.510,6.6,100.0,37.0,31.7,40.5,31.5,0,1,0.0,0.00,0.00,0.00,0.00,7784,5372,5979,5457,304.5,309.8,340.1,340.8,22.83,20.98,24.46,23.48,325.0,325.0,355.0,355.0,99.86,99.69,99.88,99.81,-0.48,-0.32,-0.48,-0.32,0.0,-0.0,-0.3,-0.1,68.7,57.1,72.6,66.5,75.1,59.6,78.8,71.5,71.9,57.3,76.7,69.1,70.2,56.5,76.2,68.3,0.42,-0.36,0.05,0.06,0.00,132.68,132.13,121.19,120.93,152.3,2.9,0.570701322935211,143.3204809343558,40.33139158254582,46.8132223421145,-3.6010164247882415
1.600,69.8,44.054027087972862,-78.681779789797801,57.5,-51.4,200.0,262.1,3446.8,3447,154.7,0,1,1,0,1,1,0,0,0,100,1,1.186,26.0,0.0,-0.018,74.146,66.0,0.0,26.0,26.0,26.0,26.0,-0.48,-0.21,0.62,363.4,-2.53,-3.17,-1.61,-2.11,-719.87,623.70,5.5,0.00,0.00,0.00,0.00,0.04,-7.49,-7.49,0.50,9.44,-0.36,3.37,42.95,-0.18,-0.39,5.71,100.0,0,0,120.79,0,0,0.0,0,0,0,0,6443,0,30.00,4,154.7,0,0,0.0,0.0,0.0,0.0,1,0,1.620,1.620,74.146,20.191,0,110.00,435.8,8750,0.0,0.0,110.0,110.0,433.0,0.00,0,0,1,166.7,53.0,53.0,51.5,51.5,34.0,-64.20,3.62,-94.2,-6.6,2,-184.560,4.6,100.0,39.9,29.1,50.5,44.6,0,1,0.0,0.00,0.00,0.00,0.00,6162,4910,7831,5527,307.7,311.0,334.4,339.8,22.83,20.98,24.46,23.48,325.0,325.0,355.0,355.0,99.86,99.69,99.88,99.81,-0.45,-0.31,-0.52,-0.40,0.0,-0.0,-0.3,-0.1,68.7,57.1,72.6,66.5,75.1,59.6,78.8,71.4,71.9,57.2,76.7,69.0,70.2,56.4,76.2,68.3,0.33,-0.26,0.03,0.04,0.00,132.32,131.87,120.94,120.63,152.3,2.9,0.8117265549432272,152.32302370339752,41.77179849387533,39.61118835449099,-7.202033987623793
1.650,71.9,44.054008112286972,-78.681774663664640,-328.0,-172.2,78.0,39.9,3448.9,3449,154.3,0,1,1,0,1,1,0,0,0,100,1,1.186,26.0,0.0,-0.018,74.146,66.0,0.0,26.0,26.0,26.0,26.0,-0.31,-0.16,0.03,374.4,-2.26,-2.51,-1.50,-1.73,-719.30,621.59,5.6,0.00,0.00,0.00,0.00,0.04,-7.49,-7.49,0.77,-0.13,-0.19,4.40,42.87,-0.16,-0.35,2.56,100.0,0,0,120.30,0,0,0.0,0,0,0,0,6417,0,30.00,4,154.3,1,0,0.0,0.0,0.0,0.0,1,0,1.670,1.670,74.146,20.191,1,110.00,435.8,8750,0.0,0.0,110.0,110.0,433.0,0.00,0,0,1,333.3,76.5,76.5,45.4,45.4,34.0,-15.50,-0.18,-78.3,-3.1,2,-184.620,0.7,100.0,23.5,20.5,54.4,46.6,0,1,0.0,0.00,0.00,0.00,0.00,2653,1307,7778,4613,317.2,321.2,334.2,342.6,22.83,20.98,24.46,23.49,325.0,325.0,355.0,355.0,99.86,99.69,99.88,99.81,-0.21,-0.30,-0.39,-0.31,0.0,0.1,-0.2,-0.2,68.7,57.1,72.6,66.5,75.1,59.6,78.8,71.4,71.9,57.2,76.7,69.0,70.2,56.4,76.2,68.3,0.07,-0.08,0.02,0.04,0.00,131.57,131.25,120.29,120.30,152.3,2.9,0.35014282800023194,147.2815997698049,39.61118818378344,-50.414239620438366,-21.6061031009189
1.700,74.0,44.053990305719175,-78.681769897260139,-233.8,-208.6,-281.9,-47.4,3451.1,3451,154.1,0,1,1,0,1,1,0,0,0,100,1,1.186,26.0,0.0,-0.012,74.146,66.0,0.0,26.0,26.0,26.0,26.0,-0.08,-0.15,-0.57,389.7,-2.18,-2.31,-2.58,-1.21,-718.77,619.61,5.6,0.00,0.00,0.00,0.00,0.04,-7.49,-7.49,0.42,-12.30,0.06,2.04,42.79,-0.12,-0.46,0.39,100.0,0,0,119.61,0,0,0.0,0,0,0,0,6380,0,30.00,4,154.1,0,0,0.0,0.0,0.0,0.0,0,0,1.720,1.720,74.146,20.191,0,110.00,435.8,8750,0.0,0.0,110.0,110.0,433.0,0.00,0,0,1,166.7,90.6,90.6,70.1,70.1,34.0,-1.50,2.07,-20.4,0.1,2,-184.660,-1.3,100.0,11.8,10.0,40.3,44.2,0,1,0.0,0.00,0.00,0.00,0.00,540,1495,2702,3628,323.7,321.4,347.8,344.4,22.84,20.98,24.47,23.49,325.0,325.0,355.0,355.0,99.86,99.69,99.88,99.81,-0.11,-0.13,-0.23,-0.18,0.1,0.1,-0.4,-0.2,68.7,57.1,72.7,66.6,75.1,59.6,78.7,71.4,71.8,57.2,76.7,69.0,70.1,56.4,76.2,68.2,-0.05,0.04,0.06,0.04,0.00,130.93,130.83,119.61,119.61,152.3,2.9,0.594810894318522,147.2815997413537,39.61118818378344,43.21220506379035,10.803051550459415
1.750,76.2,44.053971330033292,-78.681764771126979,102.5,130.2,-359.7,-493.9,3453.2,3453,153.8,0,1,1,0,1,1,0,0,0,100,1,1.186,26.0,0.0,-0.012,74.146,66.0,0.0,26.0,26.0,26.0,26.0,-0.02,-0.21,-0.42,393.2,-2.04,-2.18,-1.07,-1.79,-718.20,617.50,5.6,0.00,0.00,0.00,0.00,0.05,-7.49,-7.49,-0.18,-7.69,-0.08,-2.59,42.70,-0.09,-0.62,-0.72,100.0,0,0,119.19,0,0,0.0,0,0,0,0,6358,0,30.00,4,153.8,1,0,0.0,0.0,0.0,0.0,0,0,1.770,1.770,74.146,20.191,1,110.00,435.8,8750,0.0,0.0,110.0,110.0,433.0,0.00,0,0,1,333.3,72.5,72.5,86.8,86.8,34.0,-20.73,27.76,-10.9,2.2,2,-184.710,-3.5,100.0,16.9,16.6,22.3,19.5,0,1,0.0,0.00,0.00,0.00,0.00,4726,5048,2690,906,312.0,310.8,348.3,352.1,22.84,20.98,24.47,23.49,325.0,325.0,355.0,355.0,99.86,99.69,99.88,99.81,-0.07,0.15,-0.17,-0.03,-0.1,-0.1,-0.5,-0.5,68.7,57.1,72.7,66.6,75.0,59.6,78.7,71.3,71.8,57.2,76.6,68.9,70.1,56.4,76.1,68.2,-0.19,0.19,0.11,0.09,0.00,130.99,130.83,119.19,119.19,152.3,2.9,0.47,151.60282027618393,40.69149333882938,-7.20203427213562,-3.6010169938120384
1.800,78.3,44.053952444279567,-78.681759734925990,208.1,210.9,-84.9,17.4,3455.3,3455,153.4,0,1,1,0,1,1,0,0,0,100,1,1.186,26.0,0.0,-0.006,74.146,66.0,0.0,26.0,26.0,26.0,26.0,0.01,-0.21,-0.06,385.3,-3.04,-3.27,-1.29,-1.28,-717.64,615.40,5.7,0.00,0.00,0.00,0.00,0.05,-7.49,-7.49,-0.18,4.88,-0.17,-3.49,42.60,-0.07,-0.56,-1.38,100.0,0,0,119.43,0,0,0.0,0,0,0,0,6370,0,30.00,4,153.4,0,0,0.0,0.0,0.0,0.0,0,0,1.820,1.820,74.146,20.191,0,110.00,435.8,8750,0.0,0.0,110.0,110.0,433.0,0.00,0,0,1,333.3,60.1,60.1,87.1,87.1,34.0,-30.77,38.38,-21.5,10.9,2,-184.760,-3.6,100.0,27.3,27.1,18.1,20.4,0,1,0.0,0.00,0.00,0.00,0.00,6092,5133,4376,3077,309.2,310.4,344.7,347.2,22.84,20.98,24.47,23.49,325.0,325.0,355.0,355.0,99.86,99.69,99.88,99.81,0.01,0.18,-0.17,0.09,-0.1,-0.0,-0.4,-0.5,68.7,57.1,72.7,66.6,75.0,59.6,78.6,71.3,71.7,57.2,76.6,68.9,70.0,56.4,76.1,68.2,-0.19,0.22,0.10,0.09,0.00,130.80,130.97,119.43,119.43,152.3,2.9,0.21863211109075445,146.56139631414013,39.25108648440224,-54.015256614250404,-14.404068544271453
1.850,80.4,44.053934727643934,-78.681754968521474,131.4,8.9,382.5,322.6,3457.5,3457,153.1,0,1,1,0,1,1,0,0,0,100,1,1.186,26.0,0.0,-0.006,74.146,66.0,0.0,26.0,26.0,26.0,26.0,0.03,-0.18,0.45,374.2,-3.16,-2.65,-0.72,-2.07,-717.11,613.43,5.7,0.00,0.00,0.00,0.00,0.05,-7.49,-7.49,0.17,7.43,-0.04,7.24,42.51,-0.01,-0.46,-1.84,100.0,0,0,119.38,0,0,0.0,0,0,0,0,6368,0,30.00,4,153.1,1,0,0.0,0.0,0.0,0.0,0,0,1.870,1.870,74.146,20.191,1,110.00,435.8,8750,0.0,0.0,110.0,110.0,433.0,0.00,0,0,1,333.3,58.0,58.0,70.5,70.5,34.0,-26.05,25.79,-14.0,25.5,2,-184.810,-3.9,100.0,33.9,27.5,37.2,36.5,0,1,0.0,0.00,0.00,0.00,0.00,5322,4317,4197,4355,309.8,312.2,343.2,343.0,22.84,20.98,24.47,23.49,325.0,325.0,355.0,355.0,99.86,99.69,99.88,99.81,0.04,0.14,-0.11,0.09,-0.0,-0.0,-0.2,-0.3,68.8,57.2,72.7,66.6,75.0,59.6,78.6,71.3,71.7,57.2,76.5,68.9,70.0,56.4,76.0,68.1,-0.20,0.23,0.07,0.05,0.00,130.57,130.76,119.37,119.38,152.3,2.9,0.4855924216871594,146.2012946147589,39.25108648440224,39.61118835449042,10.803051550459415
1.900,82.6,44.053915931822367,-78.681749932320486,-288.1,-138.3,170.4,143.5,3459.6,3460,152.8,0,1,1,0,1,1,0,0,0,100,1,1.186,26.0,0.0,-0.006,74.146,66.0,0.0,26.0,26.0,26.0,26.0,0.09,-0.14,0.09,378.0,-2.31,-2.16,-1.51,-1.78,-716.55,611.34,5.7,0.00,0.00,0.00,0.00,0.05,-7.49,-7.49,0.40,-0.85,0.25,5.66,42.43,0.05,-0.34,-2.45,100.0,0,0,118.94,0,0,0.0,0,0,0,0,6344,0,30.00,4,152.8,0,0,0.0,0.0,0.0,0.0,0,0,1.920,1.920,74.146,20.191,0,110.00,435.8,8750,0.0,0.0,110.0,110.0,433.0,0.00,0,0,1,333.3,76.8,76.8,55.1,55.1,34.0,-2.67,15.38,-15.6,38.6,2,-184.860,-3.1,100.0,19.5,20.6,45.7,43.7,0,1,0.0,0.00,0.00,0.00,0.00,1787,3181,4630,5928,319.9,316.0,342.0,338.7,22.84,20.99,24.47,23.49,325.0,325.0,355.0,355.0,99.86,99.69,99.88,99.81,0.14,0.14,0.02,0.14,0.1,-0.0,-0.1,-0.3,68.8,57.2,72.7,66.6,74.9,59.5,78.5,71.3,71.7,57.2,76.5,68.9,70.0,56.4,76.0,68.1,-0.18,0.19,0.05,0.04,0.00,130.04,130.23,118.94,118.94,152.3,2.9,0.189208879284245,150.52251514958917,40.33139163944818,39.61118806997888,14.404068544271453
1.950,84.7,44.053897136000806,-78.681744896119483,-120.4,-16.0,-207.7,-73.5,3461.7,3462,152.5,0,1,1,0,1,1,0,0,0,100,1,1.186,26.0,0.0,-0.003,74.146,66.0,0.0,26.0,26.0,26.0,26.0,0.14,-0.17,-0.41,386.7,-2.28,-2.05,-1.33,-1.91,-715.99,609.25,5.8,0.00,0.00,0.00,0.00,0.05,-7.49,-7.49,0.13,-6.87,0.24,-4.52,42.34,0.08,-0.45,-2.03,100.0,0,0,118.52,0,0,0.0,0,0,0,0,6322,0,30.00,4,152.5,1,0,0.0,0.0,0.0,0.0,0,0,1.970,1.970,74.146,20.191,1,110.00,435.8,8750,0.0,0.0,110.0,110.0,433.0,0.00,0,0,1,166.7,80.7,80.7,67.9,67.9,34.0,-0.99,15.09,-2.1,15.2,2,-184.910,-3.1,100.0,13.5,19.8,35.3,40.0,0,1,0.0,0.00,0.00,0.00,0.00,1934,2652,3440,2305,319.8,317.6,346.0,347.1,22.84,20.99,24.47,23.49,325.0,325.0,355.0,355.0,99.86,99.69,99.88,99.81,0.22,0.26,0.16,0.22,0.0,0.0,-0.3,-0.4,68.8,57.2,72.7,66.6,74.9,59.5,78.5,71.2,71.6,57.1,76.5,68.8,69.9,56.3,76.0,68.1,-0.17,0.18,0.08,0.05,0.00,129.58,129.75,118.51,118.52,152.3,2.9,0.4654030511288038,150.16241342175678,40.69149333882938,-50.41423962043751,-7.2020345566473765
2.000,86.8,44.053878430111403,-78.681739769986336,74.6,14.5,-170.7,-175.8,3463.8,3464,152.2,0,1,1,0,1,1,0,0,0,100,1,1.186,26.0,0.0,0.000,74.146,66.0,0.0,26.0,26.0,26.0,26.0,0.17,-0.17,-0.19,387.7,-2.70,-2.51,-0.82,-1.17,-715.42,607.17,5.8,0.00,0.00,0.00,0.00,0.05,-7.49,-7.49,-0.16,-4.28,-0.05,-6.73,42.26,0.08,-0.52,-2.17,100.0,0,0,118.27,0,0,0.0,0,0,0,0,6309,0,30.00,4,152.2,0,0,0.0,0.0,0.0,0.0,0,0,2.022,2.022,74.146,20.191,0,110.00,435.8,8750,0.0,0.0,110.0,110.0,433.0,0.00,0,0,1,166.7,74.0,74.0,76.8,76.8,34.0,-2.92,30.70,0.6,16.7,2,-184.960,-3.1,100.0,17.2,20.6,26.8,31.2,0,1,0.0,0.00,0.00,0.00,0.00,3043,4029,3368,2773,316.6,312.8,346.1,347.5,22.84,20.99,24.47,23.50,325.0,325.0,355.0,355.0,99.86,99.69,99.88,99.81,0.24,0.29,0.14,0.32,0.0,-0.1,-0.2,-0.4,68.8,57.2,72.7,66.6,74.8,59.5,78.4,71.2,71.6,57.1,76.4,68.8,69.9,56.3,75.9,68.0,-0.16,0.16,0.09,0.06,0.00,129.45,129.60,118.27,118.27,152.3,2.9,0.3064310689208913,145.48109118754542,39.61118818378344,-50.414239335926254,-10.803051550459415
2.050,88.9,44.053860803407929,-78.681735003581821,145.0,33.9,17.0,-76.6,3465.9,3466,151.9,0,1,1,0,1,1,0,0,0,100,1,1.186,26.0,0.0,0.003,74.146,66.0,0.0,26.0,26.0,26.0,26.0,0.16,-0.16,0.04,384.9,-2.94,-2.82,-1.72,-1.48,-714.89,605.21,5.8,0.00,0.00,0.00,0.00,0.05,-7.49,-7.49,-0.26,-0.14,-0.18,1.17,42.17,0.09,-0.54,-2.12,100.0,0,0,118.16,0,0,0.0,0,0,0,0,6303,0,30.00,4,151.9,1,0,0.0,0.0,0.0,0.0,0,0,2.070,2.070,74.146,20.191,1,110.00,435.8,8750,0.0,0.0,110.0,110.0,433.0,0.00,0,0,1,333.3,68.8,68.8,79.3,79.3,34.0,-6.93,26.62,-9.5,24.0,2,-185.010,-3.5,100.0,24.5,22.3,27.6,27.4,0,1,0.0,0.00,0.00,0.00,0.00,3658,3582,3665,3583,314.7,313.7,345.5,344.7,22.85,20.99,24.48,23.50,325.0,325.0,355.0,355.0,99.86,99.69,99.88,99.81,0.21,0.25,0.08,0.27,0.1,0.0,-0.2,-0.3,68.8,57.2,72.7,66.6,74.8,59.5,78.4,71.2,71.5,57.1,76.4,68.8,69.9,56.3,75.9,68.0,-0.19,0.19,0.09,0.07,0.00,129.31,129.50,118.17,118.17,152.3,2.9,0.22978250586152116,145.12098948816416,39.61118818378344,-7.202033987624361,3.6010169938118963
2.100,91.0,44.053842187450684,-78.681729877448674,-116.2,-88.2,24.9,65.8,3468.0,3468,151.6,0,1,1,0,1,1,0,0,0,100,1,1.186,26.0,0.0,0.006,74.146,66.0,0.0,26.0,26.0,26.0,26.0,0.09,-0.17,-0.20,384.9,-3.12,-1.85,-2.01,-0.68,-714.32,603.14,5.8,0.00,0.00,0.00,0.00,0.05,-7.49,-7.49,-0.33,-3.46,-0.06,3.38,42.09,0.11,-0.48,-2.11,100.0,0,0,117.90,0,0,0.0,0,0,0,0,6289,0,30.00,4,151.6,0,0,0.0,0.0,0.0,0.0,0,0,2.120,2.120,74.146,20.191,0,110.00,435.8,8750,0.0,0.0,110.0,110.0,433.0,0.00,0,0,1,333.3,75.6,75.6,72.8,72.8,34.0,-4.82,26.32,-22.9,26.1,2,-185.060,-4.2,100.0,18.6,17.8,28.9,30.7,0,1,0.0,0.00,0.00,0.00,0.00,3147,4063,5531,4826,316.3,314.4,340.8,342.4,22.85,20.99,24.48,23.50,325.0,325.0,355.0,355.0,99.86,99.69,99.88,99.81,0.25,0.32,0.04,0.28,0.0,0.0,-0.1,-0.3,68.8,57.2,72.7,66.6,74.7,59.5,78.3,71.1,71.5,57.1,76.3,68.7,69.8,56.3,75.8,68.0,-0.23,0.23,0.08,0.07,0.00,128.97,129.04,117.90,117.90,152.3,2.9,0.2774887385102322,144.76088778878298,39.97128988316463,-7.20203427213562,3.60101756283548
2.150,93.1,44.053824650679367,-78.681725021112001,29.6,180.7,-63.1,-26.2,3470.1,3470,151.3,0,1,1,0,1,1,0,0,0,100,1,1.186,26.0,0.0,0.006,74.146,66.0,0.0,26.0,26.0,26.0,26.0,0.19,-0.21,-0.18,384.2,-2.95,-2.10,-2.82,-1.66,-713.78,601.19,5.8,0.00,0.00,0.00,0.00,0.06,-7.49,-7.49,-0.47,0.32,0.02,-1.96,42.01,0.11,-0.54,-3.07,100.0,0,0,117.69,0,0,0.0,0,0,0,0,6277,0,30.00,4,151.3,1,0,0.0,0.0,0.0,0.0,0,0,2.168,2.168,74.146,20.191,1,110.00,435.8,8750,0.0,0.0,110.0,110.0,433.0,0.00,0,0,1,333.3,66.7,66.7,74.1,74.1,34.0,-3.45,47.25,-13.6,21.7,2,-185.110,-4.2,100.0,20.1,26.9,25.7,29.4,0,1,0.0,0.00,0.00,0.00,0.00,3231,5564,3461,3050,316.1,307.9,346.8,347.1,22.85,20.99,24.48,23.50,325.0,325.0,355.0,355.0,99.86,99.69,99.88,99.81,0.26,0.36,0.13,0.34,-0.0,-0.1,-0.4,-0.6,68.8,57.2,72.7,66.6,74.7,59.5,78.3,71.1,71.5,57.1,76.3,68.7,69.8,56.3,75.8,68.0,-0.24,0.25,0.09,0.08,0.00,128.79,129.16,117.69,117.69,152.3,2.9,0.3355592347112503,144.4007860609506,39.97128994006699,32.40915379784269,14.404068544271453
2.200,95.2,44.053806124654287,-78.681719894978841,23.7,-18.0,65.0,86.9,3472.2,3472,151.0,0,1,1,0,1,1,0,0,0,100,1,1.186,26.0,0.0,0.009,74.146,66.0,0.0,26.0,26.0,26.0,26.0,0.25,-0.17,0.07,380.6,-3.30,-1.51,-1.61,-1.30,-713.21,599.13,5.8,0.00,0.00,0.00,0.00,0.06,-7.49,-7.49,-0.38,1.42,-0.14,-3.71,41.92,0.12,-0.46,-2.66,100.0,0,0,117.53,0,0,0.0,0,0,0,0,6269,0,30.00,4,151.0,0,0,0.0,0.0,0.0,0.0,1,0,2.220,2.220,74.146,20.191,0,110.00,435.8,8750,0.0,0.0,110.0,110.0,433.0,0.00,0,0,1,333.3,67.7,67.7,69.1,69.1,34.0,-4.45,35.26,-5.4,34.8,2,-185.160,-3.8,100.0,21.3,26.0,29.0,33.7,0,1,0.0,0.00,0.00,0.00,0.00,3496,4927,4785,4363,315.5,310.7,342.4,343.4,22.85,20.99,24.48,23.50,325.0,325.0,355.0,355.0,99.86,99.69,99.88,99.81,0.29,0.36,0.17,0.39,0.0,-0.0,-0.2,-0.4,68.8,57.2,72.8,66.6,74.7,59.5,78.2,71.1,71.4,57.1,76.2,68.7,69.8,56.3,75.7,67.9,-0.22,0.22,0.09,0.07,0.00,128.59,128.79,117.53,117.54,152.3,2.9,0.31032241298365804,148.00180316856725,41.411696737591775,-10.803051265947943,7.202033987623935
2.250,97.3,44.053787688561364,-78.681714678913536,-17.2,-65.5,82.0,32.6,3474.3,3474,150.7,0,1,1,0,1,1,0,0,0,100,1,1.186,26.0,0.0,0.015,74.146,66.0,0.0,26.0,26.0,26.0,26.0,0.15,-0.17,-0.20,382.3,-2.27,-2.83,-2.02,-0.65,-712.63,597.08,5.8,0.00,0.00,0.00,0.00,0.06,-7.49,-7.49,-0.37,-0.94,-0.41,-3.99,41.84,0.11,-0.43,-2.68,100.0,0,0,117.30,0,0,0.0,0,0,0,0,6257,0,30.00,4,150.7,1,0,0.0,0.0,0.0,0.0,1,0,2.270,2.270,74.146,20.191,1,110.00,435.8,8750,0.0,0.0,110.0,110.0,433.0,0.00,0,0,1,333.3,74.3,74.3,67.4,67.4,34.0,1.58,18.78,-10.7,23.3,2,-185.210,-3.8,100.0,20.4,22.7,33.1,35.3,0,1,0.0,0.00,0.00,0.00,0.00,2603,2559,5373,3934,317.6,317.2,340.7,344.7,22.85,20.99,24.48,23.50,325.0,325.0,355.0,355.0,99.86,99.69,99.88,99.81,0.31,0.31,0.19,0.35,0.0,-0.0,-0.1,-0.4,68.8,57.2,72.8,66.6,74.6,59.5,78.2,71.0,71.4,57.1,76.2,68.7,69.7,56.3,75.7,67.9,-0.22,0.21,0.08,0.06,0.00,128.23,128.41,117.30,117.30,152.3,2.9,0.3023243291566195,143.3204809343558,40.69149333882938,-46.8132223421145,-3.6010164247883836
2.300,99.4,44.053770331654370,-78.681709732644691,58.0,7.3,22.0,-3.8,3476.4,3476,150.4,0,1,1,0,1,1,0,0,0,100,1,1.186,26.0,0.0,0.015,74.146,66.0,0.1,26.0,26.0,26.0,26.0,0.20,-0.16,0.11,379.8,-2.55,-2.17,-1.45,-1.05,-712.08,595.15,5.8,0.00,0.00,0.00,0.00,0.06,-7.49,-7.49,-0.52,-2.78,-0.52,-0.81,41.77,0.11,-0.53,-2.84,100.0,0,0,116.93,0,0,0.0,0,0,0,0,6237,0,30.00,4,150.4,0,0,0.0,0.0,0.0,0.0,1,0,2.320,2.320,74.146,20.191,0,110.00,435.8,8750,0.0,0.0,110.0,110.0,433.0,0.00,0,0,1,166.7,65.6,65.6,71.5,71.5,34.0,-3.81,43.16,-2.1,17.2,2,-185.260,-4.3,100.0,23.3,23.1,34.2,35.1,0,1,0.0,0.00,0.00,0.00,0.00,4713,5152,3502,2843,311.9,309.8,345.6,347.0,22.85,20.99,24.48,23.50,325.0,325.0,355.0,355.0,99.86,99.69,99.88,99.81,0.24,0.37,0.18,0.32,0.0,-0.1,-0.2,-0.4,68.8,57.2,72.8,66.6,74.6,59.5,78.2,71.0,71.4,57.1,76.1,68.6,69.7,56.3,75.6,67.9,-0.23,0.23,0.07,0.06,0.00,128.07,128.24,116.93,116.93,152.3,2.9,0.2787471972953271,143.3204809343558,41.05159509511294,39.61118806997888,18.005084969059695
2.350,101.5,44.053751895561447,-78.681704426647215,63.9,147.1,-110.7,-84.5,3478.5,3478,150.1,0,1,1,0,1,1,0,0,0,100,1,1.186,26.0,0.0,0.018,74.146,66.0,0.6,26.0,26.0,26.0,26.0,0.31,-0.19,0.21,377.0,-2.30,-2.04,-1.59,-1.02,-711.49,593.10,5.9,0.00,0.00,0.00,0.00,0.06,-7.49,-7.49,-0.43,5.66,-0.51,-1.17,41.67,0.12,-0.48,-4.02,100.0,0,0,117.03,0,0,0.0,0,0,0,0,6242,0,30.00,4,150.1,1,0,0.0,0.0,0.0,0.0,1,0,2.370,2.370,74.146,20.191,1,110.00,435.8,8750,0.0,0.0,110.0,110.0,433.0,0.00,0,0,1,166.7,59.4,59.4,68.1,68.1,34.0,0.80,51.10,-4.3,34.4,2,-185.310,-5.2,100.0,26.5,30.4,28.6,30.9,0,1,0.0,0.00,0.00,0.00,0.00,4389,5949,5339,4655,312.8,306.9,341.8,343.2,22.85,20.99,24.48,23.50,325.0,325.0,355.0,355.0,99.86,99.69,99.88,99.81,0.28,0.37,0.19,0.39,-0.0,-0.0,-0.2,-0.4,68.8,57.2,72.8,66.6,74.6,59.5,78.1,71.0,71.3,57.1,76.1,68.6,69.7,56.3,75.6,67.9,-0.29,0.29,0.08,0.06,0.00,127.88,128.18,117.03,117.03,152.3,2.9,0.41988093550434036,147.2815997413537,42.49200183573535,-10.803051550459202,3.6010164247883836
2.400,103.5,44.053733549400690,-78.681699120649753,-82.8,-117.1,164.0,202.6,3480.6,3481,149.7,0,1,1,0,1,1,0,0,0,100,1,1.186,26.0,0.0,0.021,74.146,66.0,2.8,26.0,26.0,26.0,26.0,0.25,-0.23,-0.03,377.9,-3.49,-3.55,-1.46,-1.81,-710.90,591.06,5.9,0.00,0.00,0.00,0.00,0.06,-7.49,-7.49,-0.21,1.93,-0.50,0.07,41.58,0.12,-0.39,-3.62,100.0,0,0,116.72,0,0,0.0,0,0,0,0,6226,0,30.00,4,149.7,0,0,0.0,0.0,0.0,0.0,1,0,2.420,2.420,74.146,20.191,0,110.00,435.8,8750,0.0,0.0,110.0,110.0,433.0,0.00,0,0,1,166.7,73.1,73.1,63.7,63.7,34.0,0.84,25.29,-1.9,62.4,2,-185.360,-7.8,100.0,22.4,24.6,36.8,41.1,0,1,0.0,0.00,0.00,0.00,0.00,2297,2806,4914,6456,319.2,316.8,342.2,337.3,22.85,20.99,24.49,23.50,325.0,325.0,355.0,355.0,99.86,99.69,99.88,99.81,0.44,0.40,0.20,0.35,-0.1,-0.1,-0.2,-0.3,68.8,57.2,72.8,66.7,74.5,59.5,78.1,71.0,71.3,57.1,76.0,68.6,69.6,56.3,75.5,67.8,-0.41,0.41,0.07,0.04,0.00,127.16,127.46,116.63,116.81,152.3,2.9,0.3410278580995987,142.24017577930988,41.411696737591775,-57.61627360806216,-7.202033418600209
2.450,105.6,44.053716372358018,-78.681694084448750,-95.4,-103.2,-0.1,42.0,3482.6,3483,149.3,0,1,1,0,1,1,0,0,0,100,1,1.186,26.0,0.0,0.024,74.146,66.0,18.6,26.0,26.0,26.0,26.0,0.27,-0.39,-0.05,379.7,-3.75,-2.05,-2.29,-1.67,-710.34,589.15,5.9,0.00,0.00,0.00,0.00,0.06,-7.49,-7.49,-0.35,-5.94,-0.45,0.58,41.45,0.10,-0.47,-4.10,100.0,0,0,115.68,0,0,0.0,0,0,0,0,6170,0,30.00,4,149.3,1,0,0.0,0.0,0.0,0.0,1,0,2.470,2.470,74.146,20.191,1,110.00,435.8,8750,0.0,0.0,110.0,110.0,433.0,0.00,0,0,1,166.7,73.8,73.8,65.2,65.2,34.0,6.19,46.58,-14.9,28.0,2,-185.410,-13.1,100.0,17.6,19.4,36.8,43.2,0,1,0.0,0.00,0.00,0.00,0.00,4026,4262,4984,3892,315.0,312.5,342.7,344.3,22.85,20.99,24.49,23.51,325.0,325.0,355.0,355.0,99.86,99.69,99.88,99.81,0.58,0.71,0.15,0.28,-1.0,-0.8,-0.3,-0.6,68.8,57.2,72.8,66.7,74.5,59.5,78.0,71.0,71.3,57.1,76.0,68.6,69.6,56.3,75.5,67.8,-0.69,0.70,0.06,0.04,0.00,125.64,125.92,115.68,115.68,152.3,2.9,0.4769696007084729,141.51997238054747,41.77179849387533,18.00508582259539,18.00508553808335
2.500,107.7,44.053698206061576,-78.681688688519117,242.4,153.2,-239.7,-273.0,3484.7,3485,147.9,0,1,1,0,1,1,0,0,0,100,1,1.186,26.0,0.0,0.027,74.146,66.0,70.3,26.0,26.0,26.0,26.0,0.38,-1.14,-0.07,380.2,-2.35,-2.50,-1.29,-1.49,-709.74,587.13,5.9,0.00,0.00,0.00,0.00,0.06,-7.49,-7.49,-0.53,0.17,-0.19,9.70,41.04,0.14,-0.58,-8.55,100.0,0,0,113.00,0,0,0.0,0,0,0,0,6027,0,30.00,4,147.9,0,0,0.0,0.0,0.0,0.0,1,0,2.520,2.520,74.146,20.191,0,110.00,435.8,8750,0.0,0.0,110.0,110.0,433.0,0.00,0,0,1,333.3,58.3,58.3,85.0,85.0,34.0,30.74,39.81,2.7,26.4,2,-185.460,-19.1,100.0,29.7,27.1,24.8,29.5,0,1,0.0,0.00,0.00,0.00,0.00,5840,4820,3497,3714,308.0,311.1,346.8,345.6,22.86,21.00,24.49,23.51,325.0,325.0,355.0,355.0,99.86,99.69,99.88,99.81,0.78,0.89,0.28,0.43,-2.2,-3.8,-2.3,-1.9,68.9,57.2,72.8,66.7,74.5,59.5,78.0,70.9,71.3,57.1,76.0,68.5,69.6,56.3,75.5,67.8,-1.04,1.05,0.08,0.06,0.00,122.10,120.79,112.86,113.14,152.3,2.9,1.2037026210821342,144.04068436156942,43.21220529140011,-43.21220534830218,3.6010164247882415
2.550,109.7,44.053680399493778,-78.681683292589483,-68.0,53.0,-4.7,144.2,3486.7,3487,145.1,0,1,1,0,1,1,0,0,0,100,1,1.186,26.0,0.0,0.027,74.146,66.0,100.0,26.0,26.0,26.0,26.0,0.43,-1.74,0.23,377.3,-2.79,-2.07,-1.24,-0.22,-709.14,585.15,5.9,0.00,0.00,0.00,0.00,0.07,-7.49,-7.49,-0.56,-3.30,0.21,3.21,40.24,0.25,-0.66,-7.95,100.0,0,0,110.41,0,0,0.0,0,0,0,0,5889,0,30.00,4,145.1,1,0,0.0,0.0,0.0,0.0,1,0,2.570,2.570,74.146,20.191,1,110.00,435.8,8750,0.0,0.0,110.0,110.0,433.0,0.00,0,0,1,333.3,59.6,59.6,76.0,76.0,34.0,-1.08,3.17,6.3,56.7,2,-185.510,-22.5,100.0,26.4,29.7,24.6,36.7,0,1,0.0,0.00,0.00,0.00,0.00,3150,7149,2599,6319,315.9,304.3,347.5,337.7,22.86,21.00,24.49,23.51,325.0,325.0,355.0,355.0,99.86,99.69,99.88,99.81,1.29,1.36,0.46,0.68,-11.7,-9.0,-2.7,-1.9,68.9,57.2,72.8,66.7,74.6,59.6,78.0,70.9,71.3,57.3,75.9,68.6,69.7,56.4,75.4,67.8,-1.27,1.27,0.09,0.05,0.00,111.51,112.70,109.25,111.57,152.3,2.9,1.8070417814760122,137.19875184571725,42.131900136354155,-100.82847924087673,-10.803050981435831
2.600,111.7,44.053663941908390,-78.681678166456336,-89.0,177.7,29.8,-122.5,3488.7,3489,142.3,0,1,1,0,1,1,0,0,0,100,1,1.186,26.0,0.0,0.027,74.146,66.0,100.0,26.0,26.0,26.0,26.0,0.54,-1.45,-0.16,380.7,-3.50,-1.57,-1.52,-0.84,-708.57,583.32,5.9,0.00,0.00,0.00,0.00,0.07,-7.49,-7.49,-0.79,-4.00,0.07,-9.88,39.48,0.27,-0.87,-7.55,100.0,0,0,105.59,0,0,0.0,0,0,0,0,5632,0,30.00,4,142.3,0,0,0.0,0.0,0.0,0.0,1,0,2.620,2.620,74.146,20.191,0,110.00,435.8,8750,0.0,0.0,110.0,110.0,433.0,0.00,0,0,1,166.7,57.3,57.3,69.8,69.8,34.0,0.58,62.91,2.5,13.8,2,-185.560,-23.9,100.0,21.9,38.6,26.1,30.6,0,1,0.0,0.00,0.00,0.00,0.00,3202,7779,1766,2349,316.7,302.0,350.8,348.6,22.86,21.00,24.49,23.51,325.0,325.0,355.0,355.0,99.86,99.69,99.88,99.81,1.55,1.66,0.65,0.78,-9.2,-5.2,-5.4,-3.7,68.9,57.2,72.8,66.7,74.7,59.8,77.9,70.9,71.4,57.4,75.9,68.6,69.7,56.6,75.4,67.8,-1.38,1.40,0.08,0.07,0.00,107.69,114.51,104.49,106.69,152.3,2.9,1.555538491969903,133.95783643748175,42.13190019325653,18.005085538082994,21.606103100918972
2.650,113.6,44.053646944730041,-78.681672770526689,60.0,-36.6,-94.8,-122.0,3490.6,3491,139.3,0,1,1,0,1,1,0,0,0,100,1,1.186,26.0,0.0,0.033,74.146,66.0,100.0,26.0,26.0,26.0,26.0,0.53,-1.76,0.02,382.0,-2.60,-2.27,-0.19,-0.59,-707.97,581.43,5.9,0.00,0.00,0.00,0.00,0.07,-7.49,-7.49,-0.89,-0.78,-0.61,-15.01,38.62,0.32,-0.90,-9.61,100.0,0,0,103.29,0,0,0.0,0,0,0,0,5509,0,30.00,4,139.3,1,0,0.0,0.0,0.0,0.0,1,0,2.670,2.670,74.146,20.191,1,110.00,435.8,8750,0.0,0.0,110.0,110.0,433.0,0.00,0,0,1,166.7,57.5,57.5,79.0,79.0,34.0,-1.86,16.76,6.0,27.5,2,-185.610,-24.3,100.0,24.9,36.8,21.4,24.5,0,1,0.0,0.00,0.00,0.00,0.00,4136,6186,2053,4000,313.5,306.9,348.9,344.5,22.86,21.00,24.49,23.51,325.0,325.0,355.0,355.0,99.86,99.69,99.88,99.81,1.63,1.72,0.85,1.08,-12.9,-7.4,-5.7,-4.4,68.9,57.3,72.8,66.7,74.8,60.0,77.9,70.9,71.5,57.6,75.9,68.6,69.8,56.8,75.4,67.8,-1.41,1.41,0.10,0.08,0.00,101.59,109.43,101.80,104.77,152.3,2.9,1.8381784461798043,138.99926039952555,44.29251044644605,-57.616273608061874,-3.6010175628356222
2.700,115.5,44.053629228094401,-78.681667104800582,132.4,-162.2,-48.4,-74.3,3492.5,3493,136.0,1,1,1,0,1,1,0,0,0,100,1,1.186,26.0,0.0,0.042,74.146,66.0,100.0,26.0,26.0,26.0,26.0,0.47,-1.95,0.04,382.8,-2.24,-2.82,-1.46,-1.59,-707.34,579.46,5.9,0.00,0.00,0.00,0.00,0.07,-7.49,-7.49,-0.87,1.86,-1.19,-1.15,37.71,0.51,-0.83,-13.79,100.0,0,0,99.59,0,0,0.0,0,0,0,0,5312,0,30.00,4,136.0,0,0,0.0,0.0,0.0,0.0,0,0,2.724,2.724,74.146,20.191,0,110.00,435.8,8750,0.0,0.0,110.0,110.0,433.0,0.00,0,0,1,166.7,55.8,55.8,92.0,92.0,34.0,3.90,-3.79,9.1,9.3,2,-185.670,-24.7,100.0,31.5,28.7,18.9,20.8,0,1,0.0,0.00,0.00,0.00,0.00,6815,5019,3191,3265,306.3,310.3,347.0,346.4,22.86,21.00,24.49,23.51,325.0,325.0,355.0,355.0,99.86,99.69,99.88,99.81,1.61,1.75,1.13,1.40,-8.9,-13.9,-6.0,-7.0,68.9,57.3,72.8,66.7,74.9,60.2,77.9,70.9,71.7,57.7,75.9,68.6,70.0,56.9,75.4,67.8,-1.40,1.40,0.10,0.09,0.00,105.29,103.99,99.59,99.59,152.3,2.9,2.0062402647738877,128.19620907667556,41.771798436972965,-183.65187265915708,-39.61118806997874
2.750,117.3,44.053614928880869,-78.681662338396066,2.0,27.2,-20.7,27.1,3494.4,3494,133.2,0,1,1,0,1,1,0,0,0,100,1,1.186,26.0,0.0,0.048,74.146,66.0,100.0,26.0,26.0,26.0,26.0,0.61,-1.47,-0.08,385.0,-3.00,-2.28,-1.01,-1.00,-706.81,577.87,6.0,0.00,0.00,0.00,0.00,0.07,-7.49,-7.49,-0.76,3.83,-0.86,11.07,36.93,0.72,-0.78,-16.24,100.0,0,0,97.38,0,0,0.0,0,0,0,0,5195,0,30.00,4,133.2,1,0,0.0,0.0,0.0,0.0,0,0,2.768,2.768,74.146,20.191,1,110.00,435.8,8750,0.0,0.0,110.0,110.0,433.0,0.00,0,0,1,333.3,58.1,58.1,92.6,92.6,34.0,-0.04,16.68,1.6,23.1,2,-185.710,-26.3,100.0,31.6,30.0,17.9,22.1,0,1,0.0,0.00,0.00,0.00,0.00,4189,5398,1530,3049,313.1,309.3,351.5,346.7,22.86,21.00,24.49,23.51,325.0,325.0,355.0,355.0,99.86,99.69,99.88,99.81,1.83,1.90,1.46,1.65,-9.5,-7.1,-7.8,-4.7,68.9,57.3,72.8,66.7,75.0,60.3,77.9,70.9,71.8,57.9,75.9,68.6,70.1,57.1,75.4,67.8,-1.48,1.49,0.11,0.07,0.00,100.76,104.76,94.89,99.88,152.3,2.9,1.5935494971917252,120.63407313360985,40.33139163944818,-25.207119810219325,10.803051550459486
