Time,Distance,GPS Latitude,GPS Longitude,Damper Velocity (Calc) FL,Damper Velocity (Calc) FR,Damper Velocity (Calc) RL,Damper Velocity (Calc) RR,Corr Dist,Corr Dist (Unstretched),Corr Speed,ABS Active,ABS Enabled,AID Allow Tire Blankets,AID Auto Blip,AID Auto Clutch,AID Auto Shift,AID Fuel Rate,AID Ideal Line,AID Mech Damage,AID Stability,AID Tire Wear Rate,Air Density,Air Temp,Ballast,Best Lap Delta,Best Lap Time,Brake Bias,Brake Pos,Brake Temp FL,Brake Temp FR,Brake Temp RL,Brake Temp RR,CG Accel Lateral,CG Accel Longitudinal,CG Accel Vertical,CG Height,Camber FL,Camber FR,Camber RL,Camber RR,Car Coord X,Car Coord Y,Car Coord Z,Car Damage Front,Car Damage Left,Car Damage Rear,Car Damage Right,Car Pos Norm,Caster FL,Caster FR,Chassis Pitch Angle,Chassis Pitch Rate,Chassis Roll Angle,Chassis Roll Rate,Chassis Velocity X,Chassis Velocity Y,Chassis Velocity Z,Chassis Yaw Rate,Clutch Pos,DRS Active,DRS Available,Drive Train Speed,ERS Heat Charging,ERS Is Charging,ERS Max Energy,ERS Power Level,ERS Recovery Level,Engine Brake Setting,Engine Limiter,Engine RPM,Flags,Fuel Level,Gear,Ground Speed,HR Sample Clock,In Pit,KERS Charge,KERS Deployed Energy,KERS Input,KERS Max Energy,LR Sample Clock,Lap Invalidated,Lap Time,Lap Time2,Last Lap Time,Last Sector Time,MR Sample Clock,Max Fuel,Max Power,Max RPM,Max Sus Travel FL,Max Sus Travel FR,Max Sus Travel RL,Max Sus Travel RR,Max Torque,Max Turbo Boost,Num Tires Off Track,Penalties Enabled,Position,Raw Data Sample Rate,Ride Height FL,Ride Height FR,Ride Height RL,Ride Height RR,Road Temp,Self Align Torque FL,Self Align Torque FR,Self Align Torque RL,Self Align Torque RR,Session Lap Count,Session Time Left,Steering Angle,Surface Grip,Suspension Travel FL,Suspension Travel FR,Suspension Travel RL,Suspension Travel RR,TC Active,TC Enabled,Throttle Pos,Tire Dirt Level FL,Tire Dirt Level FR,Tire Dirt Level RL,Tire Dirt Level RR,Tire Load FL,Tire Load FR,Tire Load RL,Tire Load RR,Tire Loaded Radius FL,Tire Loaded Radius FR,Tire Loaded Radius RL,Tire Loaded Radius RR,Tire Pressure FL,Tire Pressure FR,Tire Pressure RL,Tire Pressure RR,Tire Radius FL,Tire Radius FR,Tire Radius RL,Tire Radius RR,Tire Rubber Grip FL,Tire Rubber Grip FR,Tire Rubber Grip RL,Tire Rubber Grip RR,Tire Slip Angle FL,Tire Slip Angle FR,Tire Slip Angle RL,Tire Slip Angle RR,Tire Slip Ratio FL,Tire Slip Ratio FR,Tire Slip Ratio RL,Tire Slip Ratio RR,Tire Temp Core FL,Tire Temp Core FR,Tire Temp Core RL,Tire Temp Core RR,Tire Temp Inner FL,Tire Temp Inner FR,Tire Temp Inner RL,Tire Temp Inner RR,Tire Temp Middle FL,Tire Temp Middle FR,Tire Temp Middle RL,Tire Temp Middle RR,Tire Temp Outer FL,Tire Temp Outer FR,Tire Temp Outer RL,Tire Temp Outer RR,Toe In FL,Toe In FR,Toe In RL,Toe In RR,Turbo Boost,Wheel Angular Speed FL,Wheel Angular Speed FR,Wheel Angular Speed RL,Wheel Angular Speed RR,Wind Direction,Wind Speed,CG Distance,Lateral Velocity,Longitudinal Velocity,Lateral Acceleration,Longitudinal Acceleration
s,m,deg,deg,mm/s,mm/s,mm/s,mm/s,m,m,km/h,,,,,,,,,%,%,,kg/m3,C,kg,s,s,%,%,C,C,C,C,G,G,G,mm,deg,deg,deg,deg,m,m,m,,,,,,deg,deg,deg,deg/s,deg,deg/s,m/s,m/s,m/s,deg/s,%,,,rad/s,,,MJ,,,,,rpm,,l,,km/h,,,%,kJ,%,MJ,,,s,s,s,s,,l,hp,rpm,mm,mm,mm,mm,N.m,,,,,Hz,mm,mm,mm,mm,C,N.m,N.m,N.m,N.m,,s,deg,%,mm,mm,mm,mm,,,%,,,,,N,N,N,N,mm,mm,mm,mm,psi,psi,psi,psi,mm,mm,mm,mm,%,%,%,%,deg,deg,deg,deg,%,%,%,%,C,C,C,C,C,C,C,C,C,C,C,C,C,C,C,C,deg,deg,deg,deg,,rad/s,rad/s,rad/s,rad/s,deg,km/h,G,Km/h,Km/h,Km/h^2,Km/h^2
0.000,0.0,44.054631791820682,-78.681940408636621,-21.5,-69.5,62.1,29.2,3456.3,3456,122.7,0,1,1,0,1,1,0,0,0,100,1,1.186,26.0,0.0,0.00,71.123,66.0,0.0,26.0,26.0,26.0,26.0,-0.20,-0.05,0.05,379.8,-2.68,-2.82,-1.84,-1.51,-737.73,690.94,5.7,0.00,0.00,0.00,0.00,0.00,-7.49,-7.49,-0.52,-3.87,-0.03,3.16,34.08,0.01,-0.37,2.6,100.0,0,0,97.53,0,0,0.0,0,0,0,0,6538,0,30.00,3,122.7,0,0,0.0,0.0,0.0,0.0,1,0,0.027,0.027,71.123,25.355,0,110.00,435.8,8750,0.0,0.0,110.0,110.0,433.0,0.00,0,0,1,333.3,70.9,70.9,70.0,70.0,34.0,-45.5,3.36,-34.5,8.5,2,-264.860,7.2,100.0,22.8,17.8,37.1,35.6,0,1,80.9,0.00,0.00,0.00,0.00,5239,3964,4902,3755,312.1,314.5,342.0,344.6,24.77,21.54,24.08,23.01,325.0,325.0,355.0,355.0,99.97,99.74,99.92,99.85,-0.34,-0.26,-0.21,-0.06,-0.0,0.0,0.4,0.7,80.8,60.6,70.2,63.6,92.7,66.3,75.0,67.3,87.8,63.4,72.8,64.8,84.9,62.8,72.5,64.4,0.40,-0.41,0.07,0.07,0.00,104.53,104.35,97.53,97.54,194.4,26.0,0.21213203435596428
0.050,1.7,44.054617132878505,-78.681934922774815,13.8,102.1,-96.6,-84.4,3458.0,3458,123.3,0,1,1,0,1,1,0,0,0,100,1,1.186,26.0,0.0,-0.01,71.123,66.0,0.0,26.0,26.0,26.0,26.0,-0.19,0.41,-0.14,383.1,-2.44,-2.93,-1.93,-2.21,-737.12,689.31,5.7,0.00,0.00,0.00,0.00,0.00,-7.49,-7.49,-0.53,2.18,0.05,-1.25,34.26,-0.01,-0.40,4.1,100.0,0,0,99.08,0,0,0.0,0,0,0,0,6642,0,30.00,3,123.3,1,0,0.0,0.0,0.0,0.0,1,0,0.077,0.077,71.123,25.355,1,110.00,435.8,8750,0.0,0.0,110.0,110.0,433.0,0.00,0,0,1,166.7,71.3,71.3,73.2,73.2,34.0,-30.8,-0.91,-23.3,6.0,2,-264.910,9.2,100.0,23.5,22.9,32.3,31.4,0,1,80.5,0.00,0.00,0.00,0.00,3707,2680,4308,2874,315.7,316.9,343.9,346.8,24.78,21.54,24.08,23.01,325.0,325.0,355.0,355.0,99.97,99.74,99.92,99.85,-0.40,-0.37,-0.23,-0.11,-0.1,-0.0,2.5,2.9,80.8,60.7,70.2,63.6,92.6,66.3,75.0,67.3,87.7,63.4,72.7,64.8,84.9,62.8,72.5,64.4,0.52,-0.52,0.07,0.07,0.00,105.36,105.00,99.08,99.08,194.4,26.0,0.4730750469005948,114.51234407342243,42.49200189263772
0.100,3.4,44.054603193393611,-78.681929796641668,-29.1,-38.1,64.2,34.3,3459.7,3460,124.1,0,1,1,0,1,1,0,0,0,100,1,1.186,26.0,0.0,-0.01,71.123,66.0,0.0,26.0,26.0,26.0,26.0,-0.21,0.44,0.13,380.9,-3.26,-2.74,-0.78,-1.58,-736.55,687.76,5.7,0.00,0.00,0.00,0.00,0.00,-7.49,-7.49,-0.37,2.96,0.08,-0.20,34.48,-0.04,-0.30,5.4,100.0,0,0,98.59,0,0,0.0,0,0,0,0,6609,0,30.00,3,124.1,0,0,0.0,0.0,0.0,0.0,1,0,0.127,0.127,71.123,25.355,0,110.00,435.8,8750,0.0,0.0,110.0,110.0,433.0,0.00,0,0,1,333.3,74.4,74.4,66.2,66.2,34.0,-27.4,-3.39,-34.4,5.1,2,-264.960,10.2,100.0,22.1,21.0,35.5,33.1,0,1,80.9,0.00,0.00,0.00,0.00,2963,2476,5441,5231,317.6,317.5,340.5,340.5,24.78,21.55,24.08,23.02,325.0,325.0,355.0,355.0,99.97,99.74,99.92,99.85,-0.46,-0.44,-0.37,-0.16,-0.1,-0.0,1.5,2.0,80.9,60.7,70.3,63.6,92.6,66.3,74.9,67.3,87.7,63.4,72.7,64.8,84.8,62.8,72.5,64.4,0.60,-0.60,0.07,0.06,0.00,106.08,105.63,98.59,98.59,194.4,26.0,0.5045790324617145,115.23254750063599,42.49200189263772,14.404068259759413,0.0
0.150,5.2,44.054588354587111,-78.681924310779863,-151.2,-71.5,30.8,16.8,3461.5,3461,124.8,0,1,1,0,1,1,0,0,0,100,1,1.186,26.0,0.0,-0.02,71.123,66.0,0.0,26.0,26.0,26.0,26.0,-0.25,0.48,-0.14,383.8,-2.88,-2.90,-1.34,-1.52,-735.94,686.11,5.7,0.00,0.00,0.00,0.00,0.00,-7.49,-7.49,-0.35,-1.80,-0.09,-5.48,34.68,-0.09,-0.24,5.4,100.0,0,0,99.38,0,0,0.0,0,0,0,0,6662,0,30.00,3,124.8,1,0,0.0,0.0,0.0,0.0,1,0,0.177,0.177,71.123,25.355,1,110.00,435.8,8750,0.0,0.0,110.0,110.0,433.0,0.00,0,0,1,333.3,81.4,81.4,60.7,60.7,34.0,-18.5,-4.37,-45.2,-0.5,2,-265.010,10.9,100.0,14.5,17.5,37.1,34.0,0,1,80.5,0.00,0.00,0.00,0.00,2129,2547,6123,4643,319.6,317.8,339.0,342.4,24.78,21.55,24.08,23.02,325.0,325.0,355.0,355.0,99.97,99.74,99.92,99.85,-0.52,-0.50,-0.40,-0.24,-0.1,-0.1,2.0,2.4,80.9,60.7,70.3,63.6,92.5,66.2,74.9,67.3,87.6,63.4,72.7,64.8,84.8,62.8,72.5,64.4,0.63,-0.65,0.05,0.06,0.00,106.53,106.06,99.38,99.38,194.4,26.0,0.5590169943749475,115.95275089939837,42.49200189263772,18.00508525357145,-3.6010175628356222
0.200,6.9,44.054574235237901,-78.681919184646716,92.6,-27.6,42.2,-52.9,3463.2,3463,125.5,0,1,1,0,1,1,0,0,0,100,1,1.186,26.0,0.0,-0.02,71.123,66.0,0.0,26.0,26.0,26.0,26.0,-0.32,0.40,-0.12,384.9,-2.89,-3.50,-1.29,-1.95,-735.37,684.54,5.7,0.00,0.00,0.00,0.00,0.01,-7.49,-7.49,-0.47,-2.94,-0.31,-1.17,34.86,-0.12,-0.31,6.5,100.0,0,0,100.32,0,0,0.0,0,0,0,0,6725,0,30.00,3,125.5,0,0,0.0,0.0,0.0,0.0,1,0,0.223,0.223,71.123,25.355,0,110.00,435.8,8750,0.0,0.0,110.0,110.0,433.0,0.00,0,0,1,333.3,79.7,79.7,68.8,68.8,34.0,-39.4,-1.47,-36.4,-1.6,2,-265.060,11.0,100.0,19.1,16.1,39.2,31.3,0,1,80.5,0.00,0.00,0.00,0.00,3763,978,4763,3050,315.9,321.9,341.9,346.4,24.78,21.55,24.08,23.02,325.0,325.0,355.0,355.0,99.97,99.74,99.92,99.85,-0.59,-0.58,-0.47,-0.36,-0.1,-0.1,2.1,2.6,80.9,60.7,70.3,63.6,92.5,66.2,74.9,67.3,87.6,63.3,72.7,64.8,84.7,62.7,72.5,64.4,0.64,-0.65,0.06,0.07,0.00,107.10,106.51,100.32,100.32,194.4,26.0,0.5261178575186363,117.03305602599313,42.131900136354155,93.62644496874054,14.404068544271524
0.250,8.7,44.054559126634921,-78.681913788717083,-5.7,-59.1,-145.6,-16.0,3465.0,3465,126.2,0,1,1,0,1,1,0,0,0,100,1,1.186,26.0,0.0,-0.03,71.123,66.0,0.0,26.0,26.0,26.0,26.0,-0.45,0.51,0.06,383.9,-1.98,-1.40,-1.56,-1.63,-734.77,682.86,5.7,0.00,0.00,0.00,0.00,0.01,-7.49,-7.49,-0.64,-3.29,-0.32,-1.57,35.07,-0.16,-0.30,6.9,100.0,0,0,100.52,0,0,0.0,0,0,0,0,6738,0,30.00,3,126.2,1,0,0.0,0.0,0.0,0.0,1,0,0.277,0.277,71.123,25.355,1,110.00,435.8,8750,0.0,0.0,110.0,110.0,433.0,0.00,0,0,1,166.7,77.2,77.2,72.8,72.8,34.0,-49.5,-14.02,-63.5,-7.7,2,-265.110,10.9,100.0,18.8,13.1,31.9,30.5,0,1,80.5,0.00,0.00,0.00,0.00,4544,3253,6377,4381,313.5,316.5,338.9,342.7,24.78,21.55,24.08,23.02,325.0,325.0,355.0,355.0,99.97,99.74,99.92,99.85,-0.67,-0.55,-0.64,-0.44,-0.1,-0.1,2.2,2.7,80.9,60.7,70.3,63.6,92.4,66.2,74.9,67.3,87.5,63.3,72.7,64.8,84.7,62.7,72.5,64.4,0.63,-0.63,0.08,0.07,0.00,107.80,107.16,100.52,100.52,194.4,26.0,0.6827884006044626,125.31539539627242,43.93240874706487,18.00508553808342,-10.803050981435831
0.300,10.4,44.054542938846012,-78.681908212923119,186.7,57.7,-2.8,-72.2,3466.7,3467,126.9,0,1,1,0,1,1,0,0,0,100,1,1.186,26.0,0.0,-0.04,71.123,66.0,0.0,26.0,26.0,26.0,26.0,-0.41,0.37,-0.29,384.4,-2.47,-2.43,-1.73,-1.10,-734.15,681.06,5.7,0.00,0.00,0.00,0.00,0.01,-7.49,-7.49,-0.71,1.87,-0.19,8.54,35.26,-0.20,-0.35,8.8,100.0,0,0,102.42,0,0,0.0,0,0,0,0,6866,0,30.00,3,126.9,0,0,0.0,0.0,0.0,0.0,0,0,0.330,0.330,71.123,25.355,0,110.00,435.8,8750,0.0,0.0,110.0,110.0,433.0,0.00,0,0,1,166.7,71.1,71.1,82.9,82.9,34.0,-51.2,-8.90,-35.5,-11.4,2,-265.160,9.7,100.0,28.2,16.0,31.7,26.9,0,1,80.5,0.00,0.00,0.00,0.00,4466,2950,3874,3267,313.2,317.6,345.5,346.4,24.79,21.55,24.09,23.02,325.0,325.0,355.0,355.0,99.97,99.74,99.92,99.85,-0.64,-0.58,-0.81,-0.67,-0.1,-0.1,2.8,3.6,80.9,60.7,70.3,63.6,92.4,66.1,74.9,67.3,87.5,63.3,72.7,64.8,84.7,62.7,72.5,64.4,0.56,-0.57,0.08,0.08,0.00,108.55,107.80,102.42,102.42,194.4,26.0,0.6237788069500277,118.83356457980148,41.05159503821057,-93.62644496874054,-43.21220563281429
0.350,12.2,44.054529449021928,-78.681903536450776,-28.3,113.1,20.3,133.5,3468.5,3468,127.6,0,1,1,0,1,1,0,0,0,100,1,1.186,26.0,0.0,-0.04,71.123,66.0,0.0,26.0,26.0,26.0,26.0,-0.54,0.40,0.31,377.3,-3.01,-2.77,-2.08,-1.89,-733.63,679.56,5.7,0.00,0.00,0.00,0.00,0.01,-7.49,-7.49,-0.52,5.36,-0.00,-0.75,35.45,-0.20,-0.30,7.7,100.0,0,0,101.64,0,0,0.0,0,0,0,0,6814,0,30.00,3,127.6,1,0,0.0,0.0,0.0,0.0,0,0,0.373,0.373,71.123,25.355,1,110.00,435.8,8750,0.0,0.0,110.0,110.0,433.0,0.00,0,0,1,333.3,66.7,66.7,67.7,67.7,34.0,-47.8,-9.69,-88.3,-12.5,2,-265.210,8.2,100.0,26.8,21.7,32.8,33.6,0,1,80.5,0.00,0.00,0.00,0.00,4240,4402,6640,4434,313.5,312.1,338.2,342.2,24.79,21.55,24.09,23.02,325.0,325.0,355.0,355.0,99.97,99.74,99.92,99.85,-0.56,-0.50,-0.78,-0.56,-0.0,-0.1,1.5,2.3,80.9,60.7,70.3,63.6,92.3,66.1,74.9,67.3,87.5,63.3,72.7,64.8,84.6,62.7,72.5,64.4,0.51,-0.51,0.08,0.05,0.00,109.28,108.68,101.64,101.64,194.4,26.0,0.7400675644831356,115.95275089939837,39.61118818378344,54.01525689876195,3.6010169938120384
0.400,14.0,44.054513980690302,-78.681898320385457,-77.3,1.9,210.7,29.6,3470.3,3470,128.3,0,1,1,0,1,1,0,0,0,100,1,1.186,26.0,0.0,-0.05,71.123,66.0,0.0,26.0,26.0,26.0,26.0,-0.42,0.46,0.27,376.1,-1.97,-2.40,-1.67,-1.87,-733.05,677.84,5.7,0.00,0.00,0.00,0.00,0.01,-7.49,-7.49,-0.29,4.07,-0.11,-3.54,35.66,-0.21,-0.23,6.1,100.0,0,0,102.12,0,0,0.0,0,0,0,0,6846,0,30.00,3,128.3,0,0,0.0,0.0,0.0,0.0,0,0,0.427,0.427,71.123,25.355,0,110.00,435.8,8750,0.0,0.0,110.0,110.0,433.0,0.00,0,0,1,333.3,71.0,71.0,56.8,56.8,34.0,-36.2,-7.18,-68.9,-10.4,2,-265.260,7.1,100.0,22.9,21.8,43.3,35.1,0,1,80.5,0.00,0.00,0.00,0.00,3944,3519,6290,5201,314.6,315.2,338.6,340.4,24.79,21.55,24.09,23.02,325.0,325.0,355.0,355.0,99.97,99.74,99.92,99.85,-0.50,-0.45,-0.62,-0.47,-0.1,-0.1,1.6,2.2,80.9,60.7,70.3,63.6,92.3,66.1,74.9,67.3,87.4,63.3,72.7,64.8,84.6,62.7,72.5,64.4,0.42,-0.42,0.06,0.05,0.00,109.85,109.27,102.11,102.12,194.4,26.0,0.6788961628997472,124.23509026967767,41.411696737591775,54.01525661425026,0.0
0.450,15.8,44.054498422426519,-78.681893194252311,-32.9,-114.5,21.4,46.7,3472.1,3472,129.1,0,1,1,0,1,1,0,0,0,100,1,1.186,26.0,0.0,-0.06,71.123,66.0,0.0,26.0,26.0,26.0,26.0,-0.31,0.41,-0.11,380.5,-2.67,-3.05,-1.38,-1.85,-732.48,676.11,5.7,0.00,0.00,0.00,0.00,0.01,-7.49,-7.49,-0.20,-0.63,-0.38,-4.95,35.86,-0.19,-0.23,4.5,100.0,0,0,102.85,0,0,0.0,0,0,0,0,6895,0,30.00,3,129.1,1,0,0.0,0.0,0.0,0.0,0,0,0.477,0.477,71.123,25.355,1,110.00,435.8,8750,0.0,0.0,110.0,110.0,433.0,0.00,0,0,1,333.3,79.4,79.4,63.1,63.1,34.0,-30.2,-1.15,-46.0,-4.0,2,-265.310,6.4,100.0,21.2,16.0,44.4,37.4,0,1,80.9,0.00,0.00,0.00,0.00,3329,713,5453,4710,316.6,322.5,340.6,341.8,24.79,21.55,24.09,23.02,325.0,325.0,355.0,355.0,99.97,99.74,99.92,99.85,-0.47,-0.54,-0.48,-0.36,-0.1,-0.1,1.8,2.2,81.0,60.7,70.3,63.6,92.2,66.1,74.9,67.3,87.4,63.2,72.7,64.9,84.5,62.6,72.5,64.4,0.38,-0.39,0.05,0.04,0.00,110.15,109.64,102.85,102.85,194.4,26.0,0.5256424640380569,121.3542765608234,39.61118818378344,-18.005085822595248,-21.606102531895388
0.500,17.6,44.054483673552184,-78.681888427847795,-45.5,-106.6,-39.2,-12.3,3473.9,3474,129.8,0,1,1,0,1,1,0,0,0,100,1,1.186,26.0,0.0,-0.07,71.123,66.0,0.0,26.0,26.0,26.0,26.0,-0.27,0.37,-0.20,384.5,-1.80,-2.52,-1.74,-2.23,-731.95,674.47,5.7,0.00,0.00,0.00,0.00,0.01,-7.49,-7.49,-0.37,-5.90,-0.36,3.28,36.05,-0.17,-0.29,4.0,100.0,0,0,103.29,0,0,0.0,0,0,0,0,6924,0,30.00,3,129.8,0,0,0.0,0.0,0.0,0.0,0,0,0.527,0.527,71.123,25.355,0,110.00,435.8,8750,0.0,0.0,110.0,110.0,433.0,0.00,0,0,1,333.3,84.9,84.9,68.4,68.4,34.0,-18.8,-0.52,-46.4,-3.1,2,-265.360,6.2,100.0,19.0,10.7,42.4,36.8,0,1,80.9,0.00,0.00,0.00,0.00,2463,282,5018,4547,318.9,323.7,342.1,342.4,24.80,21.55,24.09,23.02,325.0,325.0,355.0,355.0,99.97,99.74,99.92,99.85,-0.49,-0.54,-0.54,-0.41,-0.0,-0.1,1.8,2.2,81.0,60.7,70.3,63.6,92.2,66.0,74.9,67.3,87.3,63.2,72.7,64.9,84.5,62.6,72.5,64.4,0.36,-0.38,0.05,0.06,0.00,110.52,110.15,103.29,103.29,194.4,26.0,0.499799959983992,122.43458168741815,39.25108648440224,57.6162738925737,7.2020345566473765
0.550,19.4,44.054467845491921,-78.681883391646807,-26.8,61.8,-160.3,-214.9,3475.7,3476,130.4,0,1,1,0,1,1,0,0,0,100,1,1.186,26.0,0.0,-0.07,71.123,66.0,0.0,26.0,26.0,26.0,26.0,-0.33,0.41,-0.25,386.5,-1.86,-2.37,-1.51,-0.44,-731.39,672.71,5.7,0.00,0.00,0.00,0.00,0.01,-7.49,-7.49,-0.70,-4.79,-0.19,4.64,36.23,-0.17,-0.37,4.9,100.0,0,0,104.84,0,0,0.0,0,0,0,0,7028,0,30.00,3,130.4,1,0,0.0,0.0,0.0,0.0,0,0,0.577,0.577,71.123,25.355,1,110.00,435.8,8750,0.0,0.0,110.0,110.0,433.0,0.00,0,0,1,333.3,77.3,77.3,73.3,73.3,34.0,-38.7,-7.08,-29.9,-10.6,2,-265.410,6.2,100.0,17.6,13.8,34.4,26.0,0,1,80.9,0.00,0.00,0.00,0.00,4108,3770,4173,3949,314.4,315.1,344.0,345.7,24.80,21.55,24.09,23.02,325.0,325.0,355.0,355.0,99.97,99.74,99.92,99.85,-0.55,-0.44,-0.57,-0.42,-0.1,-0.1,3.0,3.4,81.0,60.7,70.3,63.6,92.1,66.0,74.9,67.3,87.3,63.2,72.7,64.8,84.4,62.6,72.5,64.4,0.37,-0.38,0.07,0.09,0.00,111.22,110.76,104.84,104.84,194.4,26.0,0.5826662852782886,127.11590395008076,40.33139163944818,54.01525661425026,10.803051550459415
0.600,21.2,44.054451927499493,-78.681878355445804,-5.7,8.8,-126.0,-3.4,3477.5,3478,131.1,0,1,1,0,1,1,0,0,0,100,1,1.186,26.0,0.0,-0.08,71.123,66.0,0.0,26.0,26.0,26.0,26.0,-0.27,0.45,-0.26,389.1,-2.12,-1.37,-1.06,-1.50,-730.83,670.94,5.7,0.00,0.00,0.00,0.00,0.01,-7.49,-7.49,-0.86,-2.34,-0.03,0.92,36.43,-0.20,-0.34,4.8,100.0,0,0,105.28,0,0,0.0,0,0,0,0,7057,0,30.00,3,131.1,0,0,0.0,0.0,0.0,0.0,0,0,0.627,0.627,71.123,25.355,0,110.00,435.8,8750,0.0,0.0,110.0,110.0,433.0,0.00,0,0,1,333.3,79.4,79.4,80.7,80.7,34.0,-26.8,-9.39,-21.1,-6.2,2,-265.460,5.5,100.0,17.3,14.2,28.1,25.9,0,1,80.5,0.00,0.00,0.00,0.00,3113,3048,3149,4200,317.2,316.9,346.5,343.6,24.80,21.55,24.09,23.02,325.0,325.0,355.0,355.0,99.97,99.74,99.92,99.85,-0.51,-0.44,-0.60,-0.41,-0.1,-0.1,2.8,3.2,81.0,60.7,70.3,63.6,92.0,66.0,74.9,67.3,87.2,63.1,72.7,64.8,84.4,62.5,72.4,64.4,0.33,-0.33,0.09,0.08,0.00,111.84,111.44,105.28,105.28,194.4,26.0,0.5856620185738529,127.83610734884317,40.33139163944818,14.404068259759981,-3.60101756283548
0.650,23.0,44.054435919574914,-78.681873319244815,135.8,33.4,80.4,70.0,3479.3,3479,131.9,0,1,1,0,1,1,0,0,0,100,1,1.186,26.0,0.0,-0.08,71.123,66.0,0.0,26.0,26.0,26.0,26.0,-0.33,0.34,0.12,382.8,-1.77,-1.96,0.04,-1.46,-730.27,669.16,5.7,0.00,0.00,0.00,0.00,0.01,-7.49,-7.49,-0.95,-0.92,-0.11,0.71,36.64,-0.19,-0.39,4.8,100.0,0,0,105.34,0,0,0.0,0,0,0,0,7061,0,30.00,3,131.9,1,0,0.0,0.0,0.0,0.0,0,0,0.677,0.677,71.123,25.355,1,110.00,435.8,8750,0.0,0.0,110.0,110.0,433.0,0.00,0,0,1,166.7,70.8,70.8,79.4,79.4,34.0,-52.9,-3.18,-26.7,-4.3,2,-265.510,3.7,100.0,24.1,15.9,32.1,29.4,0,1,80.5,0.00,0.00,0.00,0.00,5930,3322,4326,2846,310.0,316.0,343.2,346.6,24.80,21.56,24.09,23.02,325.0,325.0,355.0,355.0,99.97,99.74,99.92,99.85,-0.44,-0.31,-0.56,-0.39,-0.1,-0.0,2.0,2.3,81.0,60.7,70.3,63.6,92.0,66.0,74.9,67.3,87.2,63.1,72.7,64.9,84.3,62.5,72.4,64.4,0.22,-0.24,0.07,0.07,0.00,112.69,112.17,105.34,105.34,194.4,26.0,0.4887739763939975,128.55631077605676,39.97128988316463,-25.207119525707498,-21.606102531895246
0.700,24.9,44.054419821718163,-78.681868372975984,134.9,171.6,-30.3,-19.0,3481.2,3481,132.5,0,1,1,0,1,1,0,0,0,100,1,1.186,26.0,0.0,-0.09,71.123,66.0,0.0,26.0,26.0,26.0,26.0,-0.33,0.45,0.17,376.2,-2.70,-2.73,-0.80,-1.62,-729.72,667.37,5.7,0.00,0.00,0.00,0.00,0.02,-7.49,-7.49,-0.71,9.20,0.06,2.79,36.83,-0.19,-0.31,4.8,100.0,0,0,105.99,0,0,0.0,0,0,0,0,7105,0,30.00,3,132.5,0,0,0.0,0.0,0.0,0.0,0,0,0.730,0.730,71.123,25.355,0,110.00,435.8,8750,0.0,0.0,110.0,110.0,433.0,0.00,0,0,1,166.7,60.2,60.2,71.9,71.9,34.0,-44.8,15.97,-48.0,-9.5,2,-265.560,0.3,100.0,30.9,24.5,30.6,28.4,0,1,80.5,0.00,0.00,0.00,0.00,5488,5782,5723,4547,311.0,309.1,340.5,342.0,24.81,21.56,24.10,23.02,325.0,325.0,355.0,355.0,99.97,99.74,99.92,99.85,-0.28,-0.13,-0.62,-0.46,-0.1,-0.1,2.1,2.5,81.0,60.7,70.3,63.6,92.0,65.9,74.9,67.3,87.1,63.1,72.7,64.9,84.3,62.5,72.4,64.4,0.07,-0.05,0.08,0.06,0.00,113.53,113.11,105.99,105.99,194.4,26.0,0.5833523806414096,125.31539539627242,38.17078138625865,-61.21729088638617,-32.40915351333108
0.750,26.7,44.054404623183025,-78.681863786435784,-157.0,-50.6,316.4,242.6,3483.0,3483,133.3,0,1,1,0,1,1,0,0,0,100,1,1.186,26.0,0.0,-0.11,71.123,66.0,0.0,26.0,26.0,26.0,26.0,-0.20,0.43,0.17,375.2,-2.77,-2.56,-2.21,-1.08,-729.21,665.68,5.7,0.00,0.00,0.00,0.00,0.02,-7.49,-7.49,-0.24,7.12,0.11,0.43,37.03,-0.16,-0.16,1.3,100.0,0,0,105.80,0,0,0.0,0,0,0,0,7093,0,30.00,3,133.3,1,0,0.0,0.0,0.0,0.0,0,0,0.777,0.777,71.123,25.355,1,110.00,435.8,8750,0.0,0.0,110.0,110.0,433.0,0.00,0,0,1,333.3,76.4,76.4,50.6,50.6,34.0,-7.2,2.84,-77.6,-6.4,2,-265.610,-2.6,100.0,23.0,21.9,46.4,40.6,0,1,80.5,0.00,0.00,0.00,0.00,1808,1846,7337,5959,320.1,319.9,336.1,338.5,24.81,21.56,24.10,23.03,325.0,325.0,355.0,355.0,99.97,99.74,99.92,99.85,-0.03,-0.16,-0.43,-0.25,0.0,0.0,1.4,1.6,81.0,60.7,70.4,63.7,91.9,65.9,74.9,67.3,87.1,63.1,72.7,64.9,84.3,62.5,72.4,64.4,-0.12,0.11,0.03,0.04,0.00,113.78,113.59,105.80,105.80,194.4,26.0,0.5037856687123999,122.43458168741815,36.73037453183152,21.60610253189546,-5.690236548616667e-07
0.800,28.6,44.054389244783565,-78.681859199895598,-309.0,-278.1,73.2,165.2,3484.9,3485,134.0,0,1,1,0,1,1,0,0,0,100,1,1.186,26.0,0.0,-0.11,71.123,66.0,0.0,26.0,26.0,26.0,26.0,-0.02,0.38,-0.15,381.8,-1.59,-2.00,-1.07,-1.66,-728.70,663.97,5.7,0.00,0.00,0.00,0.00,0.02,-7.49,-7.49,-0.27,-8.48,0.10,-1.94,37.23,-0.10,-0.15,-1.1,100.0,0,0,106.03,0,0,0.0,0,0,0,0,7108,0,30.00,3,134.0,0,0,0.0,0.0,0.0,0.0,1,0,0.827,0.827,71.123,25.355,0,110.00,435.8,8750,0.0,0.0,110.0,110.0,433.0,0.00,0,0,1,333.3,93.6,93.6,50.5,50.5,34.0,-1.4,3.59,-26.7,13.9,2,-265.650,-3.5,100.0,7.6,8.0,50.1,48.8,0,1,80.5,0.00,0.00,0.00,0.00,1180,1343,5771,5901,322.9,321.3,339.3,338.8,24.81,21.56,24.10,23.03,325.0,325.0,355.0,355.0,99.97,99.74,99.92,99.85,0.04,0.03,-0.18,-0.08,0.1,-0.1,1.5,1.5,81.1,60.7,70.4,63.7,91.8,65.9,74.9,67.3,87.0,63.0,72.7,64.9,84.2,62.4,72.4,64.5,-0.19,0.21,0.04,0.04,0.00,113.80,113.94,106.03,106.03,194.4,26.0,0.4090232267243512,127.47600564946197,38.17078132935629,93.62644496874069,28.80813651951918
0.850,30.5,44.054372787198176,-78.681854253626767,155.2,176.8,-320.9,-349.4,3486.8,3487,134.6,0,1,1,0,1,1,0,0,0,100,1,1.186,26.0,0.0,-0.12,71.123,66.0,0.0,26.0,26.0,26.0,26.0,0.01,0.31,-0.22,387.0,-2.46,-2.65,-1.19,-1.61,-728.15,662.14,5.7,0.00,0.00,0.00,0.00,0.02,-7.49,-7.49,-0.82,-8.35,-0.05,-2.97,37.39,-0.05,-0.40,-1.3,100.0,0,0,108.37,0,0,0.0,0,0,0,0,7265,0,30.00,3,134.6,1,0,0.0,0.0,0.0,0.0,1,0,0.877,0.877,71.123,25.355,1,110.00,435.8,8750,0.0,0.0,110.0,110.0,433.0,0.00,0,0,1,166.7,77.2,77.2,72.5,72.5,34.0,-14.7,19.80,-5.8,2.6,2,-265.710,-3.3,100.0,15.3,16.9,34.0,31.3,0,1,80.5,0.00,0.00,0.00,0.00,3667,3488,3127,1489,315.7,314.8,346.2,350.6,24.81,21.56,24.10,23.03,325.0,325.0,355.0,355.0,99.97,99.74,99.93,99.85,-0.02,0.14,-0.03,-0.00,-0.1,-0.0,3.1,3.0,81.1,60.8,70.4,63.7,91.8,65.8,74.9,67.3,86.9,63.0,72.7,64.9,84.1,62.4,72.4,64.4,-0.19,0.18,0.07,0.07,0.00,114.46,114.47,108.37,108.37,194.4,26.0,0.38026306683663086,131.7972261842922,39.61118818378344,7.202034272135904,0.0
0.900,32.3,44.054356329612787,-78.681849307357936,78.2,11.2,-209.1,-157.0,3488.6,3489,135.3,0,1,1,0,1,1,0,0,0,100,1,1.186,26.0,0.0,-0.13,71.123,66.0,0.0,26.0,26.0,26.0,26.0,0.01,0.60,-0.12,387.1,-2.67,-2.47,-1.41,-1.28,-727.60,660.31,5.7,0.00,0.00,0.00,0.00,0.02,-7.49,-7.49,-0.99,-0.23,-0.04,1.05,37.59,-0.02,-0.36,-1.6,100.0,0,0,108.49,0,0,0.0,0,0,0,0,7273,0,30.00,3,135.3,0,0,0.0,0.0,0.0,0.0,1,0,0.927,0.927,71.123,25.355,0,110.00,435.8,8750,0.0,0.0,110.0,110.0,433.0,0.00,0,0,1,166.7,74.7,74.7,82.7,82.7,34.0,-17.4,16.20,-12.1,15.4,2,-265.760,-3.1,100.0,19.3,17.4,23.6,23.5,0,1,80.5,0.00,0.00,0.00,0.00,4235,3313,4297,5104,314.2,316.1,344.0,341.1,24.81,21.56,24.10,23.03,325.0,325.0,355.0,355.0,99.97,99.74,99.93,99.85,0.01,0.11,-0.10,0.12,-0.1,-0.1,3.3,3.2,81.1,60.8,70.4,63.7,91.7,65.8,74.9,67.3,86.9,63.0,72.6,64.9,84.1,62.4,72.4,64.4,-0.18,0.18,0.08,0.08,0.00,115.24,115.31,108.49,108.49,194.4,26.0,0.6119640512317697,128.19620907667556,38.17078132935629,-28.808136804030937,-10.803050981435831
0.950,34.2,44.054340771349004,-78.681844720817750,28.6,60.4,162.8,158.0,3490.5,3491,135.9,0,1,1,0,1,1,0,0,0,100,1,1.186,26.0,0.0,-0.13,71.123,66.0,0.0,26.0,26.0,26.0,26.0,0.07,0.35,-0.03,383.0,-1.99,-2.73,-1.70,-1.86,-727.09,658.58,5.7,0.00,0.00,0.00,0.00,0.02,-7.49,-7.49,-0.96,1.33,-0.02,1.25,37.77,0.01,-0.38,-1.6,100.0,0,0,108.64,0,0,0.0,0,0,0,0,7283,0,30.00,3,135.9,1,0,0.0,0.0,0.0,0.0,1,0,0.973,0.973,71.123,25.355,1,110.00,435.8,8750,0.0,0.0,110.0,110.0,433.0,0.00,0,0,1,333.3,73.5,73.5,70.6,70.6,34.0,-4.6,23.78,-14.2,17.9,2,-265.810,-3.0,100.0,20.7,20.5,31.7,31.4,0,1,80.5,0.00,0.00,0.00,0.00,2636,3970,4363,3928,317.7,313.8,343.6,344.6,24.81,21.56,24.10,23.03,325.0,325.0,355.0,355.0,99.97,99.74,99.93,99.85,0.10,0.15,-0.04,0.14,-0.0,-0.1,2.2,2.1,81.1,60.8,70.4,63.7,91.6,65.8,74.8,67.3,86.8,63.0,72.6,64.9,84.0,62.4,72.4,64.4,-0.17,0.16,0.07,0.06,0.00,115.84,116.01,108.64,108.64,194.4,26.0,0.35818989377144633,128.91641250388912,38.53088308563986,93.62644468422872,32.40915465137853
1.000,36.1,44.054324133899293,-78.681839684616747,-150.2,-105.0,27.4,49.4,3492.4,3492,136.7,0,1,1,0,1,1,0,0,0,100,1,1.186,26.0,0.0,-0.15,71.123,66.0,0.0,26.0,26.0,26.0,26.0,0.05,0.38,-0.05,384.9,-2.66,-2.84,-2.13,-1.64,-726.53,656.73,5.6,0.00,0.00,0.00,0.00,0.02,-7.49,-7.49,-0.97,-2.15,-0.05,-1.25,37.98,0.03,-0.27,-1.6,100.0,0,0,108.71,0,0,0.0,0,0,0,0,7288,0,30.00,3,136.7,0,0,0.0,0.0,0.0,0.0,1,0,1.027,1.027,71.123,25.355,0,110.00,435.8,8750,0.0,0.0,110.0,110.0,433.0,0.00,0,0,1,333.3,81.8,81.8,69.3,69.3,34.0,-8.4,14.65,-19.1,27.2,2,-265.860,-2.4,100.0,13.2,15.2,33.1,33.9,0,1,80.5,0.00,0.00,0.00,0.00,2983,2641,4850,4991,317.5,317.3,342.6,341.2,24.82,21.56,24.10,23.03,325.0,325.0,355.0,355.0,99.97,99.74,99.93,99.85,0.09,0.14,-0.00,0.20,-0.0,-0.1,1.9,1.9,81.1,60.8,70.4,63.7,91.6,65.8,74.8,67.3,86.7,62.9,72.6,64.9,83.9,62.3,72.4,64.4,-0.14,0.13,0.08,0.06,0.00,116.43,116.49,108.71,108.71,194.4,26.0,0.3865229618017538,137.55885354509843,41.41169679449414,54.01525632973829,21.60610196287152
1.050,38.0,44.054306417263660,-78.681834378619271,122.3,-17.9,-114.4,8.6,3494.3,3494,137.3,0,1,1,0,1,1,0,0,0,100,1,1.186,26.0,0.0,-0.16,71.123,66.0,0.0,26.0,26.0,26.0,26.0,0.07,0.26,-0.32,386.6,-0.84,-2.20,-1.88,-1.03,-725.94,654.76,5.6,0.00,0.00,0.00,0.00,0.02,-7.49,-7.49,-1.14,-2.38,0.06,3.60,38.16,0.04,-0.34,-1.2,100.0,0,0,110.50,0,0,0.0,0,0,0,0,7408,0,30.00,3,137.3,1,0,0.0,0.0,0.0,0.0,1,0,1.080,1.080,71.123,25.355,1,110.00,435.8,8750,0.0,0.0,110.0,110.0,433.0,0.00,0,0,1,166.7,76.2,76.2,85.2,85.2,34.0,-1.7,14.30,-7.0,6.7,2,-265.910,-2.2,100.0,19.3,14.3,27.4,34.3,0,1,80.5,0.00,0.00,0.00,0.00,4562,2974,2887,2885,313.7,316.8,348.0,347.7,24.82,21.56,24.10,23.03,325.0,325.0,355.0,355.0,99.97,99.74,99.93,99.85,0.07,0.15,0.00,0.12,-0.1,-0.1,2.9,2.8,81.1,60.8,70.4,63.7,91.5,65.7,74.8,67.3,86.7,62.9,72.6,64.9,83.9,62.3,72.4,64.4,-0.13,0.12,0.10,0.06,0.00,116.93,116.98,110.50,110.50,194.4,26.0,0.41821047332652966,134.31793813686295,40.69149328192701,-108.03051294398827,-28.80813765756656
1.100,40.0,44.054290589203397,-78.681829522282612,119.3,200.7,40.8,-26.7,3496.2,3496,138.1,0,1,1,0,1,1,0,0,0,100,1,1.186,26.0,0.0,-0.16,71.123,66.0,0.0,26.0,26.0,26.0,26.0,0.01,0.34,0.14,377.7,-3.21,-2.83,-2.34,-1.68,-725.40,653.00,5.6,0.00,0.00,0.00,0.00,0.02,-7.49,-7.49,-1.07,4.09,0.35,5.97,38.36,0.07,-0.34,-1.7,100.0,0,0,110.00,0,0,0.0,0,0,0,0,7374,0,30.00,3,138.1,0,0,0.0,0.0,0.0,0.0,1,0,1.127,1.127,71.123,25.355,0,110.00,435.8,8750,0.0,0.0,110.0,110.0,433.0,0.00,0,0,1,166.7,64.1,64.1,72.0,72.0,34.0,-24.9,36.36,-21.0,21.4,2,-265.960,-1.4,100.0,25.3,24.4,29.4,33.0,0,1,80.5,0.00,0.00,0.00,0.00,4981,5556,4587,4519,312.9,309.3,342.8,342.6,24.82,21.57,24.10,23.03,325.0,325.0,355.0,355.0,99.97,99.74,99.93,99.85,0.01,0.14,-0.03,0.14,-0.1,-0.1,2.0,1.8,81.1,60.8,70.4,63.7,91.4,65.7,74.8,67.3,86.6,62.9,72.6,64.9,83.8,62.3,72.4,64.5,-0.08,0.09,0.09,0.06,0.00,117.75,117.86,110.01,110.00,194.4,26.0,0.3678314831549905,126.7558022506996,38.530883028737485,-28.80813651951911,-7.202033418600209
1.150,41.9,44.054274761143127,-78.681824755878097,-120.5,61.1,169.7,95.4,3498.2,3498,138.7,0,1,1,0,1,1,0,0,0,100,1,1.186,26.0,0.0,-0.17,71.123,66.0,0.0,26.0,26.0,26.0,26.0,0.10,0.44,0.14,376.0,-2.98,-2.87,-2.04,-0.36,-724.87,651.24,5.6,0.00,0.00,0.00,0.00,0.03,-7.49,-7.49,-0.78,5.18,0.49,-1.03,38.55,0.08,-0.24,-1.6,100.0,0,0,109.93,0,0,0.0,0,0,0,0,7370,0,30.00,3,138.7,1,0,0.0,0.0,0.0,0.0,1,0,1.177,1.177,71.123,25.355,1,110.00,435.8,8750,0.0,0.0,110.0,110.0,433.0,0.00,0,0,1,166.7,74.0,74.0,54.0,54.0,34.0,-2.9,16.20,-20.8,32.9,2,-266.000,-0.2,100.0,19.2,27.4,37.9,37.7,0,1,80.1,0.00,0.00,0.00,0.00,1320,3132,6191,7513,321.4,315.6,338.6,334.9,24.82,21.57,24.11,23.03,325.0,325.0,355.0,355.0,99.97,99.74,99.93,99.85,0.14,0.07,0.06,0.25,-0.0,-0.0,1.6,1.4,81.1,60.8,70.4,63.7,91.4,65.7,74.8,67.3,86.6,62.9,72.6,64.9,83.8,62.3,72.3,64.5,-0.03,0.03,0.06,0.06,0.00,118.23,118.44,109.94,109.93,194.4,26.0,0.4724404724407087,131.43712448491104,39.97128994006699,54.01525632973815,18.005086107106933
1.200,43.8,44.054257763964777,-78.681819539812778,-45.2,-149.8,92.7,164.2,3500.1,3500,139.4,0,1,1,0,1,1,0,0,0,100,1,1.186,26.0,0.0,-0.19,71.123,66.0,0.0,26.0,26.0,26.0,26.0,0.10,0.33,0.11,377.3,-3.00,-2.21,-1.73,-2.14,-724.29,649.35,5.6,0.00,0.00,0.00,0.00,0.03,-7.49,-7.49,-0.77,-3.14,0.20,-6.65,38.74,0.05,-0.29,0.0,100.0,0,0,110.56,0,0,0.0,0,0,0,0,7411,0,30.00,3,139.4,0,0,0.0,0.0,0.0,0.0,1,0,1.227,1.227,71.123,25.355,0,110.00,435.8,8750,0.0,0.0,110.0,110.0,433.0,0.00,0,0,1,333.3,78.4,78.4,58.7,58.7,34.0,-8.0,10.78,-10.3,40.9,2,-266.060,1.6,100.0,17.0,19.9,42.5,45.9,0,1,80.1,0.00,0.00,0.00,0.00,2278,2655,4853,5686,319.2,317.3,342.3,339.0,24.82,21.57,24.11,23.03,325.0,325.0,355.0,355.0,99.97,99.74,99.93,99.85,0.05,0.08,0.10,0.21,-0.0,-0.0,1.5,1.5,81.1,60.8,70.4,63.7,91.3,65.7,74.8,67.3,86.5,62.8,72.6,64.9,83.7,62.2,72.3,64.5,0.09,-0.08,0.05,0.04,0.00,118.74,118.71,110.56,110.56,194.4,26.0,0.3619392214170772,132.15732788367342,40.33139163944818,10.803051265947374,3.6010169938118963
1.250,45.8,44.054241756040192,-78.681814683476105,-23.4,-84.2,-153.9,-210.2,3502.1,3502,140.0,0,1,1,0,1,1,0,0,0,100,1,1.186,26.0,0.0,-0.19,71.123,66.0,0.0,26.0,26.0,26.0,26.0,-0.05,0.44,-0.36,385.3,-2.29,-2.87,-1.90,-1.33,-723.75,647.57,5.6,0.00,0.00,0.00,0.00,0.03,-7.49,-7.49,-0.97,-4.51,-0.17,-7.38,38.90,0.02,-0.31,0.9,100.0,0,0,111.81,0,0,0.0,0,0,0,0,7496,0,30.00,3,140.0,1,0,0.0,0.0,0.0,0.0,1,0,1.277,1.277,71.123,25.355,1,110.00,435.8,8750,0.0,0.0,110.0,110.0,433.0,0.00,0,0,1,166.7,82.3,82.3,69.1,69.1,34.0,-9.4,4.03,-19.0,9.9,2,-266.100,2.5,100.0,15.8,15.7,34.8,35.4,0,1,80.1,0.00,0.00,0.00,0.00,2756,1374,5519,3151,318.1,321.2,340.9,346.4,24.82,21.57,24.11,23.04,325.0,325.0,355.0,355.0,99.97,99.74,99.93,99.85,-0.01,-0.04,-0.02,0.12,-0.0,-0.0,2.4,2.4,81.2,60.8,70.4,63.7,91.2,65.6,74.8,67.3,86.4,62.8,72.6,64.9,83.7,62.2,72.3,64.5,0.14,-0.15,0.07,0.06,0.00,119.17,118.99,111.82,111.81,194.4,26.0,0.570701322935211,132.51742961150578,40.33139163944818,54.01525661425012,14.40406797524787
1.300,47.7,44.054224668929677,-78.681809467410787,162.7,-22.1,-25.1,-81.4,3504.0,3504,140.7,0,1,1,0,1,1,0,0,0,100,1,1.186,26.0,0.0,-0.20,71.123,66.0,0.0,26.0,26.0,26.0,26.0,-0.08,0.35,0.01,383.5,-1.87,-2.99,-1.34,-1.17,-723.17,645.67,5.5,0.00,0.00,0.00,0.00,0.03,-7.49,-7.49,-1.20,-3.00,-0.09,7.40,39.09,-0.00,-0.41,2.3,100.0,0,0,112.33,0,0,0.0,0,0,0,0,7530,0,30.00,3,140.7,0,0,0.0,0.0,0.0,0.0,0,0,1.327,1.327,71.123,25.355,0,110.00,435.8,8750,0.0,0.0,110.0,110.0,433.0,0.00,0,0,1,166.7,74.6,74.6,79.9,79.9,34.0,-18.3,8.85,-12.3,5.3,2,-266.150,2.9,100.0,23.9,14.6,33.6,31.4,0,1,80.1,0.00,0.00,0.00,0.00,3539,3048,2928,4436,315.6,316.3,347.2,342.9,24.83,21.57,24.11,23.04,325.0,325.0,355.0,355.0,99.97,99.74,99.93,99.85,-0.18,-0.12,-0.21,-0.07,0.0,-0.1,2.1,2.4,81.2,60.8,70.4,63.7,91.2,65.6,74.8,67.3,86.4,62.8,72.6,64.9,83.6,62.2,72.3,64.5,0.17,-0.18,0.08,0.07,0.00,119.89,119.70,112.33,112.33,194.4,26.0,0.3591656999213594,137.55885354509843,41.771798436972965,14.404068259759697,3.6010164247883125
1.350,49.7,44.054207401954848,-78.681804251345483,39.1,86.2,-77.4,-17.8,3506.0,3506,141.3,0,1,1,0,1,1,0,0,0,100,1,1.186,26.0,0.0,-0.21,71.123,66.0,0.0,26.0,26.0,26.0,26.0,-0.20,0.29,0.19,380.0,-2.38,-2.65,-2.37,-1.48,-722.59,643.75,5.5,0.00,0.00,0.00,0.00,0.03,-7.49,-7.49,-1.23,2.14,0.18,6.08,39.27,-0.02,-0.38,2.6,100.0,0,0,112.74,0,0,0.0,0,0,0,0,7557,0,30.00,3,141.3,1,0,0.0,0.0,0.0,0.0,0,0,1.377,1.377,71.123,25.355,1,110.00,435.8,8750,0.0,0.0,110.0,110.0,433.0,0.00,0,0,1,333.3,66.7,66.7,78.2,78.2,34.0,-42.5,11.95,-41.8,4.3,2,-266.210,2.9,100.0,25.9,18.9,29.7,30.5,0,1,80.1,0.00,0.00,0.00,0.00,5634,4261,5631,3434,309.7,313.0,342.1,345.7,24.83,21.57,24.11,23.04,325.0,325.0,355.0,355.0,99.97,99.74,99.93,99.85,-0.24,-0.10,-0.30,-0.11,-0.1,-0.1,2.1,2.2,81.2,60.8,70.4,63.7,91.1,65.6,74.8,67.3,86.3,62.7,72.5,64.9,83.6,62.2,72.3,64.5,0.19,-0.18,0.07,0.07,0.00,120.91,120.51,112.74,112.74,194.4,26.0,0.40024992192379,133.95783643748175,40.69149328192701,-28.808136804030937,-10.803050981435831
1.400,51.6,44.054191214165940,-78.681799305076652,23.0,125.9,61.4,100.6,3507.9,3508,142.0,0,1,1,0,1,1,0,0,0,100,1,1.186,26.0,0.0,-0.22,71.123,66.0,0.0,26.0,26.0,26.0,26.0,-0.17,0.40,0.17,374.8,-2.73,-2.95,-1.76,-1.38,-722.04,641.95,5.5,0.00,0.00,0.00,0.00,0.03,-7.49,-7.49,-1.01,6.49,0.52,2.51,39.45,-0.03,-0.32,2.2,100.0,0,0,113.15,0,0,0.0,0,0,0,0,7585,0,30.00,3,142.0,0,0,0.0,0.0,0.0,0.0,0,0,1.423,1.423,71.123,25.355,0,110.00,435.8,8750,0.0,0.0,110.0,110.0,433.0,0.00,0,0,1,166.7,62.4,62.4,71.2,71.2,34.0,-42.5,16.21,-28.0,8.8,2,-266.250,2.5,100.0,27.0,25.2,32.8,35.5,0,1,80.1,0.00,0.00,0.00,0.00,5722,4904,4552,5444,310.7,310.9,343.1,340.1,24.83,21.57,24.11,23.04,325.0,325.0,355.0,355.0,99.97,99.74,99.93,99.85,-0.21,-0.11,-0.25,-0.08,-0.1,-0.1,1.8,2.0,81.2,60.8,70.5,63.7,91.1,65.6,74.7,67.3,86.3,62.7,72.5,64.9,83.5,62.1,72.3,64.5,0.15,-0.15,0.07,0.06,0.00,121.26,121.18,113.15,113.15,194.4,26.0,0.46669047558312143,134.67803986469534,40.69149333882938,57.616273892573986,10.803052119483212
1.450,53.6,44.054173767326787,-78.681794089011333,-28.8,30.7,192.7,119.0,3509.9,3510,142.7,0,1,1,0,1,1,0,0,0,100,1,1.186,26.0,0.0,-0.23,71.123,66.0,0.0,26.0,26.0,26.0,26.0,-0.06,0.39,0.24,371.4,-3.12,-2.35,-1.75,-1.70,-721.46,640.01,5.5,0.00,0.00,0.00,0.00,0.03,-7.49,-7.49,-0.61,7.75,0.60,-0.12,39.64,-0.02,-0.23,1.7,100.0,0,0,113.34,0,0,0.0,0,0,0,0,7598,0,30.00,3,142.7,1,0,0.0,0.0,0.0,0.0,0,0,1.477,1.477,71.123,25.355,1,110.00,435.8,8750,0.0,0.0,110.0,110.0,433.0,0.00,0,0,1,166.7,66.5,66.5,54.9,54.9,34.0,-17.8,12.94,-30.6,20.5,2,-266.310,2.0,100.0,25.6,26.7,42.4,41.4,0,1,80.1,0.00,0.00,0.00,0.00,3208,4573,5466,6789,317.0,311.6,340.5,336.6,24.83,21.57,24.11,23.04,325.0,325.0,355.0,355.0,99.97,99.74,99.93,99.85,-0.09,-0.08,-0.15,-0.04,-0.0,-0.1,1.5,1.6,81.2,60.8,70.5,63.8,91.0,65.5,74.7,67.3,86.3,62.7,72.5,64.9,83.5,62.1,72.3,64.5,0.13,-0.13,0.05,0.04,0.00,121.74,121.79,113.34,113.33,194.4,26.0,0.4618441295502196,139.71946382673914,41.77179849387533,14.404068544271524,-3.6010169938120384
1.500,55.6,44.054156320487628,-78.681788872946015,-149.9,-129.3,181.3,92.6,3511.9,3512,143.3,0,1,1,0,1,1,0,0,0,100,1,1.186,26.0,0.0,-0.24,71.123,66.0,0.0,26.0,26.0,26.0,26.0,-0.09,0.37,0.21,373.5,-2.96,-2.81,-2.16,-2.20,-720.88,638.07,5.5,0.00,0.00,0.00,0.00,0.03,-7.49,-7.49,-0.43,-1.18,0.41,-3.12,39.83,-0.03,-0.21,1.4,100.0,0,0,113.50,0,0,0.0,0,0,0,0,7609,0,30.00,3,143.3,0,0,0.0,0.0,0.0,0.0,0,0,1.527,1.527,71.123,25.355,0,110.00,435.8,8750,0.0,0.0,110.0,110.0,433.0,0.00,0,0,1,166.7,78.4,78.4,45.7,45.7,34.0,-15.8,4.12,-49.2,25.3,2,-266.360,1.9,100.0,18.1,20.3,51.5,46.1,0,1,80.1,0.00,0.00,0.00,0.00,3009,1676,7507,5605,317.3,319.9,335.3,339.3,24.84,21.57,24.12,23.04,325.0,325.0,355.0,355.0,99.97,99.74,99.93,99.85,-0.08,-0.11,-0.12,-0.01,-0.1,-0.0,1.4,1.4,81.2,60.8,70.5,63.8,91.0,65.5,74.7,67.3,86.2,62.7,72.5,64.9,83.4,62.1,72.3,64.5,0.12,-0.12,0.03,0.04,0.00,122.22,121.99,113.50,113.50,194.4,26.0,0.434856298103178,136.1184467191225,40.33139163944818,-28.80813708854305,-14.404069113295108
1.550,57.6,44.054139772970082,-78.681784016609342,-25.5,-48.6,-179.9,-89.1,3513.9,3514,143.9,0,1,1,0,1,1,0,0,0,100,1,1.186,26.0,0.0,-0.26,71.123,66.0,0.0,26.0,26.0,26.0,26.0,-0.06,0.32,-0.07,379.3,-2.56,-2.35,-1.83,-0.15,-720.34,636.23,5.5,0.00,0.00,0.00,0.00,0.04,-7.49,-7.49,-0.66,-5.00,0.26,-4.85,39.99,-0.04,-0.33,1.3,100.0,0,0,114.67,0,0,0.0,0,0,0,0,7687,0,30.00,3,143.9,1,0,0.0,0.0,0.0,0.0,0,0,1.577,1.577,71.123,25.355,1,110.00,435.8,8750,0.0,0.0,110.0,110.0,433.0,0.00,0,0,1,333.3,75.1,75.1,63.4,63.4,34.0,-25.7,12.25,-15.4,-0.6,2,-266.410,2.0,100.0,16.8,17.9,42.5,41.6,0,1,80.1,0.00,0.00,0.00,0.00,4451,4076,3546,4279,314.9,313.4,345.8,343.7,24.84,21.58,24.12,23.04,325.0,325.0,355.0,355.0,99.97,99.74,99.93,99.85,-0.15,-0.05,-0.12,-0.04,-0.0,-0.1,2.0,2.1,81.2,60.8,70.5,63.8,90.9,65.5,74.7,67.3,86.1,62.7,72.5,64.9,83.4,62.1,72.3,64.5,0.13,-0.12,0.06,0.04,0.00,122.50,122.50,114.67,114.67,194.4,26.0,0.3330165161069343,136.83865011788484,40.33139158254582,54.015256614249836,14.40406797524787
1.600,59.6,44.054122146266607,-78.681778800544038,257.8,183.0,-127.3,-252.9,3515.9,3516,144.5,0,1,1,0,1,1,0,0,0,100,1,1.186,26.0,0.0,-0.27,71.123,66.0,0.0,26.0,26.0,26.0,26.0,-0.13,0.43,0.17,375.0,-2.68,-3.16,-1.26,-1.75,-719.76,634.27,5.5,0.00,0.00,0.00,0.00,0.04,-7.49,-7.49,-0.67,5.17,0.11,0.33,40.15,-0.05,-0.39,2.3,100.0,0,0,115.38,0,0,0.0,0,0,0,0,7734,0,30.00,3,144.5,0,0,0.0,0.0,0.0,0.0,0,0,1.627,1.627,71.123,25.355,0,110.00,435.8,8750,0.0,0.0,110.0,110.0,433.0,0.00,0,0,1,333.3,59.2,59.2,69.0,69.0,34.0,-49.6,20.02,-21.5,11.4,2,-266.460,2.5,100.0,29.7,27.0,36.1,29.0,0,1,80.1,0.00,0.00,0.00,0.00,6478,4839,4808,4828,308.6,311.2,342.4,342.0,24.84,21.58,24.12,23.04,325.0,325.0,355.0,355.0,99.97,99.74,99.93,99.85,-0.22,-0.07,-0.21,-0.05,-0.1,-0.1,2.2,2.4,81.2,60.9,70.5,63.8,90.8,65.5,74.7,67.3,86.1,62.6,72.5,64.9,83.3,62.0,72.3,64.5,0.16,-0.13,0.07,0.08,0.00,123.53,123.20,115.38,115.37,194.4,26.0,0.4803123983409131,141.51997238054747,41.771798436972965,10.803051550460054,3.6010175628356222
1.650,61.6,44.054104429630968,-78.681773584478719,-0.3,64.2,122.0,223.2,3517.9,3518,145.2,0,1,1,0,1,1,0,0,0,100,1,1.186,26.0,0.0,-0.28,71.123,66.0,0.0,26.0,26.0,26.0,26.0,-0.15,0.42,0.38,368.8,-3.81,-3.70,-1.63,-1.26,-719.18,632.30,5.5,0.00,0.00,0.00,0.00,0.04,-7.49,-7.49,-0.22,9.59,0.13,-1.93,40.34,-0.07,-0.28,2.3,100.0,0,0,115.02,0,0,0.0,0,0,0,0,7710,0,30.00,3,145.2,1,0,0.0,0.0,0.0,0.0,0,0,1.677,1.677,71.123,25.355,1,110.00,435.8,8750,0.0,0.0,110.0,110.0,433.0,0.00,0,0,1,333.3,62.2,62.2,53.0,53.0,34.0,-34.1,17.89,-51.5,14.3,2,-266.510,2.5,100.0,29.7,30.2,42.2,40.1,0,1,80.1,0.00,0.00,0.00,0.00,4324,4257,6817,7595,315.1,312.3,336.8,334.5,24.84,21.58,24.12,23.05,325.0,325.0,355.0,355.0,99.97,99.74,99.93,99.85,-0.20,-0.13,-0.28,-0.06,-0.0,-0.1,1.3,1.5,81.3,60.9,70.5,63.8,90.8,65.5,74.7,67.3,86.0,62.6,72.5,64.9,83.3,62.0,72.2,64.5,0.15,-0.13,0.05,0.05,0.00,124.05,123.96,115.02,115.01,194.4,26.0,0.5859180830116101,137.91895527293084,40.69149333882938,-28.80813708854248,-14.40406797524787
1.700,63.7,44.054087702249099,-78.681768638209888,-229.1,-215.9,195.0,129.6,3520.0,3520,145.8,0,1,1,0,1,1,0,0,0,100,1,1.186,26.0,0.0,-0.28,71.123,66.0,0.0,26.0,26.0,26.0,26.0,-0.11,0.40,0.10,373.2,-1.93,-3.14,-2.05,-2.13,-718.63,630.44,5.5,0.00,0.00,0.00,0.00,0.04,-7.49,-7.49,0.04,0.72,0.06,-0.73,40.51,-0.08,-0.20,1.6,100.0,0,0,115.38,0,0,0.0,0,0,0,0,7735,0,30.00,3,145.8,0,0,0.0,0.0,0.0,0.0,0,0,1.723,1.723,71.123,25.355,0,110.00,435.8,8750,0.0,0.0,110.0,110.0,433.0,0.00,0,0,1,166.7,78.4,78.4,45.3,45.3,34.0,-9.3,6.06,-47.5,24.5,2,-266.550,2.4,100.0,18.3,19.4,52.0,46.6,0,1,80.1,0.00,0.00,0.00,0.00,2153,2883,6539,7267,319.1,317.0,337.5,334.6,24.84,21.58,24.12,23.05,325.0,325.0,355.0,355.0,99.97,99.74,99.93,99.85,-0.14,-0.20,-0.19,-0.10,-0.1,-0.1,1.3,1.4,81.3,60.9,70.5,63.8,90.7,65.4,74.7,67.3,86.0,62.6,72.5,64.9,83.2,62.0,72.3,64.5,0.15,-0.15,0.04,0.04,0.00,124.27,124.19,115.39,115.38,194.4,26.0,0.4267317658670374,138.63915867169322,40.33139163944818,54.01525661424955,7.202033987623935
1.750,65.7,44.054069805749144,-78.681763512076728,36.6,-74.2,-131.4,-75.8,3522.0,3522,146.4,0,1,1,0,1,1,0,0,0,100,1,1.186,26.0,0.0,-0.29,71.123,66.0,0.0,26.0,26.0,26.0,26.0,-0.15,0.23,-0.03,379.0,-2.50,-2.77,-1.45,-1.79,-718.06,628.45,5.5,0.00,0.00,0.00,0.00,0.04,-7.49,-7.49,-0.14,-4.69,-0.04,0.54,40.67,-0.07,-0.33,1.9,100.0,0,0,116.74,0,0,0.0,0,0,0,0,7826,0,30.00,3,146.4,1,0,0.0,0.0,0.0,0.0,0,0,1.777,1.777,71.123,25.355,1,110.00,435.8,8750,0.0,0.0,110.0,110.0,433.0,0.00,0,0,1,333.3,73.2,73.2,66.4,66.4,34.0,-44.7,8.18,-14.3,5.4,2,-266.610,2.5,100.0,20.1,15.7,45.4,42.8,0,1,79.7,0.00,0.00,0.00,0.00,5820,3456,3313,3206,310.7,315.4,345.9,346.5,24.85,21.58,24.12,23.05,325.0,325.0,355.0,355.0,99.97,99.74,99.93,99.85,-0.26,-0.14,-0.17,-0.11,-0.1,-0.1,1.9,2.0,81.3,60.9,70.5,63.8,90.7,65.4,74.7,67.3,85.9,62.6,72.5,64.9,83.2,62.0,72.2,64.5,0.16,-0.16,0.05,0.04,0.00,124.77,124.51,116.74,116.74,194.4,26.0,0.27622454633866267,143.3204809343558,41.411696737591775,10.803051550459202,-5.690235838073932e-07
1.800,67.7,44.054051909249182,-78.681758296011424,246.5,269.5,-218.9,-178.2,3524.0,3524,146.9,0,1,1,0,1,1,0,0,0,100,1,1.186,26.0,0.0,-0.30,71.123,66.0,0.0,26.0,26.0,26.0,26.0,-0.22,0.28,0.35,373.6,-2.42,-2.91,-1.13,-1.73,-717.48,626.46,5.5,0.00,0.00,0.00,0.00,0.04,-7.49,-7.49,-0.10,6.30,0.07,2.78,40.82,-0.08,-0.37,2.9,100.0,0,0,117.34,0,0,0.0,0,0,0,0,7866,0,30.00,3,146.9,0,0,0.0,0.0,0.0,0.0,1,0,1.827,1.827,71.123,25.355,0,110.00,435.8,8750,0.0,0.0,110.0,110.0,433.0,0.00,0,0,1,333.3,54.5,54.5,69.7,69.7,34.0,-55.3,20.74,-26.6,3.3,2,-266.660,2.6,100.0,32.4,29.2,34.4,33.9,0,1,76.6,0.00,0.00,0.00,0.00,6638,5774,4778,3801,307.7,308.2,342.5,345.1,24.85,21.58,24.12,23.05,325.0,325.0,355.0,355.0,99.97,99.74,99.93,99.85,-0.29,-0.10,-0.31,-0.18,-0.1,-0.0,2.0,2.1,81.3,60.9,70.5,63.8,90.6,65.4,74.7,67.3,85.9,62.6,72.5,64.9,83.1,62.0,72.2,64.5,0.18,-0.15,0.07,0.06,0.00,125.67,125.51,117.34,117.33,194.4,26.0,0.49929950931279715,139.71946382673914,40.33139158254582,-28.808137088542765,-14.40406797524787
1.850,69.8,44.054034912070833,-78.681753439674750,43.4,99.9,208.4,147.3,3526.1,3526,147.5,0,1,1,0,1,1,0,0,0,100,1,1.186,26.0,0.0,-0.32,71.123,66.0,0.0,26.0,26.0,26.0,26.0,-0.18,0.29,0.48,366.5,-3.36,-2.62,-1.48,-2.30,-716.94,624.57,5.5,0.00,0.00,0.00,0.00,0.04,-7.49,-7.49,0.42,12.17,0.17,0.75,40.98,-0.07,-0.27,2.7,100.0,0,0,116.96,0,0,0.0,0,0,0,0,7841,0,30.00,3,147.5,1,0,0.0,0.0,0.0,0.0,1,0,1.873,1.873,71.123,25.355,1,110.00,435.8,8750,0.0,0.0,110.0,110.0,433.0,0.00,0,0,1,333.3,55.5,55.5,52.5,52.5,34.0,-41.2,10.90,-50.2,21.8,2,-266.700,2.3,100.0,34.6,34.2,44.9,41.3,0,1,66.4,0.00,0.00,0.00,0.00,5044,4475,6825,6552,312.2,311.5,337.8,337.1,24.85,21.59,24.13,23.05,325.0,325.0,355.0,355.0,99.97,99.74,99.93,99.85,-0.21,-0.14,-0.29,-0.12,-0.0,-0.0,1.1,1.4,81.3,60.9,70.5,63.8,90.6,65.4,74.7,67.4,85.9,62.6,72.5,64.9,83.1,62.0,72.2,64.5,0.17,-0.12,0.05,0.04,0.00,126.24,126.00,116.96,116.96,194.4,26.0,0.5889821729050888,140.43966722550152,39.97128994006699,54.01525661425012,7.202034556647519
1.900,71.8,44.054016835706555,-78.681748313541590,-210.9,-285.1,184.1,264.2,3528.1,3528,148.0,0,1,1,0,1,1,0,0,0,100,1,1.186,26.0,0.0,-0.33,71.123,66.0,0.0,26.0,26.0,26.0,26.0,-0.13,0.19,0.23,370.7,-2.37,-2.95,-1.82,-1.62,-716.37,622.56,5.6,0.00,0.00,0.00,0.00,0.04,-7.49,-7.49,0.81,1.39,0.12,-1.61,41.12,-0.06,-0.21,1.5,100.0,0,0,116.31,0,0,0.0,0,0,0,0,7797,0,30.00,3,148.0,0,0,0.0,0.0,0.0,0.0,1,0,1.927,1.927,71.123,25.355,0,110.00,435.8,8750,0.0,0.0,110.0,110.0,433.0,0.00,0,0,1,166.7,76.7,76.7,47.2,47.2,34.0,-13.2,1.82,-51.9,17.0,2,-266.750,2.1,100.0,24.0,19.9,54.1,54.5,0,1,31.7,0.00,0.00,0.00,0.00,2714,1156,7358,7533,318.1,321.5,335.9,334.0,24.85,21.59,24.13,23.05,325.0,325.0,355.0,355.0,99.97,99.74,99.93,99.86,-0.13,-0.19,-0.17,-0.11,0.0,-0.0,0.7,0.8,81.3,60.9,70.6,63.8,90.5,65.3,74.7,67.4,85.8,62.5,72.5,64.9,83.0,61.9,72.2,64.5,0.14,-0.13,0.03,0.01,0.00,126.16,126.03,116.32,116.31,194.4,26.0,0.32542280190545964,145.12098948816416,41.05159503821057,7.202034556647732,-3.60101756283548
1.950,73.9,44.053998669410113,-78.681743187408443,-158.5,-101.4,-139.1,-214.2,3530.2,3530,148.0,0,1,1,0,1,1,0,0,0,100,1,1.186,26.0,0.0,-0.34,71.123,66.0,0.0,26.0,26.0,26.0,26.0,-0.08,-0.21,-0.35,382.4,-0.87,-2.04,-1.29,-1.47,-715.80,620.54,5.6,0.00,0.00,0.00,0.00,0.04,-7.49,-7.49,0.50,-9.60,0.08,0.20,41.10,-0.04,-0.37,0.8,100.0,0,0,114.80,0,0,0.0,0,0,0,0,7696,0,30.00,3,148.0,1,0,0.0,0.0,0.0,0.0,1,0,1.977,1.977,71.123,25.355,1,110.00,435.8,8750,0.0,0.0,110.0,110.0,433.0,0.00,0,0,1,333.3,80.7,80.7,60.0,60.0,34.0,-14.4,1.98,-21.3,5.0,2,-266.810,2.3,100.0,16.1,14.9,47.1,43.8,0,1,0.0,0.00,0.00,0.00,0.00,3847,2178,4463,2892,315.9,319.0,342.7,347.6,24.85,21.59,24.13,23.05,325.0,325.0,355.0,355.0,99.97,99.74,99.93,99.86,-0.19,-0.16,-0.13,-0.08,0.0,0.0,-0.4,-0.5,81.3,60.9,70.6,63.8,90.4,65.3,74.7,67.3,85.7,62.5,72.5,64.9,83.0,61.9,72.2,64.5,0.15,-0.13,0.04,0.03,0.00,125.81,125.77,114.80,114.80,194.4,26.0,0.4159326868617084,141.1598706811663,39.61118818378344,-43.21220534830246,-14.404067975247656
2.000,76.0,44.053981582299599,-78.681738421003928,49.3,32.1,-357.5,-267.5,3532.2,3532,147.6,0,1,1,0,1,1,0,0,0,100,1,1.186,26.0,0.0,-0.35,71.123,66.0,0.0,26.0,26.0,26.0,26.0,-0.08,-0.22,-0.46,389.9,-2.81,-2.50,-1.66,-1.38,-715.27,618.64,5.6,0.00,0.00,0.00,0.00,0.05,-7.49,-7.49,0.08,-7.90,0.32,4.44,41.00,-0.03,-0.52,1.6,100.0,0,0,114.31,0,0,0.0,0,0,0,0,7663,0,30.00,3,147.6,0,0,0.0,0.0,0.0,0.0,1,0,2.027,2.027,71.123,25.355,0,110.00,435.8,8750,0.0,0.0,110.0,110.0,433.0,0.00,0,0,1,333.3,76.6,76.6,82.0,82.0,34.0,-18.8,7.54,-9.8,4.8,2,-266.860,2.6,100.0,18.6,16.5,29.2,30.4,0,1,0.0,0.00,0.00,0.00,0.00,2889,3640,2037,2955,317.6,314.8,350.0,346.8,24.86,21.59,24.13,23.05,325.0,325.0,355.0,355.0,99.97,99.74,99.93,99.86,-0.22,-0.13,-0.20,-0.08,-0.0,-0.0,-0.8,-0.5,81.3,60.9,70.6,63.8,90.4,65.3,74.6,67.3,85.7,62.5,72.4,64.9,82.9,61.9,72.2,64.5,0.14,-0.16,0.07,0.07,0.00,125.55,125.51,114.31,114.31,194.4,26.0,0.5161395160225576,140.7997689533339,39.611188240685806,36.01017079165473,7.2020345566473765
2.050,78.0,44.053963505935322,-78.681733294870767,69.5,223.0,-56.0,-161.0,3534.3,3534,147.2,0,1,1,0,1,1,0,0,0,100,1,1.186,26.0,0.0,-0.36,71.123,66.0,0.0,26.0,26.0,26.0,26.0,-0.10,-0.27,-0.03,384.8,-3.32,-3.07,-1.52,-1.58,-714.70,616.63,5.7,0.00,0.00,0.00,0.00,0.05,-7.49,-7.49,-0.15,-0.63,0.26,-2.94,40.88,-0.04,-0.59,1.5,100.0,0,0,114.25,0,0,0.0,0,0,0,0,7659,0,30.00,3,147.2,1,0,0.0,0.0,0.0,0.0,1,0,2.077,2.077,71.123,25.355,1,110.00,435.8,8750,0.0,0.0,110.0,110.0,433.0,0.00,0,0,1,333.3,63.9,63.9,75.4,75.4,34.0,-36.3,26.08,-16.4,11.8,2,-266.910,2.9,100.0,22.0,27.6,26.4,22.3,0,1,0.0,0.00,0.00,0.00,0.00,4631,5890,3062,3362,313.2,308.2,346.5,346.2,24.86,21.59,24.13,23.05,325.0,325.0,355.0,355.0,99.97,99.74,99.93,99.86,-0.20,-0.06,-0.18,0.03,-0.0,0.0,-0.6,-0.6,81.4,60.9,70.6,63.8,90.3,65.3,74.6,67.3,85.6,62.5,72.4,64.8,82.9,61.9,72.1,64.4,0.18,-0.15,0.10,0.10,0.00,125.55,125.46,114.25,114.25,194.4,26.0,0.28948229652260254,144.76088776033177,40.33139163944818,-7.20203427213562,-10.803052119483212
2.100,80.0,44.053945429571044,-78.681728348601936,154.2,46.3,29.9,107.8,3536.3,3536,146.8,0,1,1,0,1,1,0,0,0,100,1,1.186,26.0,0.0,-0.38,71.123,66.0,0.0,26.0,26.0,26.0,26.0,-0.13,-0.25,0.12,378.9,-3.12,-2.56,-1.86,-2.14,-714.15,614.62,5.7,0.00,0.00,0.00,0.00,0.05,-7.49,-7.49,0.04,6.62,-0.07,-7.46,40.76,-0.06,-0.51,2.4,100.0,0,0,114.30,0,0,0.0,0,0,0,0,7662,0,30.00,3,146.8,0,0,0.0,0.0,0.0,0.0,1,0,2.127,2.127,71.123,25.355,0,110.00,435.8,8750,0.0,0.0,110.0,110.0,433.0,0.00,0,0,1,333.3,60.1,60.1,72.9,72.9,34.0,-32.3,17.74,-35.7,25.8,2,-266.960,3.1,100.0,29.8,29.9,27.9,27.7,0,1,0.0,0.00,0.00,0.00,0.00,4613,5045,5122,4740,312.9,311.1,341.7,342.0,24.86,21.59,24.13,23.06,325.0,325.0,355.0,355.0,99.97,99.74,99.93,99.86,-0.15,-0.04,-0.20,0.04,-0.0,-0.0,-0.5,-0.3,81.4,60.9,70.6,63.8,90.3,65.3,74.5,67.3,85.6,62.4,72.3,64.8,82.8,61.8,72.1,64.4,0.20,-0.17,0.08,0.09,0.00,125.43,125.16,114.30,114.30,194.4,26.0,0.3062678566222711,140.07956552612035,38.530883028737485,-50.414239335926254,-18.005086107106933
2.150,82.1,44.053928522324853,-78.681723672129593,37.1,-87.8,273.2,176.2,3538.4,3538,146.4,0,1,1,0,1,1,0,0,0,100,1,1.186,26.0,0.0,-0.39,71.123,66.0,0.0,26.0,26.0,26.0,26.0,-0.24,-0.21,0.40,373.9,-2.98,-3.19,-0.78,-1.67,-713.63,612.74,5.7,0.00,0.00,0.00,0.00,0.05,-7.49,-7.49,0.37,6.02,-0.39,-2.02,40.65,-0.08,-0.41,2.7,100.0,0,0,114.04,0,0,0.0,0,0,0,0,7645,0,30.00,3,146.4,1,0,0.0,0.0,0.0,0.0,1,0,2.173,2.173,71.123,25.355,1,110.00,435.8,8750,0.0,0.0,110.0,110.0,433.0,0.00,0,0,1,333.3,63.5,63.5,61.2,61.2,34.0,-35.6,7.64,-39.2,12.3,2,-267.000,3.1,100.0,31.6,25.5,41.6,36.5,0,1,0.0,0.00,0.00,0.00,0.00,4728,2850,6339,4634,311.9,315.7,337.2,341.7,24.86,21.59,24.13,23.06,325.0,325.0,355.0,355.0,99.97,99.74,99.93,99.86,-0.19,-0.17,-0.27,-0.08,0.0,-0.1,-0.3,-0.2,81.4,61.0,70.6,63.9,90.2,65.2,74.5,67.2,85.5,62.4,72.3,64.8,82.8,61.8,72.1,64.4,0.19,-0.18,0.06,0.05,0.00,125.10,124.80,114.04,114.04,194.4,26.0,0.5115662224971466,139.71946382673914,38.530883028737485,36.01017107616627,10.803051550459557
2.200,84.1,44.053910535892733,-78.681718725860762,-397.7,-317.2,53.5,77.8,3540.4,3540,146.0,0,1,1,0,1,1,0,0,0,100,1,1.186,26.0,0.0,-0.40,71.123,66.0,0.0,26.0,26.0,26.0,26.0,-0.15,-0.18,-0.40,387.4,-2.23,-3.07,-1.41,-2.33,-713.08,610.74,5.8,0.00,0.00,0.00,0.00,0.05,-7.49,-7.49,0.38,-6.81,-0.34,0.89,40.55,-0.08,-0.30,1.3,100.0,0,0,113.37,0,0,0.0,0,0,0,0,7600,0,30.00,3,146.0,0,0,0.0,0.0,0.0,0.0,1,0,2.227,2.227,71.123,25.355,0,110.00,435.8,8750,0.0,0.0,110.0,110.0,433.0,0.00,0,0,1,333.3,91.5,91.5,61.3,61.3,34.0,-6.6,0.04,-35.9,11.9,2,-267.060,3.2,100.0,11.7,9.7,44.3,40.4,0,1,0.0,0.00,0.00,0.00,0.00,1273,250,5365,3629,321.6,324.2,340.9,343.8,24.86,21.59,24.14,23.06,325.0,325.0,355.0,355.0,99.97,99.74,99.93,99.86,-0.27,-0.33,-0.23,-0.13,0.0,0.2,-0.3,-0.2,81.4,61.0,70.6,63.9,90.2,65.2,74.5,67.2,85.5,62.4,72.3,64.8,82.7,61.8,72.0,64.4,0.20,-0.18,0.05,0.04,0.00,124.27,124.22,113.37,113.37,194.4,26.0,0.4635730794599704,143.68058263373698,39.61118818378344,-7.202034272135904,-7.202033418600209
2.250,86.1,44.053892639392778,-78.681713779591931,34.4,32.9,-326.3,-211.0,3542.4,3542,145.7,0,1,1,0,1,1,0,0,0,100,1,1.186,26.0,0.0,-0.40,71.123,66.0,0.0,26.0,26.0,26.0,26.0,-0.09,-0.17,-0.55,393.9,-2.62,-2.55,-2.17,-1.95,-712.53,608.75,5.8,0.00,0.00,0.00,0.00,0.05,-7.49,-7.49,-0.22,-11.59,-0.11,4.19,40.46,-0.06,-0.51,1.7,100.0,0,0,112.40,0,0,0.0,0,0,0,0,7535,0,30.00,3,145.7,1,0,0.0,0.0,0.0,0.0,1,0,2.277,2.277,71.123,25.355,1,110.00,435.8,8750,0.0,0.0,110.0,110.0,433.0,0.00,0,0,1,333.3,81.1,81.1,87.4,87.4,34.0,-24.7,5.72,-2.3,2.8,2,-267.110,3.3,100.0,13.4,11.3,27.9,29.9,0,1,0.0,0.00,0.00,0.00,0.00,3228,3638,629,1726,316.5,314.6,353.5,350.1,24.86,21.59,24.14,23.06,325.0,325.0,355.0,355.0,99.97,99.74,99.93,99.86,-0.32,-0.18,-0.18,-0.15,-0.1,-0.1,-1.1,-0.8,81.4,61.0,70.6,63.9,90.1,65.2,74.5,67.2,85.4,62.4,72.3,64.7,82.7,61.7,72.0,64.3,0.19,-0.20,0.09,0.06,0.00,123.85,123.77,112.40,112.40,194.4,26.0,0.5826662852782887,138.99926039952555,37.810679686877464,-50.41423933592597,-21.60610196287159
2.300,88.1,44.053875822078744,-78.681709282983888,122.7,220.8,-184.7,-243.8,3544.4,3544,145.3,0,1,1,0,1,1,0,0,0,100,1,1.186,26.0,0.0,-0.41,71.123,66.0,0.0,26.0,26.0,26.0,26.0,-0.18,-0.27,-0.15,389.2,-2.62,-2.05,-0.97,-1.79,-712.03,606.88,5.8,0.00,0.00,0.00,0.00,0.05,-7.49,-7.49,-0.56,-2.86,-0.16,-3.53,40.35,-0.07,-0.53,2.7,100.0,0,0,112.50,0,0,0.0,0,0,0,0,7542,0,30.00,3,145.3,0,0,0.0,0.0,0.0,0.0,0,0,2.327,2.327,71.123,25.355,0,110.00,435.8,8750,0.0,0.0,110.0,110.0,433.0,0.00,0,0,1,166.7,65.8,65.8,85.4,85.4,34.0,-49.7,9.63,-16.7,5.6,2,-267.150,4.2,100.0,19.6,22.4,18.7,17.7,0,1,0.0,0.00,0.00,0.00,0.00,5625,5753,3154,2178,311.0,307.4,346.9,349.2,24.86,21.59,24.14,23.06,325.0,325.0,355.0,355.0,99.97,99.74,99.93,99.86,-0.35,-0.13,-0.29,-0.05,-0.1,-0.1,-0.8,-0.7,81.4,61.0,70.6,63.9,90.0,65.1,74.4,67.1,85.4,62.3,72.2,64.7,82.6,61.7,71.9,64.3,0.25,-0.25,0.11,0.10,0.00,124.04,123.77,112.51,112.50,194.4,26.0,0.3574912586343895,138.63915870014438,37.45057798749628,79.22237642446959,18.005084969059766
2.350,90.2,44.053858015510947,-78.681704426647215,132.1,29.7,103.9,149.8,3546.4,3546,144.9,0,1,1,0,1,1,0,0,0,100,1,1.186,26.0,0.0,-0.43,71.123,66.0,0.0,26.0,26.0,26.0,26.0,-0.15,-0.22,-0.27,386.5,-2.61,-2.36,-2.13,-1.54,-711.49,604.90,5.8,0.00,0.00,0.00,0.00,0.05,-7.49,-7.49,-0.50,2.38,-0.30,-4.21,40.23,-0.10,-0.47,3.6,100.0,0,0,112.59,0,0,0.0,0,0,0,0,7548,0,30.00,3,144.9,1,0,0.0,0.0,0.0,0.0,0,0,2.377,2.377,71.123,25.355,1,110.00,435.8,8750,0.0,0.0,110.0,110.0,433.0,0.00,0,0,1,166.7,69.7,69.7,84.9,84.9,34.0,-28.6,0.20,-30.8,6.1,2,-267.200,4.9,100.0,26.2,23.8,23.9,25.2,0,1,0.0,0.00,0.00,0.00,0.00,3919,2109,3757,3459,315.5,318.6,345.7,345.3,24.87,21.60,24.14,23.06,325.0,325.0,355.0,355.0,99.97,99.74,99.93,99.86,-0.28,-0.26,-0.34,-0.11,0.0,0.0,-0.7,-0.4,81.4,61.0,70.6,63.9,90.0,65.1,74.4,67.1,85.3,62.3,72.2,64.7,82.6,61.7,71.9,64.3,0.28,-0.28,0.09,0.08,0.00,123.61,123.36,112.59,112.59,194.4,26.0,0.3792097045171708,146.9214980419725,39.61118818378344,0.0,-10.803052119483212
2.400,92.2,44.053839129757222,-78.681699390446227,51.7,-75.6,313.0,173.9,3548.5,3548,144.5,0,1,1,0,1,1,0,0,0,100,1,1.186,26.0,0.0,-0.44,71.123,66.0,0.0,26.0,26.0,26.0,26.0,-0.30,-0.20,0.11,378.6,-1.99,-1.99,-1.19,-1.15,-710.93,602.80,5.8,0.00,0.00,0.00,0.00,0.06,-7.49,-7.49,-0.46,-0.19,-0.26,6.53,40.12,-0.09,-0.49,3.8,100.0,0,0,112.27,0,0,0.0,0,0,0,0,7526,0,30.00,3,144.5,0,0,0.0,0.0,0.0,0.0,0,0,2.430,2.430,71.123,25.355,0,110.00,435.8,8750,0.0,0.0,110.0,110.0,433.0,0.00,0,0,1,166.7,67.0,67.0,72.2,72.2,34.0,-39.0,-4.45,-24.7,-3.0,2,-267.260,5.5,100.0,28.8,20.1,39.6,33.9,0,1,0.0,0.00,0.00,0.00,0.00,4566,3862,3462,3879,312.6,314.2,345.4,344.2,24.87,21.60,24.14,23.06,325.0,325.0,355.0,355.0,99.97,99.74,99.93,99.86,-0.40,-0.32,-0.37,-0.23,-0.0,0.0,-0.6,-0.3,81.4,61.0,70.6,63.9,89.9,65.1,74.4,67.1,85.3,62.3,72.2,64.7,82.5,61.7,71.9,64.2,0.34,-0.33,0.06,0.07,0.00,123.24,122.96,112.27,112.26,194.4,26.0,0.3769615364994153,138.63915870014438,36.37027277554796,-129.63661604490767,-46.8132226266264
2.450,94.2,44.053823391629116,-78.681695343499001,-135.3,62.0,-69.6,-65.4,3550.5,3550,144.1,0,1,1,0,1,1,0,0,0,100,1,1.186,26.0,0.0,-0.45,71.123,66.0,0.5,26.0,26.0,26.0,26.0,-0.23,-0.20,-0.12,381.3,-2.45,-2.61,-0.98,-1.90,-710.48,601.05,5.8,0.00,0.00,0.00,0.00,0.06,-7.49,-7.49,-0.39,1.48,-0.08,2.15,40.02,-0.10,-0.40,3.7,100.0,0,0,112.14,0,0,0.0,0,0,0,0,7518,0,30.00,3,144.1,1,0,0.0,0.0,0.0,0.0,0,0,2.473,2.473,71.123,25.355,1,110.00,435.8,8750,0.0,0.0,110.0,110.0,433.0,0.00,0,0,1,333.3,72.0,72.0,63.3,63.3,34.0,-23.0,-1.22,-44.8,3.3,2,-267.310,5.5,100.0,22.0,23.2,36.1,30.6,0,1,0.0,0.00,0.00,0.00,0.00,3139,3431,5523,3791,317.1,314.9,340.1,345.0,24.87,21.60,24.14,23.06,325.0,325.0,355.0,355.0,99.97,99.74,99.93,99.86,-0.33,-0.33,-0.40,-0.23,-0.1,0.0,-0.4,-0.3,81.4,61.0,70.6,63.9,89.9,65.1,74.3,67.1,85.2,62.3,72.1,64.6,82.5,61.7,71.9,64.2,0.33,-0.33,0.07,0.07,0.00,122.86,122.70,112.14,112.14,194.4,26.0,0.327566787083184,133.95783643748175,34.9298659211208,32.409153797842976,3.6010175628356222
2.500,96.2,44.053805674993484,-78.681690667026658,-32.2,-27.8,51.2,78.2,3552.4,3552,143.7,0,1,1,0,1,1,0,0,0,100,1,1.186,26.0,0.0,-0.46,71.123,66.0,4.5,26.0,26.0,26.0,26.0,-0.22,-0.24,-0.14,381.8,-2.11,-2.40,-1.38,-1.49,-709.96,599.08,5.8,0.00,0.00,0.00,0.00,0.06,-7.49,-7.49,-0.44,-3.20,-0.14,-3.87,39.91,-0.09,-0.43,3.0,100.0,0,0,111.55,0,0,0.0,0,0,0,0,7478,0,30.00,3,143.7,0,0,0.0,0.0,0.0,0.0,0,0,2.527,2.527,71.123,25.355,0,110.00,435.8,8750,0.0,0.0,110.0,110.0,433.0,0.00,0,0,1,333.3,74.2,74.2,66.0,66.0,34.0,-19.6,-0.56,-24.0,5.3,2,-267.360,5.5,100.0,20.4,21.8,38.6,34.5,0,1,0.0,0.00,0.00,0.00,0.00,2785,3090,3691,3886,317.8,316.2,344.8,343.6,24.87,21.60,24.14,23.06,325.0,325.0,355.0,355.0,99.97,99.74,99.93,99.86,-0.36,-0.29,-0.27,-0.13,-0.2,-0.2,-0.5,-0.3,81.4,61.0,70.6,63.9,89.8,65.0,74.3,67.0,85.2,62.3,72.1,64.6,82.4,61.6,71.8,64.2,0.34,-0.33,0.08,0.07,0.00,122.16,121.90,111.55,111.55,194.4,26.0,0.354400902933387,141.88007407992868,36.73037453183152,32.40915408235509,5.690236548616667e-07
2.550,98.1,44.053787958357844,-78.681686170418615,75.0,-55.6,-101.4,-51.2,3554.4,3554,143.2,0,1,1,0,1,1,0,0,0,100,1,1.186,26.0,0.0,-0.47,71.123,66.0,6.0,26.0,26.0,26.0,26.0,-0.25,-0.29,-0.02,381.6,-2.12,-2.64,-0.97,-1.53,-709.46,597.11,5.8,0.00,0.00,0.00,0.00,0.06,-7.49,-7.49,-0.64,-3.51,-0.39,-3.27,39.76,-0.11,-0.49,3.9,100.0,0,0,111.00,0,0,0.0,0,0,0,0,7441,0,30.00,3,143.2,1,0,0.0,0.0,0.0,0.0,0,0,2.577,2.577,71.123,25.355,1,110.00,435.8,8750,0.0,0.0,110.0,110.0,433.0,0.00,0,0,1,333.3,68.4,68.4,74.1,74.1,34.0,-44.0,4.78,-29.4,1.0,2,-267.410,5.3,100.0,24.1,19.0,33.6,32.0,0,1,0.0,0.00,0.00,0.00,0.00,5362,4543,4469,2419,311.4,312.7,343.2,348.1,24.87,21.60,24.14,23.06,325.0,325.0,355.0,355.0,99.97,99.74,99.93,99.86,-0.36,-0.23,-0.33,-0.20,-0.2,-0.3,-0.7,-0.4,81.5,61.0,70.6,63.9,89.8,65.0,74.3,67.0,85.1,62.2,72.1,64.6,82.4,61.6,71.8,64.2,0.30,-0.32,0.07,0.06,0.00,121.87,121.47,111.00,111.00,194.4,26.0,0.3834057902536163,137.19875184571725,34.929865978023166,-50.414239620438366,-21.606103100919043
2.600,100.1,44.053771410840298,-78.681681943607074,169.5,253.6,-8.1,-148.6,3556.4,3556,142.6,0,1,1,0,1,1,0,0,0,100,1,1.186,26.0,0.0,-0.48,71.123,66.0,6.0,26.0,26.0,26.0,26.0,-0.24,-0.32,0.21,376.8,-3.15,-3.02,-1.82,-0.86,-708.99,595.27,5.8,0.00,0.00,0.00,0.00,0.06,-7.49,-7.49,-0.62,5.41,-0.56,-2.58,39.61,-0.14,-0.53,4.3,100.0,0,0,110.76,0,0,0.0,0,0,0,0,7425,0,30.00,3,142.6,0,0,0.0,0.0,0.0,0.0,0,0,2.623,2.623,71.123,25.355,0,110.00,435.8,8750,0.0,0.0,110.0,110.0,433.0,0.00,0,0,1,333.3,54.5,54.5,69.5,69.5,34.0,-56.0,14.86,-41.7,-2.6,2,-267.450,3.7,100.0,32.6,31.7,33.2,24.5,0,1,0.0,0.00,0.00,0.00,0.00,5744,5969,4673,2351,310.0,307.8,343.1,349.4,24.88,21.60,24.14,23.06,325.0,325.0,355.0,355.0,99.97,99.74,99.93,99.86,-0.34,-0.18,-0.40,-0.24,-0.2,-0.3,-0.7,-0.8,81.5,61.0,70.6,63.9,89.8,65.0,74.2,67.0,85.1,62.2,72.0,64.6,82.4,61.6,71.8,64.1,0.25,-0.22,0.08,0.09,0.00,121.79,121.32,110.76,110.76,194.4,26.0,0.4517742799230607,136.83865011788484,34.56976422173962,36.01017107616656,0.0
2.650,102.1,44.053753784136823,-78.681677536931204,-14.7,-79.4,84.4,285.1,3558.4,3558,142.0,0,1,1,0,1,1,0,0,0,100,1,1.186,26.0,0.0,-0.50,71.123,66.0,6.4,26.0,26.0,26.0,26.0,-0.17,-0.29,0.22,373.2,-2.65,-3.32,-2.04,-1.77,-708.50,593.31,5.8,0.00,0.00,0.00,0.00,0.06,-7.49,-7.49,-0.24,6.37,-0.56,-1.07,39.44,-0.15,-0.39,3.5,100.0,0,0,110.57,0,0,0.0,0,0,0,0,7412,0,30.00,3,142.0,1,0,0.0,0.0,0.0,0.0,0,0,2.677,2.677,71.123,25.355,1,110.00,435.8,8750,0.0,0.0,110.0,110.0,433.0,0.00,0,0,1,333.3,62.8,62.8,67.0,67.0,34.0,-32.1,8.49,-60.1,6.3,2,-267.510,0.8,100.0,31.9,27.7,37.4,38.8,0,1,0.0,0.00,0.00,0.00,0.00,4508,3110,5911,5786,313.4,315.9,340.6,338.8,24.88,21.60,24.14,23.06,325.0,325.0,355.0,355.0,99.97,99.74,99.93,99.86,-0.22,-0.17,-0.43,-0.20,-0.2,-0.3,-0.6,-0.3,81.5,61.0,70.6,63.9,89.7,65.0,74.2,66.9,85.1,62.2,72.0,64.5,82.3,61.6,71.8,64.1,0.10,-0.08,0.06,0.05,0.00,121.10,120.61,110.57,110.57,194.4,26.0,0.4017461885320133,140.7997689533339,34.929865978023166,-10.803050981436115,-10.803050981435902
2.700,104.1,44.053736247365507,-78.681673220187491,-177.7,-221.5,160.8,78.2,3560.4,3560,141.5,0,1,1,0,1,1,0,0,0,100,1,1.186,26.0,0.0,-0.51,71.123,66.0,10.1,26.0,26.0,26.0,26.0,-0.07,-0.34,-0.18,378.5,-2.88,-2.96,-1.02,-1.96,-708.02,591.36,5.8,0.00,0.00,0.00,0.00,0.06,-7.49,-7.49,-0.18,-3.66,-0.50,5.34,39.29,-0.12,-0.40,0.9,100.0,0,0,109.78,0,0,0.0,0,0,0,0,7359,0,30.00,3,141.5,0,0,0.0,0.0,0.0,0.0,0,0,2.727,2.727,71.123,25.355,0,110.00,435.8,8750,0.0,0.0,110.0,110.0,433.0,0.00,0,0,1,333.3,76.0,76.0,62.5,62.5,34.0,-12.8,11.91,-30.3,5.6,2,-267.560,-4.3,100.0,23.0,16.6,45.4,42.7,0,1,0.0,0.00,0.00,0.00,0.00,3149,2950,4532,4447,317.4,317.2,343.1,342.6,24.88,21.60,24.14,23.06,325.0,325.0,355.0,355.0,99.97,99.74,99.93,99.86,0.00,0.01,-0.33,-0.21,-0.5,-0.8,-0.5,-0.4,81.5,61.0,70.7,63.9,89.7,65.0,74.2,66.9,85.0,62.2,72.0,64.5,82.3,61.6,71.7,64.1,-0.18,0.18,0.05,0.05,0.00,119.68,119.63,109.78,109.77,194.4,26.0,0.3910242959203431,135.75834501974123,33.48945912359603,-57.616273608061874,-14.404069113295037
2.750,106.0,44.053719879712276,-78.681669173240266,-33.1,153.4,-152.7,-171.4,3562.3,3562,140.8,0,1,1,0,1,1,0,0,0,100,1,1.186,26.0,0.0,-0.52,71.123,66.0,21.1,26.0,26.0,26.0,26.0,0.06,-0.50,-0.10,381.7,-2.59,-2.69,-1.65,-1.29,-707.57,589.54,5.9,0.00,0.00,0.00,0.00,0.06,-7.49,-7.49,-0.38,-3.56,-0.31,2.44,39.08,-0.10,-0.50,-2.3,100.0,0,0,108.84,0,0,0.0,0,0,0,0,7296,0,30.00,3,140.8,1,0,0.0,0.0,0.0,0.0,0,0,2.777,2.777,71.123,25.355,1,110.00,435.8,8750,0.0,0.0,110.0,110.0,433.0,0.00,0,0,1,333.3,70.9,70.9,65.2,65.2,34.0,1.8,31.93,-21.3,4.4,2,-267.610,-13.0,100.0,21.3,24.3,37.8,34.1,0,1,0.0,0.00,0.00,0.00,0.00,2756,3961,3716,2716,317.4,313.5,345.2,347.2,24.88,21.60,24.15,23.06,325.0,325.0,355.0,355.0,99.97,99.74,99.93,99.86,0.36,0.36,-0.18,-0.07,-1.0,-0.9,-0.7,-0.9,81.5,61.0,70.7,63.9,89.6,65.0,74.2,66.9,85.0,62.2,72.0,64.5,82.2,61.6,71.7,64.1,-0.65,0.65,0.05,0.05,0.00,118.39,118.54,108.84,108.84,194.4,26.0,0.5134199061197374,135.03814159252772,33.48945906669366,61.21729060187448,21.606102531895317
