Time,Distance,GPS Latitude,GPS Longitude,Damper Velocity (Calc) FL,Damper Velocity (Calc) FR,Damper Velocity (Calc) RL,Damper Velocity (Calc) RR,Corr Dist,Corr Dist (Unstretched),Corr Speed,ABS Active,ABS Enabled,AID Allow Tire Blankets,AID Auto Blip,AID Auto Clutch,AID Auto Shift,AID Fuel Rate,AID Ideal Line,AID Mech Damage,AID Stability,AID Tire Wear Rate,Air Density,Air Temp,Ballast,Best Lap Delta,Best Lap Time,Brake Bias,Brake Pos,Brake Temp FL,Brake Temp FR,Brake Temp RL,Brake Temp RR,CG Accel Lateral,CG Accel Longitudinal,CG Accel Vertical,CG Height,Camber FL,Camber FR,Camber RL,Camber RR,Car Coord X,Car Coord Y,Car Coord Z,Car Damage Front,Car Damage Left,Car Damage Rear,Car Damage Right,Car Pos Norm,Caster FL,Caster FR,Chassis Pitch Angle,Chassis Pitch Rate,Chassis Roll Angle,Chassis Roll Rate,Chassis Velocity X,Chassis Velocity Y,Chassis Velocity Z,Chassis Yaw Rate,Clutch Pos,DRS Active,DRS Available,Drive Train Speed,ERS Heat Charging,ERS Is Charging,ERS Max Energy,ERS Power Level,ERS Recovery Level,Engine Brake Setting,Engine Limiter,Engine RPM,Flags,Fuel Level,Gear,Ground Speed,HR Sample Clock,In Pit,KERS Charge,KERS Deployed Energy,KERS Input,KERS Max Energy,LR Sample Clock,Lap Invalidated,Lap Time,Lap Time2,Last Lap Time,Last Sector Time,MR Sample Clock,Max Fuel,Max Power,Max RPM,Max Sus Travel FL,Max Sus Travel FR,Max Sus Travel RL,Max Sus Travel RR,Max Torque,Max Turbo Boost,Num Tires Off Track,Penalties Enabled,Position,Raw Data Sample Rate,Ride Height FL,Ride Height FR,Ride Height RL,Ride Height RR,Road Temp,Self Align Torque FL,Self Align Torque FR,Self Align Torque RL,Self Align Torque RR,Session Lap Count,Session Time Left,Steering Angle,Surface Grip,Suspension Travel FL,Suspension Travel FR,Suspension Travel RL,Suspension Travel RR,TC Active,TC Enabled,Throttle Pos,Tire Dirt Level FL,Tire Dirt Level FR,Tire Dirt Level RL,Tire Dirt Level RR,Tire Load FL,Tire Load FR,Tire Load RL,Tire Load RR,Tire Loaded Radius FL,Tire Loaded Radius FR,Tire Loaded Radius RL,Tire Loaded Radius RR,Tire Pressure FL,Tire Pressure FR,Tire Pressure RL,Tire Pressure RR,Tire Radius FL,Tire Radius FR,Tire Radius RL,Tire Radius RR,Tire Rubber Grip FL,Tire Rubber Grip FR,Tire Rubber Grip RL,Tire Rubber Grip RR,Tire Slip Angle FL,Tire Slip Angle FR,Tire Slip Angle RL,Tire Slip Angle RR,Tire Slip Ratio FL,Tire Slip Ratio FR,Tire Slip Ratio RL,Tire Slip Ratio RR,Tire Temp Core FL,Tire Temp Core FR,Tire Temp Core RL,Tire Temp Core RR,Tire Temp Inner FL,Tire Temp Inner FR,Tire Temp Inner RL,Tire Temp Inner RR,Tire Temp Middle FL,Tire Temp Middle FR,Tire Temp Middle RL,Tire Temp Middle RR,Tire Temp Outer FL,Tire Temp Outer FR,Tire Temp Outer RL,Tire Temp Outer RR,Toe In FL,Toe In FR,Toe In RL,Toe In RR,Turbo Boost,Wheel Angular Speed FL,Wheel Angular Speed FR,Wheel Angular Speed RL,Wheel Angular Speed RR,Wind Direction,Wind Speed,CG Distance,Lateral Velocity,Longitudinal Velocity,Lateral Acceleration,Longitudinal Acceleration
s,m,deg,deg,mm/s,mm/s,mm/s,mm/s,m,m,km/h,,,,,,,,,%,%,,kg/m3,C,kg,s,s,%,%,C,C,C,C,G,G,G,mm,deg,deg,deg,deg,m,m,m,,,,,,deg,deg,deg,deg/s,deg,deg/s,m/s,m/s,m/s,deg/s,%,,,rad/s,,,MJ,,,,,rpm,,l,,km/h,,,%,kJ,%,MJ,,,s,s,s,s,,l,hp,rpm,mm,mm,mm,mm,N.m,,,,,Hz,mm,mm,mm,mm,C,N.m,N.m,N.m,N.m,,s,deg,%,mm,mm,mm,mm,,,%,,,,,N,N,N,N,mm,mm,mm,mm,psi,psi,psi,psi,mm,mm,mm,mm,%,%,%,%,deg,deg,deg,deg,%,%,%,%,C,C,C,C,C,C,C,C,C,C,C,C,C,C,C,C,deg,deg,deg,deg,,rad/s,rad/s,rad/s,rad/s,deg,km/h,G,Km/h,Km/h,Km/h^2,Km/h^2
0.000,0.0,44.054636108564388,-78.681933573792406,-22.0,-59.4,78.8,105.6,1624.9,1625,147.4,0,1,1,0,1,1,0,0,0,100,1,1.186,26.0,0.0,0.006,108.798,66.0,0.0,26.0,26.0,26.0,26.0,-0.28,0.33,0.28,377.7,-2.31,-3.86,-1.22,-2.60,-736.97,691.42,5.7,0.00,0.00,0.00,0.00,0.00,-7.49,-7.49,-0.35,1.16,-0.36,-2.63,40.95,-0.13,-0.30,3.37,100.0,0,0,116.59,0,0,0.0,0,0,0,0,7816,0,30.00,3,147.4,1,0,0.0,0.0,0.0,0.0,0,0,0.018,0.018,108.798,25.849,1,110.00,435.8,8750,0.0,0.0,110.0,110.0,433.0,0.00,0,0,1,166.7,72.2,72.2,65.7,65.7,34.0,-42.04,4.16,-46.0,16.6,1,-108.810,4.0,100.0,22.4,18.9,39.1,36.4,0,1,72.7,0.00,0.00,0.00,0.00,5089,2222,5970,5541,311.3,317.9,338.8,340.3,24.00,21.86,24.63,23.82,325.0,325.0,355.0,355.0,99.69,99.58,99.68,99.65,-0.33,-0.30,-0.37,-0.18,-0.1,-0.0,1.3,1.5,76.0,62.6,73.7,68.6,79.0,60.9,75.2,68.5,76.2,59.6,73.9,67.0,74.5,59.2,73.5,66.4,0.23,-0.25,0.06,0.05,0.00,125.86,125.49,116.59,116.59,152.3,2.9,0.5154609587543949
0.050,2.1,44.054619201318197,-78.681928537591418,26.2,19.1,20.7,-15.1,1627.0,1627,147.9,0,1,1,0,1,1,0,0,0,100,1,1.186,26.0,0.0,0.045,108.798,66.0,0.0,26.0,26.0,26.0,26.0,-0.23,0.30,-0.12,380.0,-2.71,-2.71,-1.69,-2.68,-736.41,689.54,5.7,0.00,0.00,0.00,0.00,0.00,-7.49,-7.49,-0.33,0.98,-0.32,1.54,41.09,-0.13,-0.34,3.40,100.0,0,0,117.77,0,0,0.0,0,0,0,0,7895,0,30.00,3,147.9,0,0,0.0,0.0,0.0,0.0,0,0,0.066,0.066,108.798,25.849,0,110.00,435.8,8750,0.0,0.0,110.0,110.0,433.0,0.00,0,0,1,333.3,71.5,71.5,68.4,68.4,34.0,-38.68,0.16,-30.0,6.3,1,-108.860,4.0,100.0,23.7,19.9,40.1,35.6,0,1,72.7,0.00,0.00,0.00,0.00,4578,2833,4190,3615,313.6,316.7,344.2,345.1,24.00,21.86,24.63,23.82,325.0,325.0,355.0,355.0,99.69,99.58,99.68,99.65,-0.35,-0.31,-0.36,-0.26,-0.1,-0.0,1.7,1.9,76.0,62.6,73.7,68.6,79.0,60.9,75.2,68.5,76.1,59.6,73.9,67.0,74.5,59.2,73.5,66.4,0.23,-0.24,0.06,0.06,0.00,126.20,125.91,117.77,117.77,152.3,2.9,0.3966106403010388,140.4396672539527,41.771798436972965
0.100,4.1,44.054601035021754,-78.681923141661784,-38.7,-16.6,8.2,6.8,1629.0,1629,148.5,0,1,1,0,1,1,0,0,0,100,1,1.186,26.0,0.0,0.084,108.798,66.0,0.0,26.0,26.0,26.0,26.0,-0.21,0.37,0.08,378.9,-2.91,-3.00,-1.50,-1.79,-735.81,687.52,5.7,0.00,0.00,0.00,0.00,0.00,-7.49,-7.49,-0.29,-0.71,-0.19,2.06,41.26,-0.12,-0.32,2.73,100.0,0,0,117.56,0,0,0.0,0,0,0,0,7881,0,30.00,3,148.5,1,0,0.0,0.0,0.0,0.0,0,0,0.116,0.116,108.798,25.849,1,110.00,435.8,8750,0.0,0.0,110.0,110.0,433.0,0.00,0,0,1,333.3,74.9,74.9,63.3,63.3,34.0,-26.53,1.74,-39.5,7.2,1,-108.920,3.7,100.0,21.8,19.0,40.5,35.9,0,1,72.3,0.00,0.00,0.00,0.00,3317,2798,5233,6487,316.6,317.2,340.9,338.3,24.00,21.85,24.63,23.82,325.0,325.0,355.0,355.0,99.69,99.58,99.68,99.65,-0.33,-0.30,-0.34,-0.19,-0.1,-0.1,1.4,1.6,76.0,62.6,73.7,68.6,78.9,60.9,75.2,68.5,76.1,59.6,73.8,67.0,74.5,59.2,73.5,66.4,0.22,-0.22,0.05,0.06,0.00,126.63,126.40,117.56,117.56,152.3,2.9,0.43289721643826723,141.15987065271509,41.411696737591775,14.404068259759697,-7.202033987623935
0.150,6.2,44.054583947911247,-78.681918195392953,-127.2,-43.7,-32.0,-11.6,1631.1,1631,149.1,0,1,1,0,1,1,0,0,0,100,1,1.186,26.0,0.0,0.123,108.798,66.0,0.0,26.0,26.0,26.0,26.0,-0.19,0.32,-0.11,382.2,-3.20,-1.65,-1.68,-1.98,-735.26,685.62,5.7,0.00,0.00,0.00,0.00,0.00,-7.49,-7.49,-0.45,-4.86,-0.21,-1.81,41.41,-0.11,-0.36,2.31,100.0,0,0,118.32,0,0,0.0,0,0,0,0,7931,0,30.00,3,149.1,0,0,0.0,0.0,0.0,0.0,0,0,0.164,0.164,108.798,25.849,0,110.00,435.8,8750,0.0,0.0,110.0,110.0,433.0,0.00,0,0,1,333.3,77.0,77.0,65.6,65.6,34.0,-41.47,-3.22,-28.4,8.5,1,-108.960,3.7,100.0,15.4,16.8,38.9,35.4,0,1,72.7,0.00,0.00,0.00,0.00,4503,3791,4416,4676,314.2,315.0,343.5,342.7,24.00,21.85,24.63,23.82,325.0,325.0,355.0,355.0,99.69,99.58,99.68,99.65,-0.38,-0.26,-0.29,-0.15,-0.1,-0.0,1.7,1.9,76.0,62.6,73.7,68.6,78.9,60.9,75.2,68.5,76.1,59.5,73.8,67.0,74.4,59.1,73.5,66.4,0.22,-0.23,0.07,0.05,0.00,126.96,126.72,118.32,118.32,152.3,2.9,0.3880721582386451,141.88007407992868,41.05159503821057,100.82847924087645,21.6061031009189
0.200,8.3,44.054565601750483,-78.681912889395477,53.7,-6.9,-134.5,-96.4,1633.2,1633,149.6,0,1,1,0,1,1,0,0,0,100,1,1.186,26.0,0.0,0.198,108.798,66.0,0.0,26.0,26.0,26.0,26.0,-0.16,0.31,-0.50,388.3,-2.67,-3.01,-1.23,-2.38,-734.67,683.58,5.7,0.00,0.00,0.00,0.00,0.01,-7.49,-7.49,-0.63,-2.78,-0.27,-0.95,41.56,-0.13,-0.39,2.90,100.0,0,0,119.64,0,0,0.0,0,0,0,0,8020,0,30.00,3,149.6,1,0,0.0,0.0,0.0,0.0,0,0,0.216,0.216,108.798,25.849,1,110.00,435.8,8750,0.0,0.0,110.0,110.0,433.0,0.00,0,0,1,333.3,79.3,79.3,80.6,80.6,34.0,-27.96,1.09,-12.4,5.1,1,-109.010,3.3,100.0,18.1,16.5,32.2,30.5,0,1,72.7,0.00,0.00,0.00,0.00,3728,1351,2662,3188,316.0,321.0,348.5,346.1,24.00,21.85,24.63,23.81,325.0,325.0,355.0,355.0,99.69,99.58,99.68,99.65,-0.31,-0.27,-0.33,-0.20,-0.1,-0.0,2.3,2.5,76.0,62.6,73.7,68.6,78.8,60.9,75.2,68.5,76.0,59.5,73.8,67.0,74.4,59.1,73.4,66.4,0.20,-0.19,0.09,0.07,0.00,127.38,127.16,119.64,119.64,152.3,2.9,0.6096720429870472,151.24271857680273,43.572307047683665,10.803051265947374,-3.6010169938118963
0.250,10.4,44.054546176403797,-78.681907313601513,190.1,11.9,39.0,11.2,1635.3,1635,150.2,0,1,1,0,1,1,0,0,0,100,1,1.186,26.0,0.0,0.237,108.798,66.0,0.0,26.0,26.0,26.0,26.0,-0.22,0.27,0.18,382.3,-2.45,-3.41,-1.33,-2.36,-734.05,681.42,5.7,0.00,0.00,0.00,0.00,0.01,-7.49,-7.49,-0.71,0.10,-0.17,6.20,41.73,-0.12,-0.45,3.42,100.0,0,0,119.54,0,0,0.0,0,0,0,0,8014,0,30.00,3,150.2,0,0,0.0,0.0,0.0,0.0,0,0,0.270,0.270,108.798,25.849,0,110.00,435.8,8750,0.0,0.0,110.0,110.0,433.0,0.00,0,0,1,166.7,69.4,69.4,82.4,82.4,34.0,-42.79,5.05,-17.3,4.2,1,-109.070,2.5,100.0,27.6,17.1,34.2,31.1,0,1,72.7,0.00,0.00,0.00,0.00,5149,2545,2693,3472,310.6,317.6,346.9,345.6,24.00,21.85,24.63,23.81,325.0,325.0,355.0,355.0,99.69,99.58,99.68,99.65,-0.30,-0.24,-0.38,-0.25,-0.0,-0.1,1.6,1.9,76.0,62.6,73.7,68.6,78.8,60.8,75.2,68.5,76.0,59.5,73.8,67.0,74.4,59.1,73.4,66.4,0.16,-0.17,0.07,0.06,0.00,128.30,127.87,119.54,119.54,152.3,2.9,0.3920459156782532,142.9603792065234,40.69149333882938,-118.83356477895916,-43.21220563281429
0.300,12.4,44.054529898682731,-78.681902727061328,-21.7,108.1,-50.2,12.3,1637.4,1637,150.7,0,1,1,0,1,1,0,0,0,100,1,1.186,26.0,0.0,0.273,108.798,66.0,0.0,26.0,26.0,26.0,26.0,-0.28,0.36,0.18,377.8,-3.09,-1.94,-1.90,-1.05,-733.54,679.61,5.7,0.00,0.00,0.00,0.00,0.01,-7.49,-7.49,-0.58,5.11,0.11,4.68,41.88,-0.12,-0.35,2.98,100.0,0,0,119.56,0,0,0.0,0,0,0,0,8015,0,30.00,3,150.7,1,0,0.0,0.0,0.0,0.0,0,0,0.314,0.314,108.798,25.849,1,110.00,435.8,8750,0.0,0.0,110.0,110.0,433.0,0.00,0,0,1,333.3,65.7,65.7,70.8,70.8,34.0,-35.86,3.16,-53.1,-4.5,1,-109.110,2.1,100.0,26.5,22.5,31.7,31.7,0,1,72.3,0.00,0.00,0.00,0.00,4264,4990,5804,5302,313.0,311.4,340.9,340.3,24.00,21.85,24.63,23.81,325.0,325.0,355.0,355.0,99.69,99.58,99.68,99.65,-0.27,-0.18,-0.44,-0.23,-0.1,-0.1,1.5,1.8,76.0,62.6,73.7,68.6,78.8,60.8,75.2,68.5,76.0,59.5,73.8,67.0,74.3,59.1,73.4,66.4,0.13,-0.13,0.07,0.07,0.00,128.74,128.53,119.56,119.56,152.3,2.9,0.4903060268852505,139.35936209890681,39.25108648440224,57.616273892573986,10.803050981435831
0.350,14.5,44.054511372657650,-78.681897510996009,-67.0,59.0,199.3,135.2,1639.5,1639,151.3,0,1,1,0,1,1,0,0,0,100,1,1.186,26.0,0.0,0.312,108.798,66.0,0.0,26.0,26.0,26.0,26.0,-0.16,0.35,0.27,374.0,-2.17,-2.80,-1.87,-1.95,-732.96,677.55,5.7,0.00,0.00,0.00,0.00,0.01,-7.49,-7.49,-0.33,4.39,0.09,-3.64,42.04,-0.10,-0.30,1.47,100.0,0,0,119.82,0,0,0.0,0,0,0,0,8032,0,30.00,3,151.3,0,0,0.0,0.0,0.0,0.0,1,0,0.366,0.366,108.798,25.849,0,110.00,435.8,8750,0.0,0.0,110.0,110.0,433.0,0.00,0,0,1,333.3,67.9,67.9,53.7,53.7,34.0,-16.95,14.02,-46.6,15.6,1,-109.170,1.9,100.0,23.2,25.4,41.6,38.5,0,1,72.7,0.00,0.00,0.00,0.00,3092,4971,6329,5666,316.5,310.7,338.8,339.5,24.00,21.85,24.63,23.81,325.0,325.0,355.0,355.0,99.69,99.58,99.68,99.65,-0.18,-0.13,-0.25,-0.10,-0.0,-0.1,1.3,1.5,76.0,62.6,73.7,68.6,78.7,60.8,75.2,68.5,75.9,59.5,73.8,67.0,74.3,59.1,73.4,66.4,0.10,-0.10,0.05,0.05,0.00,129.14,129.07,119.82,119.82,152.3,2.9,0.4701063709417263,148.7220065957808,41.771798436972965,57.61627389257342,10.803050981435831
0.400,16.7,44.054492756700405,-78.681892294930705,-42.9,-200.3,29.4,59.0,1641.6,1642,151.9,0,1,1,0,1,1,0,0,0,100,1,1.186,26.0,0.0,0.348,108.798,66.0,0.0,26.0,26.0,26.0,26.0,-0.12,0.35,-0.12,378.8,-2.00,-2.58,-1.36,-1.72,-732.38,675.48,5.7,0.00,0.00,0.00,0.00,0.01,-7.49,-7.49,-0.23,-0.74,-0.20,-4.58,42.20,-0.08,-0.26,1.18,100.0,0,0,120.23,0,0,0.0,0,0,0,0,8060,0,30.00,3,151.9,1,0,0.0,0.0,0.0,0.0,1,0,0.418,0.418,108.798,25.849,1,110.00,435.8,8750,0.0,0.0,110.0,110.0,433.0,0.00,0,0,1,333.3,79.2,79.2,60.0,60.0,34.0,-14.01,2.24,-39.6,14.2,1,-109.220,1.4,100.0,21.0,15.4,43.1,41.4,0,1,72.7,0.00,0.00,0.00,0.00,3196,1656,7189,4896,316.9,320.6,336.9,341.7,24.00,21.85,24.63,23.81,325.0,325.0,355.0,355.0,99.69,99.58,99.68,99.65,-0.12,-0.17,-0.18,-0.04,-0.0,-0.1,1.4,1.5,76.0,62.6,73.7,68.6,78.7,60.8,75.1,68.5,75.9,59.4,73.8,67.0,74.2,59.0,73.4,66.4,0.08,-0.09,0.04,0.05,0.00,129.42,129.20,120.23,120.24,152.3,2.9,0.3889730067755345,145.12098948816416,40.33139158254582,-32.40915408235395,-14.40406797524787
0.450,18.8,44.054475129996931,-78.681887438594032,-98.7,-43.8,-16.1,-52.2,1643.7,1644,152.4,0,1,1,0,1,1,0,0,0,100,1,1.186,26.0,0.0,0.423,108.798,66.0,0.0,26.0,26.0,26.0,26.0,-0.10,0.29,-0.24,385.1,-2.07,-1.75,-1.83,-2.16,-731.84,673.52,5.7,0.00,0.00,0.00,0.00,0.01,-7.49,-7.49,-0.44,-7.10,-0.25,0.73,42.35,-0.08,-0.35,1.18,100.0,0,0,121.08,0,0,0.0,0,0,0,0,8116,0,30.00,3,152.4,0,0,0.0,0.0,0.0,0.0,1,0,0.466,0.466,108.798,25.849,0,110.00,435.8,8750,0.0,0.0,110.0,110.0,433.0,0.00,0,0,1,166.7,84.2,84.2,64.8,64.8,34.0,-8.93,1.26,-27.5,6.2,1,-109.260,1.0,100.0,16.1,13.2,42.3,38.8,0,1,72.7,0.00,0.00,0.00,0.00,2005,1558,4607,2660,319.7,320.5,343.1,347.6,24.00,21.85,24.63,23.81,325.0,325.0,355.0,355.0,99.69,99.58,99.68,99.65,-0.15,-0.13,-0.21,-0.11,-0.0,-0.0,1.7,1.8,76.0,62.5,73.7,68.6,78.6,60.8,75.1,68.5,75.8,59.4,73.7,67.0,74.2,59.0,73.4,66.4,0.06,-0.07,0.06,0.05,0.00,129.64,129.54,121.08,121.08,152.3,2.9,0.3894868418830089,145.48109118754542,40.33139163944818,50.414239620438366,10.803052119483212
0.500,20.9,44.054456424107528,-78.681882222528714,-0.4,18.7,-220.1,-192.7,1645.8,1646,152.9,0,1,1,0,1,1,0,0,0,100,1,1.186,26.0,0.0,0.462,108.798,66.0,0.0,26.0,26.0,26.0,26.0,-0.08,0.26,-0.54,390.5,-2.55,-1.40,-1.13,-1.08,-731.26,671.44,5.7,0.00,0.00,0.00,0.00,0.01,-7.49,-7.49,-0.78,-5.72,0.01,5.05,42.49,-0.09,-0.43,1.09,100.0,0,0,122.13,0,0,0.0,0,0,0,0,8187,0,30.00,3,152.9,1,0,0.0,0.0,0.0,0.0,1,0,0.516,0.516,108.798,25.849,1,110.00,435.8,8750,0.0,0.0,110.0,110.0,433.0,0.00,0,0,1,333.3,83.1,83.1,79.3,79.3,34.0,-9.61,0.62,-10.9,0.9,1,-109.320,0.3,100.0,16.1,14.2,31.3,29.2,0,1,72.3,0.00,0.00,0.00,0.00,1912,2191,2670,3465,320.0,319.8,348.3,345.8,24.00,21.85,24.63,23.81,325.0,325.0,355.0,355.0,99.69,99.58,99.68,99.65,-0.16,-0.13,-0.26,-0.14,-0.1,-0.0,2.2,2.4,76.0,62.5,73.7,68.6,78.6,60.7,75.1,68.5,75.8,59.4,73.7,67.0,74.1,59.0,73.3,66.4,0.03,-0.02,0.08,0.07,0.00,130.10,130.00,122.13,122.13,152.3,2.9,0.604648658313239,150.162413450208,41.41169679449414,57.61627389257313,10.803050981435973
0.550,23.0,44.054437628285960,-78.681877096395553,37.5,56.9,-70.2,-3.8,1648.0,1648,153.5,0,1,1,0,1,1,0,0,0,100,1,1.186,26.0,0.0,0.498,108.798,66.0,0.0,26.0,26.0,26.0,26.0,-0.07,0.28,0.03,385.4,-2.12,-2.25,-1.23,-3.21,-730.69,669.35,5.7,0.00,0.00,0.00,0.00,0.01,-7.49,-7.49,-0.99,-3.31,0.02,-0.99,42.65,-0.07,-0.48,0.67,100.0,0,0,121.95,0,0,0.0,0,0,0,0,8175,0,30.00,3,153.5,0,0,0.0,0.0,0.0,0.0,1,0,0.566,0.566,108.798,25.849,0,110.00,435.8,8750,0.0,0.0,110.0,110.0,433.0,0.00,0,0,1,333.3,73.5,73.5,79.9,79.9,34.0,-27.74,13.23,-16.3,16.7,1,-109.360,-0.7,100.0,17.9,17.0,27.8,29.0,0,1,72.3,0.00,0.00,0.00,0.00,5047,3787,3606,3356,312.0,313.8,345.3,345.1,24.00,21.84,24.63,23.81,325.0,325.0,355.0,355.0,99.69,99.58,99.68,99.65,-0.14,-0.01,-0.21,-0.06,-0.1,-0.1,1.8,1.9,76.0,62.5,73.7,68.6,78.5,60.7,75.1,68.5,75.7,59.3,73.7,66.9,74.1,59.0,73.3,66.4,-0.02,0.03,0.09,0.08,0.00,130.87,130.70,121.95,121.95,152.3,2.9,0.2901723625709382,151.24271857680273,41.411696737591775,-28.80813708854305,-10.803052119483212
0.600,25.2,44.054418652600077,-78.681871880330249,259.2,196.9,-21.0,-19.4,1650.1,1650,154.0,0,1,1,0,1,1,0,0,0,100,1,1.186,26.0,0.0,0.534,108.798,66.0,0.0,26.0,26.0,26.0,26.0,-0.05,0.33,0.16,377.6,-2.03,-2.53,-1.20,-1.15,-730.11,667.24,5.7,0.00,0.00,0.00,0.00,0.02,-7.49,-7.49,-0.86,8.01,0.05,1.31,42.79,-0.06,-0.43,0.25,100.0,0,0,122.63,0,0,0.0,0,0,0,0,8221,0,30.00,3,154.0,1,0,0.0,0.0,0.0,0.0,1,0,0.618,0.618,108.798,25.849,1,110.00,435.8,8750,0.0,0.0,110.0,110.0,433.0,0.00,0,0,1,166.7,58.4,58.4,77.6,77.6,34.0,-24.57,28.83,-22.1,8.2,1,-109.420,-1.8,100.0,30.9,26.9,26.7,28.0,0,1,72.3,0.00,0.00,0.00,0.00,5546,5657,4787,4288,310.0,309.5,343.1,343.8,24.00,21.84,24.63,23.81,325.0,325.0,355.0,355.0,99.69,99.58,99.68,99.65,-0.06,0.06,-0.21,-0.01,-0.0,-0.1,1.8,1.9,76.0,62.5,73.7,68.6,78.5,60.7,75.1,68.4,75.7,59.3,73.7,66.9,74.1,58.9,73.3,66.3,-0.07,0.09,0.08,0.08,0.00,131.54,131.48,122.63,122.64,152.3,2.9,0.37013511046643494,147.2815997413537,40.33139158254582,-36.01017107616656,-10.803050981435973
0.650,27.3,44.054400846032280,-78.681867023993576,-99.1,-48.2,366.4,300.0,1652.2,1652,154.6,0,1,1,0,1,1,0,0,0,100,1,1.186,26.0,0.0,0.609,108.798,66.0,0.0,26.0,26.0,26.0,26.0,-0.01,0.29,0.25,373.7,-2.81,-4.21,-1.26,-1.39,-729.57,665.26,5.7,0.00,0.00,0.00,0.00,0.02,-7.49,-7.49,-0.40,7.26,0.12,3.07,42.95,-0.03,-0.25,-0.67,100.0,0,0,122.27,0,0,0.0,0,0,0,0,8196,0,30.00,3,154.6,0,0,0.0,0.0,0.0,0.0,1,0,0.666,0.666,108.798,25.849,0,110.00,435.8,8750,0.0,0.0,110.0,110.0,433.0,0.00,0,0,1,333.3,73.9,73.9,53.0,53.0,34.0,-4.04,7.82,-33.2,23.5,1,-109.460,-2.0,100.0,25.9,24.5,45.0,43.0,0,1,72.3,0.00,0.00,0.00,0.00,1507,1588,6722,6476,321.1,319.0,337.5,337.9,24.00,21.84,24.63,23.81,325.0,325.0,355.0,355.0,99.69,99.58,99.68,99.65,0.07,-0.08,-0.14,0.03,0.1,-0.0,1.2,1.1,76.0,62.5,73.7,68.6,78.4,60.7,75.1,68.4,75.7,59.3,73.7,66.9,74.0,58.9,73.3,66.3,-0.12,0.10,0.04,0.04,0.00,131.79,131.90,122.27,122.27,152.3,2.9,0.38301436004411116,147.64170146918607,40.33139163944818,54.01525661425012,14.404069113295108
0.700,29.5,44.054381780414232,-78.681861807928257,-299.3,-202.0,71.5,123.6,1654.4,1654,155.2,0,1,1,0,1,1,0,0,0,100,1,1.186,26.0,0.0,0.645,108.798,66.0,0.0,26.0,26.0,26.0,26.0,0.01,0.30,0.07,378.1,-2.26,-2.45,-1.91,-1.54,-728.99,663.14,5.7,0.00,0.00,0.00,0.00,0.02,-7.49,-7.49,-0.44,-6.77,0.17,-1.77,43.11,0.00,-0.26,-1.12,100.0,0,0,122.63,0,0,0.0,0,0,0,0,8220,0,30.00,3,155.2,1,0,0.0,0.0,0.0,0.0,1,0,0.716,0.716,108.798,25.849,1,110.00,435.8,8750,0.0,0.0,110.0,110.0,433.0,0.00,0,0,1,333.3,83.6,83.6,50.0,50.0,34.0,-5.73,18.48,-22.3,19.4,1,-109.510,-2.0,100.0,11.0,14.4,48.6,49.2,0,1,72.3,0.00,0.00,0.00,0.00,2252,3533,5522,4571,318.8,315.1,340.1,342.4,24.00,21.84,24.63,23.81,325.0,325.0,355.0,355.0,99.69,99.58,99.68,99.65,0.05,0.12,0.01,0.08,-0.1,-0.1,1.3,1.2,76.0,62.5,73.7,68.6,78.4,60.6,75.1,68.4,75.6,59.3,73.7,66.9,74.0,58.9,73.3,66.3,-0.11,0.10,0.04,0.03,0.00,131.95,132.07,122.63,122.63,152.3,2.9,0.3082207001484488,152.6831254027787,41.77179849387533,10.803051265947374,3.6010169938120384
0.750,31.6,44.054362714796191,-78.681856591862939,138.1,64.1,-376.0,-364.6,1656.6,1657,155.6,0,1,1,0,1,1,0,0,0,100,1,1.186,26.0,0.0,0.681,108.798,66.0,0.0,26.0,26.0,26.0,26.0,0.05,0.35,-0.41,387.8,-2.70,-2.44,-0.82,-1.30,-728.41,661.02,5.7,0.00,0.00,0.00,0.00,0.02,-7.49,-7.49,-0.71,-2.56,0.02,-1.77,43.24,0.03,-0.35,-1.13,100.0,0,0,124.17,0,0,0.0,0,0,0,0,8324,0,30.00,3,155.6,0,0,0.0,0.0,0.0,0.0,1,0,0.768,0.768,108.798,25.849,0,110.00,435.8,8750,0.0,0.0,110.0,110.0,433.0,0.00,0,0,1,166.7,79.0,79.0,77.4,77.4,34.0,-5.88,9.90,-2.9,11.6,1,-109.560,-1.9,100.0,17.9,17.6,29.8,31.0,0,1,72.3,0.00,0.00,0.00,0.00,2354,2124,3240,3378,318.5,318.9,346.0,346.1,24.00,21.84,24.63,23.81,325.0,325.0,355.0,355.0,99.69,99.58,99.68,99.65,0.11,0.13,0.04,0.14,0.0,-0.1,2.3,2.2,76.0,62.5,73.7,68.6,78.3,60.6,75.0,68.4,75.5,59.3,73.6,66.9,73.9,58.9,73.3,66.3,-0.11,0.10,0.07,0.06,0.00,132.42,132.49,124.17,124.18,152.3,2.9,0.5413871073455665,148.7220065957808,40.69149333882938,-32.40915379784269,-7.20203455664759
0.800,33.8,44.054344638431907,-78.681851645594108,4.8,-25.3,57.6,71.4,1658.7,1659,156.2,0,1,1,0,1,1,0,0,0,100,1,1.186,26.0,0.0,0.750,108.798,66.0,0.0,26.0,26.0,26.0,26.0,0.04,0.33,-0.07,383.0,-3.29,-3.91,-1.79,-1.58,-727.86,659.01,5.7,0.00,0.00,0.00,0.00,0.02,-7.49,-7.49,-0.89,-4.91,-0.04,0.37,43.40,0.04,-0.41,-1.01,100.0,0,0,123.58,0,0,0.0,0,0,0,0,8284,0,30.00,3,156.2,1,0,0.0,0.0,0.0,0.0,1,0,0.816,0.816,108.798,25.849,1,110.00,435.8,8750,0.0,0.0,110.0,110.0,433.0,0.00,0,0,1,333.3,77.9,77.9,69.8,69.8,34.0,-13.78,16.94,-24.4,18.9,1,-109.620,-1.7,100.0,18.1,16.3,32.7,34.5,0,1,72.3,0.00,0.00,0.00,0.00,3511,2498,6043,3834,315.5,317.9,338.8,344.3,24.00,21.84,24.63,23.81,325.0,325.0,355.0,355.0,99.69,99.58,99.68,99.65,0.09,0.14,-0.02,0.16,-0.0,-0.1,1.6,1.5,76.0,62.5,73.7,68.6,78.3,60.6,75.0,68.4,75.5,59.2,73.6,66.9,73.9,58.8,73.2,66.3,-0.09,0.08,0.08,0.06,0.00,132.92,132.93,123.58,123.58,152.3,2.9,0.3397057550292606,149.44221002299443,41.05159503821057,7.202033987624077,3.6010169938118963
0.850,36.0,44.054325392949544,-78.681846339596632,-11.7,35.0,-72.2,-82.0,1660.9,1661,156.7,0,1,1,0,1,1,0,0,0,100,1,1.186,26.0,0.0,0.801,108.798,66.0,0.0,26.0,26.0,26.0,26.0,0.09,0.31,-0.36,386.8,-2.47,-1.80,-1.13,-2.81,-727.27,656.87,5.7,0.00,0.00,0.00,0.00,0.02,-7.49,-7.49,-1.09,-2.56,0.11,1.14,43.53,0.06,-0.44,-1.11,100.0,0,0,124.79,0,0,0.0,0,0,0,0,8365,0,30.00,3,156.7,0,0,0.0,0.0,0.0,0.0,0,0,0.866,0.866,108.798,25.849,0,110.00,435.8,8750,0.0,0.0,110.0,110.0,433.0,0.00,0,0,1,333.3,78.8,78.8,74.5,74.5,34.0,-2.97,15.48,-7.4,24.5,1,-109.670,-1.8,100.0,17.5,18.0,29.1,30.4,0,1,71.9,0.00,0.00,0.00,0.00,1542,3393,4133,3778,320.7,315.5,345.3,344.9,24.00,21.84,24.63,23.81,325.0,325.0,355.0,355.0,99.69,99.58,99.68,99.65,0.12,0.15,0.00,0.17,-0.0,-0.0,2.2,2.1,76.0,62.5,73.7,68.6,78.2,60.6,75.0,68.4,75.4,59.2,73.6,66.9,73.8,58.8,73.2,66.3,-0.09,0.10,0.08,0.06,0.00,133.28,133.43,124.79,124.79,152.3,2.9,0.4835286961494633,149.44220999454322,41.05159503821057,3.60101699381147,3.6010169938120384
0.900,38.2,44.054307316585266,-78.681841393327801,27.6,-20.2,8.4,6.7,1663.1,1663,157.2,0,1,1,0,1,1,0,0,0,100,1,1.186,26.0,0.0,0.831,108.798,66.0,0.0,26.0,26.0,26.0,26.0,0.03,0.26,-0.30,387.0,-2.14,-2.02,-2.31,-1.19,-726.72,654.86,5.6,0.00,0.00,0.00,0.00,0.02,-7.49,-7.49,-1.20,-2.02,0.15,2.18,43.67,0.06,-0.45,-1.08,100.0,0,0,124.84,0,0,0.0,0,0,0,0,8369,0,30.00,3,157.2,1,0,0.0,0.0,0.0,0.0,0,0,0.914,0.914,108.798,25.849,1,110.00,435.8,8750,0.0,0.0,110.0,110.0,433.0,0.00,0,0,1,333.3,79.8,79.8,80.9,80.9,34.0,-3.67,4.89,-11.9,19.9,1,-109.710,-1.9,100.0,18.9,17.0,29.5,30.8,0,1,69.1,0.00,0.00,0.00,0.00,2484,1346,3193,4591,318.0,321.1,346.9,343.1,24.00,21.84,24.63,23.81,325.0,325.0,355.0,355.0,99.69,99.58,99.68,99.65,0.13,0.12,0.01,0.18,-0.0,-0.0,1.8,1.7,76.0,62.5,73.7,68.6,78.2,60.6,75.0,68.4,75.4,59.2,73.6,66.9,73.8,58.8,73.2,66.3,-0.11,0.11,0.08,0.07,0.00,133.81,133.81,124.84,124.84,152.3,2.9,0.39812058474788764,149.80231172237558,41.411696737591775,57.616273892573986,21.606102531895388
0.950,40.4,44.054287981170738,-78.681835997398167,127.1,134.9,10.0,31.0,1665.3,1665,157.7,0,1,1,0,1,1,0,0,0,100,1,1.186,26.0,0.0,0.831,108.798,66.0,0.0,26.0,26.0,26.0,26.0,0.14,0.26,0.31,377.2,-2.48,-3.22,-1.29,-1.59,-726.12,652.71,5.6,0.00,0.00,0.00,0.00,0.02,-7.49,-7.49,-1.24,2.02,0.19,1.83,43.82,0.08,-0.46,-1.82,100.0,0,0,124.86,0,0,0.0,0,0,0,0,8370,0,30.00,3,157.7,0,0,0.0,0.0,0.0,0.0,0,0,0.966,0.966,108.798,25.849,0,110.00,435.8,8750,0.0,0.0,110.0,110.0,433.0,0.00,0,0,1,166.7,62.0,62.0,73.4,73.4,34.0,-21.60,52.39,-10.9,20.4,1,-109.760,-1.8,100.0,25.3,23.8,30.0,32.3,0,1,66.4,0.00,0.00,0.00,0.00,5965,6070,4593,3642,309.6,308.0,343.2,344.9,24.00,21.84,24.63,23.81,325.0,325.0,355.0,355.0,99.69,99.58,99.68,99.65,0.05,0.24,0.01,0.21,-0.1,-0.1,1.5,1.3,76.0,62.5,73.7,68.6,78.1,60.5,75.0,68.4,75.4,59.2,73.6,66.9,73.7,58.8,73.2,66.3,-0.09,0.10,0.09,0.06,0.00,134.47,134.76,124.86,124.86,152.3,2.9,0.42813549257215294,155.20383738380062,43.21220529140011,57.61627389257427,18.00508553808335
1.000,42.5,44.054268555824052,-78.681830601468533,-21.7,106.1,124.5,54.4,1667.5,1667,158.2,0,1,1,0,1,1,0,0,0,100,1,1.186,26.0,0.0,0.936,108.798,66.0,0.0,26.0,26.0,26.0,26.0,0.18,0.30,0.21,373.7,-3.15,-2.84,-1.33,-1.60,-725.52,650.55,5.6,0.00,0.00,0.00,0.00,0.03,-7.49,-7.49,-0.89,7.88,0.37,2.12,43.96,0.10,-0.27,-1.79,100.0,0,0,124.93,0,0,0.0,0,0,0,0,8375,0,30.00,3,158.2,1,0,0.0,0.0,0.0,0.0,0,0,1.018,1.018,108.798,25.849,1,110.00,435.8,8750,0.0,0.0,110.0,110.0,433.0,0.00,0,0,1,166.7,66.8,66.8,55.9,55.9,34.0,-5.50,33.80,-14.7,55.5,1,-109.810,-1.7,100.0,24.2,29.1,36.2,35.0,0,1,64.5,0.00,0.00,0.00,0.00,2167,4844,6197,7248,319.1,310.8,338.8,336.1,24.00,21.84,24.63,23.81,325.0,325.0,355.0,355.0,99.69,99.58,99.68,99.65,0.16,0.17,0.04,0.27,-0.0,-0.1,1.3,1.1,76.0,62.5,73.7,68.6,78.1,60.5,74.9,68.4,75.3,59.2,73.5,66.9,73.7,58.8,73.2,66.3,-0.08,0.10,0.06,0.06,0.00,134.88,135.16,124.93,124.93,152.3,2.9,0.4080441152620633,155.563939111633,43.21220529140011,7.202034272135336,3.6010169938118963
1.050,44.8,44.054249130477359,-78.681825205538900,-77.6,-137.0,196.8,307.2,1669.7,1670,158.7,0,1,1,0,1,1,0,0,0,100,1,1.186,26.0,0.0,0.972,108.798,66.0,0.0,26.0,26.0,26.0,26.0,0.08,0.24,-0.06,373.0,-3.40,-3.13,-2.31,-1.79,-724.92,648.39,5.6,0.00,0.00,0.00,0.00,0.03,-7.49,-7.49,-0.74,-0.74,0.37,-1.72,44.09,0.08,-0.28,-0.89,100.0,0,0,125.51,0,0,0.0,0,0,0,0,8414,0,30.00,3,158.7,0,0,0.0,0.0,0.0,0.0,0,0,1.068,1.068,108.798,25.849,0,110.00,435.8,8750,0.0,0.0,110.0,110.0,433.0,0.00,0,0,1,166.7,73.3,73.3,55.7,55.7,34.0,-9.17,22.60,-15.5,34.3,1,-109.860,-1.5,100.0,20.3,22.2,46.1,50.4,0,1,62.1,0.00,0.00,0.00,0.00,2880,3375,4530,5603,317.2,314.8,342.8,340.0,24.00,21.84,24.63,23.81,325.0,325.0,355.0,355.0,99.69,99.58,99.68,99.65,0.15,0.16,0.10,0.16,-0.0,-0.1,1.2,1.1,76.0,62.5,73.7,68.6,78.0,60.5,74.9,68.4,75.3,59.2,73.5,66.9,73.7,58.8,73.1,66.3,-0.08,0.07,0.05,0.02,0.00,135.13,135.19,125.51,125.51,152.3,2.9,0.26,155.92404081101415,43.5723069907813,10.803050981435547,7.20203455664759
1.100,47.0,44.054229615198516,-78.681819719677108,-44.0,-104.7,-103.4,-163.9,1671.9,1672,159.2,0,1,1,0,1,1,0,0,0,100,1,1.186,26.0,0.0,1.008,108.798,66.0,0.0,26.0,26.0,26.0,26.0,0.03,0.24,-0.16,380.6,-1.54,-2.12,-1.94,-1.32,-724.31,646.22,5.6,0.00,0.00,0.00,0.00,0.03,-7.49,-7.49,-0.89,-5.06,0.22,-0.02,44.22,0.07,-0.33,-0.61,100.0,0,0,125.77,0,0,0.0,0,0,0,0,8431,0,30.00,3,159.2,1,0,0.0,0.0,0.0,0.0,0,0,1.120,1.120,108.798,25.849,1,110.00,435.8,8750,0.0,0.0,110.0,110.0,433.0,0.00,0,0,1,166.7,79.9,79.9,65.6,65.6,34.0,-1.65,4.93,-15.7,17.7,1,-109.920,-1.4,100.0,18.1,17.0,40.9,42.2,0,1,60.2,0.00,0.00,0.00,0.00,2979,1333,4658,4051,317.2,320.8,342.6,344.2,24.00,21.84,24.63,23.81,325.0,325.0,355.0,355.0,99.69,99.58,99.68,99.65,0.13,0.10,0.05,0.14,-0.0,-0.1,1.3,1.2,76.0,62.5,73.7,68.6,78.0,60.5,74.9,68.4,75.2,59.1,73.5,66.9,73.6,58.7,73.1,66.3,-0.08,0.07,0.06,0.04,0.00,135.41,135.39,125.77,125.77,152.3,2.9,0.29,156.64424420977656,43.93240874706487,-82.82339341828077,-21.60610196287159
1.150,49.2,44.054210009987507,-78.681814233815302,-26.7,13.1,-133.4,-126.2,1674.1,1674,159.6,0,1,1,0,1,1,0,0,0,100,1,1.186,26.0,0.0,1.077,108.798,66.0,0.0,26.0,26.0,26.0,26.0,0.07,0.20,-0.14,382.0,-2.68,-2.67,-1.28,-0.98,-723.70,644.04,5.5,0.00,0.00,0.00,0.00,0.03,-7.49,-7.49,-1.23,-6.33,0.36,1.69,44.34,0.07,-0.45,-0.81,100.0,0,0,126.46,0,0,0.0,0,0,0,0,8477,0,30.00,3,159.6,0,0,0.0,0.0,0.0,0.0,0,0,1.170,1.170,108.798,25.849,0,110.00,435.8,8750,0.0,0.0,110.0,110.0,433.0,0.00,0,0,1,166.7,73.7,73.7,72.8,72.8,34.0,-18.83,27.73,-7.3,12.1,1,-109.970,-1.4,100.0,16.8,17.7,34.2,35.9,0,1,59.4,0.00,0.00,0.00,0.00,4902,4187,3497,3480,312.9,312.8,346.2,345.6,24.00,21.83,24.63,23.81,325.0,325.0,355.0,355.0,99.69,99.58,99.68,99.65,0.04,0.18,0.01,0.15,-0.1,-0.1,1.6,1.6,76.0,62.5,73.7,68.6,77.9,60.5,74.9,68.4,75.2,59.1,73.5,66.9,73.6,58.7,73.1,66.3,-0.07,0.07,0.07,0.05,0.00,135.75,135.88,126.46,126.46,152.3,2.9,0.2539685019840059,147.64170146918607,41.41169679449414,-93.6264443997166,-21.606103100919043
1.200,51.4,44.054192743012671,-78.681809377478629,165.3,95.8,-132.6,-131.8,1676.3,1676,159.7,0,1,1,0,1,1,0,0,0,100,1,1.186,26.0,0.0,1.113,108.798,66.0,0.0,26.0,26.0,26.0,26.0,0.06,-0.13,-0.09,380.3,-2.54,-2.42,-1.76,-1.46,-723.16,642.12,5.5,0.00,0.00,0.00,0.00,0.03,-7.49,-7.49,-1.34,0.92,0.59,6.13,44.36,0.07,-0.48,-0.64,100.0,0,0,124.73,0,0,0.0,0,0,0,0,8295,0,30.00,0,159.7,1,0,0.0,0.0,0.0,0.0,0,0,1.216,1.216,108.798,25.849,1,110.00,435.8,8750,0.0,0.0,110.0,110.0,433.0,0.00,0,0,1,333.3,62.6,62.6,81.4,81.4,34.0,-22.31,41.86,-8.8,19.4,1,-110.010,-1.3,100.0,25.0,22.4,27.6,29.3,0,1,0.0,0.00,0.00,0.00,0.00,5517,6340,2411,3920,310.2,307.7,348.9,344.8,24.00,21.83,24.63,23.81,325.0,325.0,355.0,355.0,99.69,99.58,99.68,99.65,0.03,0.18,-0.03,0.13,-0.0,-0.1,-0.1,-0.0,76.0,62.5,73.7,68.6,77.9,60.5,74.8,68.4,75.1,59.1,73.4,66.8,73.5,58.7,73.0,66.2,-0.06,0.07,0.09,0.08,0.00,136.13,136.21,124.76,124.71,152.3,2.9,0.16911534525287764,147.2815997698049,41.771798436972965,90.02542769041696,28.80813651951911
1.250,53.6,44.054173227733820,-78.681803801684680,175.9,256.8,158.6,133.2,1678.5,1679,159.5,0,1,1,0,1,1,0,0,0,100,1,1.186,26.0,0.0,1.149,108.798,66.0,0.0,26.0,26.0,26.0,26.0,0.09,-0.13,0.47,369.2,-3.15,-2.71,-1.70,-0.90,-722.54,639.95,5.5,0.00,0.00,0.00,0.00,0.03,-7.49,-7.49,-1.05,8.60,0.70,2.55,44.31,0.08,-0.47,-1.18,100.0,0,0,124.77,0,0,0.0,0,0,0,0,7917,0,30.00,0,159.5,0,0,0.0,0.0,0.0,0.0,0,0,1.266,1.266,108.798,25.849,0,110.00,435.8,8750,0.0,0.0,110.0,110.0,433.0,0.00,0,0,1,333.3,51.5,51.5,64.0,64.0,34.0,-23.95,49.90,-16.5,21.8,1,-110.070,-1.2,100.0,33.8,35.3,35.5,36.0,0,1,0.0,0.00,0.00,0.00,0.00,5188,6732,4471,4870,311.4,305.5,343.6,342.3,24.00,21.83,24.63,23.81,325.0,325.0,355.0,355.0,99.69,99.58,99.68,99.65,0.05,0.18,0.01,0.17,0.0,-0.0,-0.0,-0.0,76.0,62.5,73.7,68.6,77.9,60.5,74.8,68.3,75.1,59.1,73.4,66.8,73.5,58.7,73.0,66.2,-0.04,0.10,0.07,0.06,0.00,136.13,136.39,124.77,124.78,152.3,2.9,0.4958830507286975,156.64424423822777,44.29251044644605,50.414239335926254,14.404069113295108
1.300,55.8,44.054153622522811,-78.681798315822874,-131.8,-84.5,251.5,253.8,1680.8,1681,159.9,0,1,1,0,1,1,0,0,0,100,1,1.186,26.0,0.0,1.185,108.798,66.0,0.0,26.0,26.0,26.0,26.0,0.09,0.05,0.25,364.9,-2.91,-2.36,-1.97,-0.75,-721.93,637.77,5.5,0.00,0.00,0.00,0.00,0.03,-7.49,-7.49,-0.61,7.24,0.57,-4.95,44.40,0.07,-0.34,-1.37,100.0,0,0,123.48,0,0,0.0,0,0,0,0,6586,0,30.00,4,159.9,1,0,0.0,0.0,0.0,0.0,0,0,1.316,1.316,108.798,25.849,1,110.00,435.8,8750,0.0,0.0,110.0,110.0,433.0,0.00,0,0,1,333.3,63.1,63.1,43.9,43.9,34.0,-11.57,25.20,-29.2,40.0,1,-110.120,-0.4,100.0,27.2,31.1,48.1,48.7,0,1,0.0,0.00,0.00,0.00,0.00,3848,4530,7807,7260,315.0,311.7,335.0,336.1,24.00,21.83,24.64,23.81,325.0,325.0,355.0,355.0,99.69,99.58,99.68,99.65,0.12,0.12,0.09,0.22,-0.0,-0.1,-0.2,-0.2,76.0,62.5,73.7,68.6,77.8,60.5,74.8,68.3,75.1,59.1,73.4,66.8,73.5,58.7,73.0,66.2,-0.02,0.04,0.04,0.03,0.00,136.31,136.33,123.48,123.48,152.3,2.9,0.27037011669191546,152.32302370339752,43.212205348302476,-3.6010172783235816,3.6010169938119674
1.350,58.1,44.054135186429889,-78.681793009825398,-101.0,-119.9,26.9,47.6,1683.0,1683,159.5,0,1,1,0,1,1,0,0,0,100,1,1.186,26.0,0.0,1.257,108.798,66.0,0.0,26.0,26.0,26.0,26.0,0.12,-0.20,0.26,369.1,-3.54,-2.46,-1.32,-2.67,-721.34,635.72,5.5,0.00,0.00,0.00,0.00,0.04,-7.49,-7.49,-0.54,-1.74,0.30,-6.94,44.30,0.05,-0.39,0.01,100.0,0,0,124.18,0,0,0.0,0,0,0,0,6624,0,30.00,4,159.5,0,0,0.0,0.0,0.0,0.0,1,0,1.364,1.364,108.798,25.849,0,110.00,435.8,8750,0.0,0.0,110.0,110.0,433.0,0.00,0,0,1,333.3,67.0,67.0,51.3,51.3,34.0,-24.90,28.08,-7.9,41.4,1,-110.160,0.3,100.0,22.2,25.1,49.5,51.0,0,1,0.0,0.00,0.00,0.00,0.00,4704,4768,4902,4927,313.0,311.2,341.7,340.0,24.00,21.83,24.64,23.82,325.0,325.0,355.0,355.0,99.69,99.58,99.68,99.65,0.03,0.14,0.10,0.13,0.0,-0.0,-0.2,-0.2,76.0,62.5,73.7,68.6,77.8,60.5,74.8,68.3,75.0,59.1,73.4,66.8,73.4,58.7,73.0,66.2,0.03,-0.02,0.03,0.02,0.00,135.86,135.84,124.18,124.18,152.3,2.9,0.3492849839314596,156.2841425103954,44.65261214582725,36.01017107616627,10.803050412412105
1.400,60.3,44.054114591965117,-78.681787164234962,192.9,12.4,-201.7,-254.4,1685.2,1685,159.2,0,1,1,0,1,1,0,0,0,100,1,1.186,26.0,0.0,1.290,108.798,66.0,0.0,26.0,26.0,26.0,26.0,-0.03,-0.19,0.09,372.0,-2.37,-2.32,-1.87,-1.90,-720.69,633.43,5.5,0.00,0.00,0.00,0.00,0.04,-7.49,-7.49,-0.51,3.38,0.16,2.82,44.20,0.03,-0.44,0.48,100.0,0,0,124.04,0,0,0.0,0,0,0,0,6616,0,30.00,4,159.2,1,0,0.0,0.0,0.0,0.0,1,0,1.418,1.418,108.798,25.849,1,110.00,435.8,8750,0.0,0.0,110.0,110.0,433.0,0.00,0,0,1,166.7,57.5,57.5,70.0,70.0,34.0,-39.62,23.29,-22.0,22.5,1,-110.220,0.5,100.0,31.8,25.7,39.4,38.3,0,1,0.0,0.00,0.00,0.00,0.00,7374,5058,4566,4369,305.9,311.7,343.1,343.7,24.00,21.83,24.64,23.81,325.0,325.0,355.0,355.0,99.69,99.58,99.68,99.65,-0.07,0.06,-0.04,0.07,-0.0,-0.0,-0.3,-0.3,76.0,62.5,73.7,68.6,77.7,60.4,74.7,68.3,75.0,59.1,73.3,66.8,73.4,58.7,72.9,66.2,0.05,-0.03,0.05,0.05,0.00,135.78,135.66,124.03,124.04,152.3,2.9,0.21236760581595301,155.92404081101415,44.292510389543686,-93.626444684229,-28.808137088542836
1.450,62.5,44.054096245804352,-78.681781948169657,12.7,26.1,40.0,88.6,1687.4,1687,158.9,0,1,1,0,1,1,0,0,0,100,1,1.186,26.0,0.0,1.326,108.798,66.0,0.0,26.0,26.0,26.0,26.0,-0.10,-0.06,0.23,371.7,-3.91,-2.67,-1.89,-1.62,-720.11,631.39,5.5,0.00,0.00,0.00,0.00,0.04,-7.49,-7.49,-0.26,4.25,0.47,7.78,44.13,0.04,-0.43,0.66,100.0,0,0,125.57,0,0,0.0,0,0,0,0,6698,0,30.00,4,158.9,0,0,0.0,0.0,0.0,0.0,1,0,1.466,1.466,108.798,25.849,0,110.00,435.8,8750,0.0,0.0,110.0,110.0,433.0,0.00,0,0,1,333.3,63.3,63.3,62.0,62.0,34.0,-25.20,13.65,-37.5,22.3,1,-110.270,0.5,100.0,32.5,27.0,41.4,42.8,0,1,51.6,0.00,0.00,0.00,0.00,3861,3499,5968,5368,314.6,315.3,339.5,340.6,24.00,21.83,24.64,23.82,325.0,325.0,355.0,355.0,99.69,99.58,99.68,99.65,-0.04,-0.01,-0.12,0.02,0.0,0.0,0.4,0.4,76.0,62.5,73.7,68.6,77.7,60.4,74.7,68.3,75.0,59.1,73.3,66.8,73.4,58.7,72.9,66.2,0.06,-0.03,0.06,0.04,0.00,135.43,135.46,125.57,125.58,152.3,2.9,0.25787593916455254,146.9214980419725,41.771798436972965,3.601016993812607,3.6010175628356222
1.500,64.7,44.054077899643595,-78.681776732104339,-283.4,-80.7,73.9,50.8,1689.6,1690,159.2,0,1,1,0,1,1,0,0,0,100,1,1.186,26.0,0.0,1.398,108.798,66.0,0.0,26.0,26.0,26.0,26.0,-0.00,0.18,0.01,376.0,-3.45,-2.01,-2.21,-1.32,-719.53,629.35,5.5,0.00,0.00,0.00,0.00,0.04,-7.49,-7.49,-0.21,-2.18,0.78,3.02,44.23,0.05,-0.44,0.04,100.0,0,0,125.59,0,0,0.0,0,0,0,0,6699,0,30.00,4,159.2,1,0,0.0,0.0,0.0,0.0,1,0,1.514,1.514,108.798,25.849,1,110.00,435.8,8750,0.0,0.0,110.0,110.0,433.0,0.00,0,0,1,333.3,74.0,74.0,53.4,53.4,34.0,-12.43,14.96,-26.9,19.5,1,-110.310,0.7,100.0,18.3,23.0,45.1,45.3,0,1,51.2,0.00,0.00,0.00,0.00,2436,4670,5008,5506,319.0,312.1,342.5,340.0,24.00,21.83,24.64,23.82,325.0,325.0,355.0,355.0,99.69,99.58,99.68,99.65,-0.05,-0.00,-0.05,0.04,-0.1,-0.1,1.0,1.1,76.0,62.5,73.7,68.6,77.7,60.4,74.7,68.3,74.9,59.0,73.3,66.8,73.3,58.6,72.9,66.2,0.05,-0.05,0.05,0.04,0.00,135.49,135.58,125.59,125.59,152.3,2.9,0.18027756377319948,156.2841425103954,44.65261214582725,97.22746196255258,28.808137088542836
1.550,66.9,44.054057215246658,-78.681770796581745,46.8,111.6,-240.9,-179.2,1691.8,1692,159.6,0,1,1,0,1,1,0,0,0,100,1,1.186,26.0,0.0,1.434,108.798,66.0,0.0,26.0,26.0,26.0,26.0,0.02,0.22,-0.07,377.8,-3.03,-1.82,-1.75,-1.17,-718.87,627.05,5.5,0.00,0.00,0.00,0.00,0.04,-7.49,-7.49,-0.25,3.14,0.56,-10.62,44.32,0.04,-0.45,0.00,100.0,0,0,126.63,0,0,0.0,0,0,0,0,6755,0,30.00,4,159.6,0,0,0.0,0.0,0.0,0.0,1,0,1.570,1.570,108.798,25.849,0,110.00,435.8,8750,0.0,0.0,110.0,110.0,433.0,0.00,0,0,1,166.7,62.4,62.4,64.9,64.9,34.0,-25.92,38.39,-8.6,16.5,1,-110.370,1.1,100.0,20.6,28.5,33.0,36.3,0,1,51.2,0.00,0.00,0.00,0.00,5189,7103,3597,3886,312.5,305.1,345.5,345.2,24.00,21.83,24.64,23.82,325.0,325.0,355.0,355.0,99.69,99.58,99.68,99.65,-0.01,0.14,0.07,0.19,-0.1,-0.1,1.6,1.6,76.0,62.5,73.7,68.6,77.6,60.4,74.7,68.3,74.9,59.0,73.3,66.8,73.3,58.6,72.9,66.2,0.06,-0.05,0.08,0.06,0.00,136.05,136.15,126.63,126.64,152.3,2.9,0.23173260452512934,156.64424423822777,44.65261214582725,-86.42441041209338,-28.80813651951918
1.600,69.1,44.054038779153736,-78.681765580516426,278.9,152.9,179.8,8.8,1694.0,1694,159.9,0,1,1,0,1,1,0,0,0,100,1,1.186,26.0,0.0,1.470,108.798,66.0,0.0,26.0,26.0,26.0,26.0,0.03,0.17,0.62,366.0,-2.77,-3.08,-1.12,-1.39,-718.29,625.00,5.5,0.00,0.00,0.00,0.00,0.04,-7.49,-7.49,0.18,12.49,0.07,-8.21,44.42,0.00,-0.35,0.81,100.0,0,0,126.34,0,0,0.0,0,0,0,0,6739,0,30.00,4,159.9,1,0,0.0,0.0,0.0,0.0,1,0,1.616,1.616,108.798,25.849,1,110.00,435.8,8750,0.0,0.0,110.0,110.0,433.0,0.00,0,0,1,333.3,48.0,48.0,56.5,56.5,34.0,-46.23,48.76,-15.4,32.2,1,-110.420,1.8,100.0,34.6,36.2,42.0,36.8,0,1,50.4,0.00,0.00,0.00,0.00,7397,7110,5413,5903,306.2,305.0,340.8,339.2,24.00,21.83,24.64,23.82,325.0,325.0,355.0,355.0,99.69,99.58,99.68,99.65,-0.09,0.10,-0.02,0.16,-0.0,-0.1,0.9,0.9,76.0,62.5,73.7,68.6,77.6,60.4,74.6,68.3,74.8,59.1,73.2,66.7,73.2,58.6,72.8,66.2,0.13,-0.07,0.05,0.05,0.00,136.65,136.61,126.34,126.35,152.3,2.9,0.6435837163881635,147.64170146918607,41.77179849387533,-39.61118835449071,-14.404068544271382
1.650,71.3,44.054020343060813,-78.681760364451108,-91.2,-226.2,337.3,301.6,1696.3,1696,160.2,0,1,1,0,1,1,0,0,0,100,1,1.186,26.0,0.0,1.506,108.798,66.0,0.0,26.0,26.0,26.0,26.0,-0.08,0.19,0.50,364.9,-2.03,-2.63,-1.64,-2.26,-717.71,622.95,5.5,0.00,0.00,0.00,0.00,0.04,-7.49,-7.49,0.79,8.18,-0.23,-0.37,44.52,-0.03,-0.18,1.62,100.0,0,0,126.21,0,0,0.0,0,0,0,0,6732,0,30.00,4,160.2,0,0,0.0,0.0,0.0,0.0,1,0,1.664,1.664,108.798,25.849,0,110.00,435.8,8750,0.0,0.0,110.0,110.0,433.0,0.00,0,0,1,333.3,67.5,67.5,37.9,37.9,34.0,-15.35,6.73,-53.2,38.0,1,-110.460,2.0,100.0,30.0,24.9,58.9,51.9,0,1,48.0,0.00,0.00,0.00,0.00,3610,3058,8886,7057,315.1,316.7,332.3,335.9,24.00,21.83,24.64,23.82,325.0,325.0,355.0,355.0,99.69,99.58,99.68,99.65,-0.08,-0.13,-0.10,-0.01,-0.0,-0.0,0.7,0.8,76.0,62.5,73.8,68.6,77.6,60.4,74.6,68.3,74.8,59.0,73.2,66.7,73.2,58.6,72.8,66.2,0.13,-0.11,0.01,0.02,0.00,136.74,136.54,126.21,126.21,152.3,2.9,0.5408326913195983,152.6831254027787,43.21220529140011,100.82847895636434,28.80813651951918
1.700,73.6,44.054000647917647,-78.681754788657159,-246.3,-199.5,-61.4,15.1,1698.5,1698,160.6,0,1,1,0,1,1,0,0,0,100,1,1.186,26.0,0.0,1.575,108.798,66.0,0.0,26.0,26.0,26.0,26.0,-0.09,0.12,-0.08,378.9,-2.23,-2.28,-0.88,-1.61,-717.09,620.76,5.6,0.00,0.00,0.00,0.00,0.04,-7.49,-7.49,0.75,-7.91,-0.18,2.52,44.61,-0.04,-0.33,1.32,100.0,0,0,126.43,0,0,0.0,0,0,0,0,6744,0,30.00,4,160.6,1,0,0.0,0.0,0.0,0.0,1,0,1.716,1.716,108.798,25.849,1,110.00,435.8,8750,0.0,0.0,110.0,110.0,433.0,0.00,0,0,1,166.7,83.8,83.8,50.6,50.6,34.0,-7.83,0.57,-18.1,5.4,1,-110.510,2.3,100.0,17.7,14.9,55.8,52.6,0,1,43.3,0.00,0.00,0.00,0.00,1777,1181,5054,3556,320.4,321.5,341.5,344.8,24.00,21.83,24.64,23.82,325.0,325.0,355.0,355.0,99.69,99.58,99.68,99.65,-0.14,-0.22,-0.11,-0.13,0.0,0.0,0.9,0.9,76.0,62.5,73.8,68.6,77.5,60.4,74.6,68.3,74.8,59.0,73.2,66.7,73.2,58.6,72.8,66.2,0.13,-0.15,0.02,0.01,0.00,136.53,136.39,126.43,126.44,152.3,2.9,0.16999999999999998,157.7245493648225,44.65261214582725,7.202034272135904,5.690236548616667e-07
1.750,75.8,44.053980952774474,-78.681749212863195,-47.8,-80.4,-470.1,-335.2,1700.7,1701,160.8,0,1,1,0,1,1,0,0,0,100,1,1.186,26.0,0.0,1.611,108.798,66.0,0.0,26.0,26.0,26.0,26.0,-0.09,0.10,-0.59,391.4,-2.30,-1.81,-1.49,-1.72,-716.47,618.57,5.6,0.00,0.00,0.00,0.00,0.05,-7.49,-7.49,0.24,-10.88,0.10,6.04,44.67,-0.05,-0.50,1.44,100.0,0,0,126.88,0,0,0.0,0,0,0,0,6768,0,30.00,4,160.8,0,0,0.0,0.0,0.0,0.0,1,0,1.768,1.768,108.798,25.849,0,110.00,435.8,8750,0.0,0.0,110.0,110.0,433.0,0.00,0,0,1,333.3,84.0,84.0,79.4,79.4,34.0,-11.40,2.42,-14.2,4.4,1,-110.570,1.9,100.0,15.3,10.9,32.3,35.8,0,1,34.1,0.00,0.00,0.00,0.00,2087,2711,2786,2651,319.2,318.4,347.6,347.8,24.00,21.83,24.64,23.82,325.0,325.0,355.0,355.0,99.69,99.58,99.68,99.65,-0.21,-0.13,-0.22,-0.12,-0.0,-0.0,1.2,1.4,76.0,62.4,73.8,68.6,77.5,60.3,74.6,68.2,74.7,59.0,73.2,66.7,73.1,58.6,72.8,66.1,0.11,-0.11,0.09,0.06,0.00,136.64,136.51,126.88,126.88,152.3,2.9,0.6051446108162907,153.4033288299923,43.212205348302476,-43.21220534830218,-14.404068544271382
1.800,78.0,44.053962336817236,-78.681743996797877,132.4,272.0,-165.4,-269.8,1703.0,1703,160.9,0,1,1,0,1,1,0,0,0,100,1,1.186,26.0,0.0,1.647,108.798,66.0,0.0,26.0,26.0,26.0,26.0,-0.09,-0.04,-0.17,388.0,-3.19,-2.92,-1.39,-1.32,-715.89,616.50,5.7,0.00,0.00,0.00,0.00,0.05,-7.49,-7.49,-0.11,-2.05,0.17,-0.52,44.69,-0.06,-0.62,1.83,100.0,0,0,126.16,0,0,0.0,0,0,0,0,6729,0,30.00,4,160.9,1,0,0.0,0.0,0.0,0.0,1,0,1.814,1.814,108.798,25.849,1,110.00,435.8,8750,0.0,0.0,110.0,110.0,433.0,0.00,0,0,1,333.3,64.7,64.7,83.7,83.7,34.0,-43.48,23.40,-12.3,2.5,1,-110.610,1.5,100.0,21.9,24.5,24.0,22.4,0,1,5.6,0.00,0.00,0.00,0.00,5367,5385,2464,1630,310.8,309.9,348.9,350.6,24.00,21.83,24.64,23.82,325.0,325.0,355.0,355.0,99.69,99.58,99.68,99.65,-0.21,-0.04,-0.22,-0.06,-0.1,-0.0,0.6,0.7,76.0,62.4,73.8,68.6,77.4,60.3,74.6,68.2,74.7,59.0,73.2,66.7,73.1,58.5,72.8,66.1,0.10,-0.09,0.10,0.09,0.00,137.25,136.97,126.16,126.16,152.3,2.9,0.19646882704388502,153.4033288299923,43.21220529140011,90.0254276904164,25.20711895668363
1.850,80.3,44.053942641674062,-78.681738421003928,108.2,126.5,68.2,164.4,1705.2,1705,160.6,0,1,1,0,1,1,0,0,0,100,1,1.186,26.0,0.0,1.716,108.798,66.0,0.0,26.0,26.0,26.0,26.0,-0.06,-0.21,0.31,378.0,-2.78,-2.92,-1.54,-1.14,-715.27,614.31,5.7,0.00,0.00,0.00,0.00,0.05,-7.49,-7.49,0.09,6.80,0.02,-8.47,44.60,-0.09,-0.50,1.45,100.0,0,0,125.13,0,0,0.0,0,0,0,0,6674,0,30.00,4,160.6,0,0,0.0,0.0,0.0,0.0,0,0,1.866,1.866,108.798,25.849,0,110.00,435.8,8750,0.0,0.0,110.0,110.0,433.0,0.00,0,0,1,166.7,59.0,59.0,70.0,70.0,34.0,-27.60,33.34,-36.9,15.8,1,-110.660,0.1,100.0,27.4,30.8,27.4,30.6,0,1,0.0,0.00,0.00,0.00,0.00,4869,5966,5149,4761,312.5,307.9,341.7,342.2,24.00,21.83,24.64,23.82,325.0,325.0,355.0,355.0,99.69,99.58,99.68,99.65,-0.08,0.04,-0.25,0.04,-0.0,-0.0,-0.3,-0.1,76.0,62.4,73.8,68.6,77.4,60.3,74.5,68.2,74.6,59.0,73.1,66.7,73.0,58.5,72.7,66.1,0.03,-0.01,0.08,0.07,0.00,137.15,137.05,125.13,125.13,152.3,2.9,0.3792097045171708,162.40587159903393,45.73291724397084,-7.202034272135904,-7.202033987623935
1.900,82.5,44.053921777412810,-78.681732575413491,45.9,-205.4,303.3,186.5,1707.4,1707,160.2,0,1,1,0,1,1,0,0,0,100,1,1.186,26.0,0.0,1.752,108.798,66.0,0.0,26.0,26.0,26.0,26.0,-0.10,-0.17,0.05,376.8,-2.38,-3.18,-1.35,-1.32,-714.62,611.99,5.7,0.00,0.00,0.00,0.00,0.05,-7.49,-7.49,0.40,3.56,-0.16,3.99,44.50,-0.07,-0.38,0.74,100.0,0,0,124.87,0,0,0.0,0,0,0,0,6660,0,30.00,4,160.2,1,0,0.0,0.0,0.0,0.0,0,0,1.920,1.920,108.798,25.849,1,110.00,435.8,8750,0.0,0.0,110.0,110.0,433.0,0.00,0,0,1,166.7,70.8,70.8,66.5,66.5,34.0,-14.83,5.96,-33.1,15.8,1,-110.720,-1.5,100.0,29.6,20.5,42.6,39.9,0,1,0.0,0.00,0.00,0.00,0.00,3422,1705,5351,6280,315.4,319.9,341.3,338.1,24.00,21.83,24.64,23.82,325.0,325.0,355.0,355.0,99.69,99.58,99.68,99.65,-0.04,-0.06,-0.21,-0.05,0.0,0.0,-0.3,-0.1,76.0,62.4,73.8,68.6,77.3,60.3,74.5,68.2,74.6,58.9,73.1,66.6,73.0,58.5,72.7,66.0,-0.04,0.05,0.05,0.04,0.00,136.67,136.52,124.86,124.87,152.3,2.9,0.20346989949375807,152.6831254027787,42.49200189263772,-147.64170129847855,-46.81322205760267
1.950,84.7,44.053904510437974,-78.681727809008976,-362.6,-164.3,14.2,35.8,1709.6,1710,159.9,0,1,1,0,1,1,0,0,0,100,1,1.186,26.0,0.0,1.788,108.798,66.0,0.0,26.0,26.0,26.0,26.0,-0.06,-0.16,-0.34,385.3,-2.80,-1.77,-1.64,-2.77,-714.09,610.07,5.8,0.00,0.00,0.00,0.00,0.05,-7.49,-7.49,0.30,-7.59,0.07,5.79,44.42,-0.05,-0.37,-0.57,100.0,0,0,124.32,0,0,0.0,0,0,0,0,6631,0,30.00,4,159.9,0,0,0.0,0.0,0.0,0.0,0,0,1.966,1.966,108.798,25.849,0,110.00,435.8,8750,0.0,0.0,110.0,110.0,433.0,0.00,0,0,1,333.3,86.9,86.9,57.1,57.1,34.0,-2.71,11.89,-35.8,19.4,1,-110.760,-3.6,100.0,11.5,12.3,43.3,41.7,0,1,0.0,0.00,0.00,0.00,0.00,1074,3193,5419,3812,322.1,316.6,341.0,344.4,24.00,21.83,24.64,23.82,325.0,325.0,355.0,355.0,99.69,99.58,99.68,99.65,0.08,0.10,-0.19,-0.07,0.0,0.0,-0.2,-0.2,76.0,62.4,73.8,68.6,77.3,60.3,74.5,68.1,74.5,58.9,73.1,66.6,73.0,58.5,72.7,66.0,-0.19,0.19,0.05,0.06,0.00,135.93,136.05,124.32,124.32,152.3,2.9,0.380525951808809,147.64170146918607,41.05159503821057,43.21220534830246,10.803050981435831
2.000,86.9,44.053884905226965,-78.681722323147184,45.8,49.5,-351.6,-283.9,1711.9,1712,159.6,0,1,1,0,1,1,0,0,0,100,1,1.186,26.0,0.0,1.857,108.798,66.0,0.0,26.0,26.0,26.0,26.0,0.03,-0.16,-0.56,393.6,-2.32,-1.63,-2.21,-1.11,-713.48,607.89,5.8,0.00,0.00,0.00,0.00,0.05,-7.49,-7.49,-0.20,-8.04,0.31,3.85,44.34,-0.01,-0.53,-1.27,100.0,0,0,123.80,0,0,0.0,0,0,0,0,6603,0,30.00,4,159.6,1,0,0.0,0.0,0.0,0.0,0,0,2.016,2.016,108.798,25.849,1,110.00,435.8,8750,0.0,0.0,110.0,110.0,433.0,0.00,0,0,1,333.3,79.4,79.4,86.5,86.5,34.0,-8.22,17.62,-3.4,6.5,1,-110.810,-4.1,100.0,13.8,14.8,25.7,27.5,0,1,0.0,0.00,0.00,0.00,0.00,3059,3812,998,2593,316.8,314.6,352.6,348.3,24.00,21.83,24.64,23.81,325.0,325.0,355.0,355.0,99.69,99.58,99.68,99.65,0.06,0.17,-0.04,0.04,-0.0,-0.0,-0.6,-0.5,76.0,62.4,73.8,68.6,77.2,60.2,74.4,68.1,74.5,58.9,73.0,66.6,72.9,58.5,72.6,66.0,-0.22,0.22,0.09,0.08,0.00,135.69,135.77,123.79,123.80,152.3,2.9,0.5831809324729333,157.00434593760895,43.5723069907813,90.02542769041696,25.20712009473094
2.050,89.1,44.053865300015957,-78.681716927217551,134.3,162.2,-85.2,-52.6,1714.1,1714,159.3,0,1,1,0,1,1,0,0,0,100,1,1.186,26.0,0.0,1.893,108.798,66.0,0.0,26.0,26.0,26.0,26.0,0.10,-0.18,-0.11,388.2,-2.62,-1.85,-1.14,-1.35,-712.88,605.71,5.8,0.00,0.00,0.00,0.00,0.05,-7.49,-7.49,-0.42,-1.35,0.10,-6.00,44.24,0.02,-0.56,-2.62,100.0,0,0,123.79,0,0,0.0,0,0,0,0,6603,0,30.00,4,159.3,0,0,0.0,0.0,0.0,0.0,0,0,2.066,2.066,108.798,25.849,0,110.00,435.8,8750,0.0,0.0,110.0,110.0,433.0,0.00,0,0,1,333.3,69.8,69.8,81.8,81.8,34.0,-4.49,30.32,-9.9,11.6,1,-110.860,-5.5,100.0,20.5,22.9,21.5,24.9,0,1,0.0,0.00,0.00,0.00,0.00,3724,4366,3873,2271,314.5,312.7,344.8,348.7,24.00,21.83,24.64,23.81,325.0,325.0,355.0,355.0,99.69,99.58,99.68,99.65,0.22,0.31,-0.00,0.23,-0.0,-0.0,-0.2,-0.5,76.0,62.4,73.8,68.6,77.2,60.2,74.3,68.1,74.4,58.9,73.0,66.5,72.9,58.5,72.5,65.9,-0.30,0.31,0.09,0.08,0.00,135.70,135.74,123.79,123.79,152.3,2.9,0.23345235059857505,156.64424423822777,43.572307047683665,-54.01525661425012,-7.202033987623864
2.100,91.4,44.053845784737106,-78.681711441355745,-31.6,-50.5,126.2,100.8,1716.3,1716,159.0,0,1,1,0,1,1,0,0,0,100,1,1.186,26.0,0.0,1.929,108.798,66.0,0.0,26.0,26.0,26.0,26.0,0.20,-0.18,-0.13,385.1,-2.21,-1.94,-1.68,-0.92,-712.27,603.54,5.8,0.00,0.00,0.00,0.00,0.05,-7.49,-7.49,-0.48,-2.36,-0.09,-2.43,44.15,0.06,-0.50,-3.12,100.0,0,0,123.60,0,0,0.0,0,0,0,0,6593,0,30.00,4,159.0,1,0,0.0,0.0,0.0,0.0,0,0,2.118,2.118,108.798,25.849,1,110.00,435.8,8750,0.0,0.0,110.0,110.0,433.0,0.00,0,0,1,166.7,73.8,73.8,75.6,75.6,34.0,2.96,23.81,-15.9,24.3,1,-110.920,-7.0,100.0,18.9,20.4,27.8,29.9,0,1,0.0,0.00,0.00,0.00,0.00,4102,3298,5228,4071,314.6,315.8,342.4,343.9,24.00,21.82,24.64,23.81,325.0,325.0,355.0,355.0,99.69,99.58,99.68,99.65,0.31,0.38,0.05,0.29,0.0,-0.0,-0.2,-0.4,76.0,62.4,73.8,68.6,77.1,60.2,74.3,68.0,74.4,58.8,72.9,66.5,72.8,58.4,72.5,65.9,-0.39,0.38,0.08,0.07,0.00,135.25,135.44,123.60,123.61,152.3,2.9,0.2988310559496787,151.60282027618393,42.85210359201891,-57.616273892574554,-3.601017562835551
2.150,93.6,44.053827438576349,-78.681706225290441,96.8,96.6,-6.6,13.2,1718.5,1718,158.6,0,1,1,0,1,1,0,0,0,100,1,1.186,26.0,0.0,1.998,108.798,66.0,2.4,26.0,26.0,26.0,26.0,0.26,-0.21,-0.19,383.7,-1.86,-2.60,-2.30,-1.71,-711.69,601.50,5.8,0.00,0.00,0.00,0.00,0.06,-7.49,-7.49,-0.52,1.21,-0.08,-0.41,44.06,0.10,-0.53,-5.20,100.0,0,0,123.38,0,0,0.0,0,0,0,0,6581,0,30.00,4,158.6,0,0,0.0,0.0,0.0,0.0,0,0,2.166,2.166,108.798,25.849,0,110.00,435.8,8750,0.0,0.0,110.0,110.0,433.0,0.00,0,0,1,333.3,67.6,67.6,76.0,76.0,34.0,7.61,46.36,-9.0,21.6,1,-110.970,-8.9,100.0,23.8,25.2,27.4,30.6,0,1,0.0,0.00,0.00,0.00,0.00,3003,4697,3687,2942,316.4,311.8,346.0,347.1,24.00,21.82,24.64,23.81,325.0,325.0,355.0,355.0,99.69,99.58,99.68,99.65,0.42,0.48,0.17,0.34,-0.1,-0.2,-0.2,-0.6,76.0,62.4,73.7,68.6,77.1,60.2,74.3,68.0,74.4,58.9,72.9,66.5,72.8,58.4,72.5,65.9,-0.48,0.49,0.09,0.08,0.00,134.80,135.24,123.38,123.39,152.3,2.9,0.3844476557348217,150.88261684897032,43.21220529140011,-10.803051265947659,3.6010175628356222
2.200,95.8,44.053808103161820,-78.681700649496477,-54.4,5.0,145.9,132.5,1720.7,1721,158.2,0,1,1,0,1,1,0,0,0,100,1,1.186,26.0,0.0,2.037,108.798,66.0,4.3,26.0,26.0,26.0,26.0,0.36,-0.25,0.07,379.9,-2.31,-2.00,-0.59,-1.37,-711.07,599.35,5.8,0.00,0.00,0.00,0.00,0.06,-7.49,-7.49,-0.47,-0.76,-0.06,0.83,43.93,0.14,-0.48,-5.68,100.0,0,0,122.97,0,0,0.0,0,0,0,0,6559,0,30.00,4,158.2,1,0,0.0,0.0,0.0,0.0,0,0,2.216,2.216,108.798,25.849,1,110.00,435.8,8750,0.0,0.0,110.0,110.0,433.0,0.00,0,0,1,333.3,69.8,69.8,67.3,67.3,34.0,10.57,45.84,7.7,40.6,1,-111.020,-11.5,100.0,21.1,25.5,34.7,37.2,0,1,0.0,0.00,0.00,0.00,0.00,2893,4411,3546,4624,316.9,312.6,345.6,342.6,24.00,21.82,24.64,23.81,325.0,325.0,355.0,355.0,99.69,99.58,99.68,99.65,0.59,0.62,0.25,0.43,-0.2,-0.2,-0.3,-0.5,76.0,62.4,73.7,68.6,77.1,60.2,74.2,68.0,74.3,58.9,72.8,66.5,72.7,58.4,72.4,65.9,-0.63,0.63,0.07,0.05,0.00,134.21,134.71,122.87,123.07,152.3,2.9,0.4438468204234429,150.52251514958917,43.212205348302476,-7.202033987623224,7.20203455664759
2.250,97.9,44.053789846933221,-78.681695433431159,-92.1,-16.5,-69.6,11.2,1722.9,1723,157.8,0,1,1,0,1,1,0,0,0,100,1,1.186,26.0,0.0,2.070,108.798,66.0,2.6,26.0,26.0,26.0,26.0,0.47,-0.22,-0.29,382.4,-1.76,-1.78,-2.25,-1.77,-710.49,597.32,5.8,0.00,0.00,0.00,0.00,0.06,-7.49,-7.49,-0.53,-2.46,-0.12,-4.95,43.82,0.18,-0.47,-6.87,100.0,0,0,122.72,0,0,0.0,0,0,0,0,6546,0,30.00,4,157.8,0,0,0.0,0.0,0.0,0.0,0,0,2.264,2.264,108.798,25.849,0,110.00,435.8,8750,0.0,0.0,110.0,110.0,433.0,0.00,0,0,1,333.3,73.6,73.6,67.7,67.7,34.0,15.40,56.89,0.5,46.9,1,-111.060,-14.0,100.0,16.5,24.6,31.3,37.8,0,1,0.0,0.00,0.00,0.00,0.00,2512,4660,3824,4369,319.0,312.3,345.6,342.7,23.99,21.82,24.64,23.81,325.0,325.0,355.0,355.0,99.69,99.58,99.68,99.65,0.83,0.86,0.35,0.53,-0.3,-0.2,-0.2,-0.4,76.0,62.4,73.7,68.6,77.0,60.2,74.2,68.0,74.3,58.9,72.8,66.5,72.7,58.4,72.4,65.9,-0.80,0.79,0.09,0.05,0.00,133.72,134.39,122.67,122.78,152.3,2.9,0.594474557908074,150.162413450208,43.93240874706487,28.80813680403122,32.40915351333108
2.300,100.1,44.053770601450850,-78.681689677772880,256.3,148.7,-20.2,-16.0,1725.1,1725,157.4,0,1,1,0,1,1,0,0,0,100,1,1.186,26.0,0.0,2.106,108.798,66.0,1.8,26.0,26.0,26.0,26.0,0.61,-0.25,0.23,375.6,-2.80,-3.07,-1.56,-1.28,-709.85,595.18,5.8,0.00,0.00,0.00,0.00,0.06,-7.49,-7.49,-0.57,2.80,-0.12,3.88,43.70,0.23,-0.58,-10.42,100.0,0,0,122.44,0,0,0.0,0,0,0,0,6531,0,30.00,4,157.4,1,0,0.0,0.0,0.0,0.0,0,0,2.316,2.316,108.798,25.849,1,110.00,435.8,8750,0.0,0.0,110.0,110.0,433.0,0.00,0,0,1,333.3,54.6,54.6,77.5,77.5,34.0,28.99,106.11,2.6,45.6,1,-111.110,-15.1,100.0,29.3,32.1,30.3,36.9,0,1,0.0,0.00,0.00,0.00,0.00,5583,6926,1050,4265,310.3,305.7,351.8,343.2,23.99,21.82,24.64,23.81,325.0,325.0,355.0,355.0,99.69,99.58,99.68,99.65,0.73,0.90,0.50,0.63,-0.1,-0.1,-0.3,-0.5,76.0,62.4,73.7,68.6,77.0,60.3,74.1,68.0,74.3,58.9,72.8,66.4,72.7,58.5,72.3,65.8,-0.85,0.88,0.10,0.06,0.00,133.70,134.56,122.09,122.78,152.3,2.9,0.698212002188447,153.4033288299923,46.45312069963558,-18.005085822595106,18.005084969059695
2.350,102.3,44.053751535832809,-78.681683832182443,-101.6,30.9,108.0,127.1,1727.2,1727,156.9,0,1,1,0,1,1,0,0,0,100,1,1.186,26.0,0.0,2.178,108.798,66.0,1.8,26.0,26.0,26.0,26.0,0.73,-0.18,0.23,372.8,-2.32,-3.11,-2.42,-2.33,-709.20,593.06,5.8,0.00,0.00,0.00,0.00,0.06,-7.49,-7.49,-0.22,6.25,0.15,5.71,43.59,0.34,-0.43,-11.45,100.0,0,0,122.32,0,0,0.0,0,0,0,0,6524,0,30.00,4,156.9,0,0,0.0,0.0,0.0,0.0,1,0,2.366,2.366,108.798,25.849,0,110.00,435.8,8750,0.0,0.0,110.0,110.0,433.0,0.00,0,0,1,333.3,64.3,64.3,58.1,58.1,34.0,15.08,68.29,16.7,117.2,1,-111.170,-14.5,100.0,24.2,33.6,35.6,43.3,0,1,0.0,0.00,0.00,0.00,0.00,2522,4794,4910,7174,318.5,310.8,342.4,335.3,23.99,21.82,24.64,23.81,325.0,325.0,355.0,355.0,99.69,99.58,99.68,99.65,0.87,0.87,0.62,0.82,-0.1,-0.1,-0.2,-0.3,76.0,62.4,73.7,68.6,77.0,60.3,74.1,68.0,74.2,58.9,72.7,66.4,72.7,58.5,72.3,65.9,-0.84,0.86,0.07,0.04,0.00,133.07,134.32,122.08,122.56,152.3,2.9,0.7862569554541313,148.36190486794848,45.73291724397084,-54.015256614250404,3.6010169938120384
2.400,104.5,44.053733549400690,-78.681678256388494,-160.3,-191.6,76.6,147.6,1729.4,1729,156.6,0,1,1,0,1,1,0,0,0,100,1,1.186,26.0,0.0,2.214,108.798,66.0,3.1,26.0,26.0,26.0,26.0,0.67,-0.20,-0.02,376.9,-3.36,-2.54,-1.73,-1.35,-708.58,591.06,5.8,0.00,0.00,0.00,0.00,0.06,-7.49,-7.49,-0.17,-3.60,0.32,2.08,43.49,0.41,-0.43,-9.05,100.0,0,0,121.77,0,0,0.0,0,0,0,0,6495,0,30.00,4,156.6,1,0,0.0,0.0,0.0,0.0,1,0,2.414,2.414,108.798,25.849,1,110.00,435.8,8750,0.0,0.0,110.0,110.0,433.0,0.00,0,0,1,333.3,75.6,75.6,61.9,61.9,34.0,13.96,45.55,18.5,107.7,1,-111.210,-14.2,100.0,16.2,24.0,39.5,50.7,0,1,0.0,0.00,0.00,0.00,0.00,2334,3412,2981,7252,318.8,315.3,345.9,335.7,23.99,21.82,24.64,23.81,325.0,325.0,355.0,355.0,99.69,99.58,99.68,99.65,1.03,1.03,0.76,0.86,-0.3,-0.1,-0.1,-0.3,76.0,62.4,73.7,68.6,76.9,60.3,74.1,68.0,74.2,58.9,72.7,66.5,72.6,58.5,72.3,65.9,-0.83,0.82,0.06,0.02,0.00,132.56,133.32,121.49,122.05,152.3,2.9,0.6994998213009065,148.00180316856725,46.81322239901679,28.80813708854248,36.010171645190354
2.450,106.7,44.053714573714807,-78.681672141001570,9.2,26.3,-215.6,-204.2,1731.6,1732,156.1,0,1,1,0,1,1,0,0,0,100,1,1.186,26.0,0.0,2.250,108.798,66.0,4.9,26.0,26.0,26.0,26.0,0.66,-0.28,-0.15,383.0,-2.98,-1.56,-1.51,-1.42,-707.90,588.95,5.9,0.00,0.00,0.00,0.00,0.06,-7.49,-7.49,-0.39,-3.38,0.17,-4.89,43.36,0.45,-0.52,-9.95,100.0,0,0,121.19,0,0,0.0,0,0,0,0,6464,0,30.00,4,156.1,0,0,0.0,0.0,0.0,0.0,1,0,2.466,2.466,108.798,25.849,0,110.00,435.8,8750,0.0,0.0,110.0,110.0,433.0,0.00,0,0,1,333.3,69.6,69.6,72.9,72.9,34.0,21.14,97.35,10.0,39.7,1,-111.260,-13.5,100.0,16.6,25.4,28.7,40.5,0,1,0.0,0.00,0.00,0.00,0.00,2969,6379,1582,3163,317.3,307.6,350.3,346.2,23.99,21.82,24.64,23.81,325.0,325.0,355.0,355.0,99.69,99.58,99.68,99.65,1.07,1.17,0.87,0.94,-0.3,-0.3,-0.3,-0.6,76.0,62.4,73.7,68.6,76.9,60.3,74.1,68.0,74.2,58.9,72.7,66.4,72.6,58.5,72.3,65.9,-0.79,0.80,0.09,0.04,0.00,132.09,132.99,120.95,121.42,152.3,2.9,0.7324616030891995,151.24271857680273,49.333934408489874,-18.00508525357145,18.00508553808335
2.500,108.8,44.053695777893239,-78.681665935682489,86.8,135.0,-18.2,-113.6,1733.7,1734,155.6,0,1,1,0,1,1,0,0,0,100,1,1.186,26.0,0.0,2.322,108.798,66.0,5.3,26.0,26.0,26.0,26.0,0.69,-0.25,-0.03,381.5,-3.17,-3.33,-1.97,-1.16,-707.21,586.86,5.9,0.00,0.00,0.00,0.00,0.07,-7.49,-7.49,-0.40,1.83,-0.11,-5.37,43.21,0.50,-0.53,-11.61,100.0,0,0,120.95,0,0,0.0,0,0,0,0,6452,0,30.00,4,155.6,1,0,0.0,0.0,0.0,0.0,1,0,2.518,2.518,108.798,25.849,1,110.00,435.8,8750,0.0,0.0,110.0,110.0,433.0,0.00,0,0,1,333.3,67.0,67.0,69.9,69.9,34.0,18.91,54.52,30.5,53.2,1,-111.320,-11.8,100.0,21.0,32.1,27.8,34.8,0,1,0.0,0.00,0.00,0.00,0.00,2930,3678,3831,3785,317.2,313.4,345.0,344.8,23.99,21.82,24.64,23.81,325.0,325.0,355.0,355.0,99.69,99.58,99.68,99.65,1.01,1.01,0.98,1.14,-0.3,-0.2,-0.2,-0.7,75.9,62.4,73.7,68.6,76.9,60.4,74.0,68.0,74.1,59.0,72.6,66.4,72.5,58.6,72.2,65.9,-0.71,0.71,0.09,0.06,0.00,131.68,132.62,120.71,121.19,152.3,2.9,0.7345066371381541,146.2012946432101,48.61373095282512,-57.61627389257313,3.6010169938118963
2.550,111.0,44.053678061257600,-78.681660000159894,-85.7,-99.3,43.4,150.9,1735.9,1736,155.1,0,1,1,0,1,1,0,0,0,100,1,1.186,26.0,0.0,2.361,108.798,66.0,5.8,26.0,26.0,26.0,26.0,0.74,-0.29,0.00,379.9,-3.05,-2.65,-2.18,-1.19,-706.55,584.89,5.9,0.00,0.00,0.00,0.00,0.07,-7.49,-7.49,-0.39,-2.67,-0.32,-6.60,43.08,0.52,-0.49,-8.81,100.0,0,0,120.51,0,0,0.0,0,0,0,0,6428,0,30.00,4,155.1,0,0,0.0,0.0,0.0,0.0,1,0,2.564,2.564,108.798,25.849,0,110.00,435.8,8750,0.0,0.0,110.0,110.0,433.0,0.00,0,0,1,333.3,72.9,72.9,64.2,64.2,34.0,10.20,61.33,36.7,90.8,1,-111.360,-8.4,100.0,16.7,27.1,30.0,42.3,0,1,0.0,0.00,0.00,0.00,0.00,1964,4305,4692,5745,320.1,312.4,342.4,339.7,23.99,21.82,24.64,23.81,325.0,325.0,355.0,355.0,99.69,99.58,99.68,99.65,0.94,1.00,0.95,1.12,-0.5,-0.3,-0.2,-0.5,75.9,62.4,73.7,68.6,76.8,60.4,74.0,68.0,74.1,59.0,72.6,66.5,72.5,58.6,72.2,65.9,-0.50,0.50,0.07,0.04,0.00,131.03,132.06,120.32,120.70,152.3,2.9,0.7947955712005446,145.48109118754542,49.694036107871064,25.207119241195244,36.010171645190425
2.600,113.1,44.053659445300362,-78.681653525044325,-32.9,-100.4,-49.7,-137.8,1738.0,1738,154.7,0,1,1,0,1,1,0,0,0,100,1,1.186,26.0,0.0,2.397,108.798,66.0,4.8,26.0,26.0,26.0,26.0,0.55,-0.28,-0.33,385.6,-2.53,-1.18,-1.58,-1.72,-705.83,582.82,5.9,0.00,0.00,0.00,0.00,0.07,-7.49,-7.49,-0.65,-5.24,-0.52,-4.71,42.94,0.53,-0.55,-7.05,100.0,0,0,119.98,0,0,0.0,0,0,0,0,6400,0,30.00,4,154.7,1,0,0.0,0.0,0.0,0.0,1,0,2.616,2.616,108.798,25.849,1,110.00,435.8,8750,0.0,0.0,110.0,110.0,433.0,0.00,0,0,1,333.3,74.9,74.9,72.8,72.8,34.0,7.75,68.22,19.1,57.3,1,-111.420,-4.2,100.0,15.0,22.1,27.5,35.4,0,1,0.0,0.00,0.00,0.00,0.00,1787,5648,2792,3976,320.6,309.3,348.3,344.0,23.99,21.82,24.64,23.81,325.0,325.0,355.0,355.0,99.69,99.58,99.68,99.65,0.77,0.85,0.89,1.03,-0.5,-0.2,-0.4,-0.6,75.9,62.4,73.7,68.6,76.8,60.4,74.0,68.0,74.1,59.0,72.6,66.5,72.5,58.6,72.2,65.9,-0.27,0.26,0.09,0.06,0.00,130.67,131.68,119.85,120.12,152.3,2.9,0.6998571282769077,148.72200656732963,52.214748117344165,-18.005085538084415,18.00508553808342
2.650,115.3,44.053640919275281,-78.681646959996598,213.8,190.2,-56.0,-165.8,1740.2,1740,154.2,0,1,1,0,1,1,0,0,0,100,1,1.186,26.0,0.0,2.433,108.798,66.0,4.6,26.0,26.0,26.0,26.0,0.62,-0.29,0.08,378.9,-2.99,-2.20,-1.37,-1.16,-705.10,580.76,5.9,0.00,0.00,0.00,0.00,0.07,-7.49,-7.49,-0.75,3.17,-0.69,0.06,42.80,0.52,-0.58,-7.47,100.0,0,0,119.80,0,0,0.0,0,0,0,0,6390,0,30.00,4,154.2,0,0,0.0,0.0,0.0,0.0,1,0,2.668,2.668,108.798,25.849,0,110.00,435.8,8750,0.0,0.0,110.0,110.0,433.0,0.00,0,0,1,333.3,55.6,55.6,76.3,76.3,34.0,7.65,105.37,16.1,57.9,1,-111.460,-0.7,100.0,25.7,31.6,24.7,27.2,0,1,0.0,0.00,0.00,0.00,0.00,5335,8186,2385,4289,311.2,302.1,348.7,343.9,23.99,21.82,24.64,23.81,325.0,325.0,355.0,355.0,99.69,99.58,99.68,99.65,0.46,0.68,0.85,1.03,-0.2,-0.2,-0.5,-0.7,75.9,62.4,73.7,68.6,76.7,60.4,73.9,68.0,74.0,59.0,72.5,66.4,72.4,58.6,72.1,65.8,-0.06,0.09,0.09,0.08,0.00,130.94,131.80,119.63,119.97,152.3,2.9,0.6891298861608021,143.68058263373698,51.494544661679406,-14.404067975247301,14.404067975247798
2.700,117.4,44.053623562368287,-78.681640664745359,119.7,87.4,97.3,174.6,1742.3,1742,153.7,0,1,1,0,1,1,0,0,0,100,1,1.186,26.0,0.0,2.505,108.798,66.0,4.9,26.0,26.0,26.0,26.0,0.59,-0.28,0.42,372.3,-3.38,-3.41,-2.14,-3.51,-704.40,578.83,5.9,0.00,0.00,0.00,0.00,0.07,-7.49,-7.49,-0.37,10.22,-0.70,2.20,42.67,0.46,-0.44,-4.51,100.0,0,0,119.83,0,0,0.0,0,0,0,0,6392,0,30.00,4,153.7,1,0,0.0,0.0,0.0,0.0,1,0,2.716,2.716,108.798,25.849,1,110.00,435.8,8750,0.0,0.0,110.0,110.0,433.0,0.00,0,0,1,166.7,55.4,55.4,66.5,66.5,34.0,-5.46,52.03,24.3,90.9,1,-111.510,2.3,100.0,31.7,36.0,29.5,35.9,0,1,0.0,0.00,0.00,0.00,0.00,4520,5022,5673,5391,313.0,309.9,340.3,339.9,23.99,21.82,24.64,23.81,325.0,325.0,355.0,355.0,99.69,99.58,99.68,99.65,0.31,0.38,0.63,0.85,-0.2,-0.2,-0.2,-0.4,75.9,62.4,73.7,68.6,76.7,60.5,73.9,68.0,74.0,59.0,72.5,66.4,72.4,58.6,72.1,65.8,0.13,-0.10,0.08,0.05,0.00,130.81,131.20,119.77,119.88,152.3,2.9,0.7764663547121665,147.2815997698049,53.655154914868945,28.80813708854305,28.808136519519323
2.750,119.5,44.053604137021594,-78.681633560104672,-233.1,-204.8,287.9,320.6,1744.4,1744,153.2,0,1,1,0,1,1,0,0,0,100,1,1.186,26.0,0.0,2.541,108.798,66.0,4.8,26.0,26.0,26.0,26.0,0.30,-0.26,0.04,373.5,-3.04,-2.63,-1.57,-1.65,-703.61,576.67,5.9,0.00,0.00,0.00,0.00,0.07,-7.49,-7.49,-0.07,0.12,-0.58,0.27,42.54,0.30,-0.36,0.48,100.0,0,0,119.29,0,0,0.0,0,0,0,0,6363,0,30.00,4,153.2,0,0,0.0,0.0,0.0,0.0,1,0,2.768,2.768,108.798,25.849,0,110.00,435.8,8750,0.0,0.0,110.0,110.0,433.0,0.00,0,0,1,166.7,74.3,74.3,54.7,54.7,34.0,-2.13,15.69,9.9,78.7,1,-111.570,3.3,100.0,20.1,25.8,43.9,51.9,0,1,0.0,0.00,0.00,0.00,0.00,2088,2586,5331,7090,319.5,317.4,341.3,335.7,23.99,21.82,24.64,23.81,325.0,325.0,355.0,355.0,99.69,99.58,99.68,99.65,0.27,0.21,0.37,0.47,-0.3,-0.2,-0.2,-0.3,75.9,62.4,73.7,68.6,76.7,60.4,73.9,68.0,74.0,59.0,72.5,66.4,72.4,58.6,72.1,65.9,0.19,-0.18,0.05,0.02,0.00,130.01,130.04,119.29,119.29,152.3,2.9,0.3989987468652001,146.56139634259128,54.37535831363134,-100.82847924087645,-21.606102531895388
