Time,Distance,GPS Latitude,GPS Longitude,Damper Velocity (Calc) FL,Damper Velocity (Calc) FR,Damper Velocity (Calc) RL,Damper Velocity (Calc) RR,Corr Dist,Corr Dist (Unstretched),Corr Speed,ABS Active,ABS Enabled,AID Allow Tire Blankets,AID Auto Blip,AID Auto Clutch,AID Auto Shift,AID Fuel Rate,AID Ideal Line,AID Mech Damage,AID Stability,AID Tire Wear Rate,Air Density,Air Temp,Ballast,Best Lap Delta,Best Lap Time,Brake Bias,Brake Pos,Brake Temp FL,Brake Temp FR,Brake Temp RL,Brake Temp RR,CG Accel Lateral,CG Accel Longitudinal,CG Accel Vertical,CG Height,Camber FL,Camber FR,Camber RL,Camber RR,Car Coord X,Car Coord Y,Car Coord Z,Car Damage Front,Car Damage Left,Car Damage Rear,Car Damage Right,Car Pos Norm,Caster FL,Caster FR,Chassis Pitch Angle,Chassis Pitch Rate,Chassis Roll Angle,Chassis Roll Rate,Chassis Velocity X,Chassis Velocity Y,Chassis Velocity Z,Chassis Yaw Rate,Clutch Pos,DRS Active,DRS Available,Drive Train Speed,ERS Heat Charging,ERS Is Charging,ERS Max Energy,ERS Power Level,ERS Recovery Level,Engine Brake Setting,Engine Limiter,Engine RPM,Flags,Fuel Level,Gear,Ground Speed,HR Sample Clock,In Pit,KERS Charge,KERS Deployed Energy,KERS Input,KERS Max Energy,LR Sample Clock,Lap Invalidated,Lap Time,Lap Time2,Last Lap Time,Last Sector Time,MR Sample Clock,Max Fuel,Max Power,Max RPM,Max Sus Travel FL,Max Sus Travel FR,Max Sus Travel RL,Max Sus Travel RR,Max Torque,Max Turbo Boost,Num Tires Off Track,Penalties Enabled,Position,Raw Data Sample Rate,Ride Height FL,Ride Height FR,Ride Height RL,Ride Height RR,Road Temp,Self Align Torque FL,Self Align Torque FR,Self Align Torque RL,Self Align Torque RR,Session Lap Count,Session Time Left,Steering Angle,Surface Grip,Suspension Travel FL,Suspension Travel FR,Suspension Travel RL,Suspension Travel RR,TC Active,TC Enabled,Throttle Pos,Tire Dirt Level FL,Tire Dirt Level FR,Tire Dirt Level RL,Tire Dirt Level RR,Tire Load FL,Tire Load FR,Tire Load RL,Tire Load RR,Tire Loaded Radius FL,Tire Loaded Radius FR,Tire Loaded Radius RL,Tire Loaded Radius RR,Tire Pressure FL,Tire Pressure FR,Tire Pressure RL,Tire Pressure RR,Tire Radius FL,Tire Radius FR,Tire Radius RL,Tire Radius RR,Tire Rubber Grip FL,Tire Rubber Grip FR,Tire Rubber Grip RL,Tire Rubber Grip RR,Tire Slip Angle FL,Tire Slip Angle FR,Tire Slip Angle RL,Tire Slip Angle RR,Tire Slip Ratio FL,Tire Slip Ratio FR,Tire Slip Ratio RL,Tire Slip Ratio RR,Tire Temp Core FL,Tire Temp Core FR,Tire Temp Core RL,Tire Temp Core RR,Tire Temp Inner FL,Tire Temp Inner FR,Tire Temp Inner RL,Tire Temp Inner RR,Tire Temp Middle FL,Tire Temp Middle FR,Tire Temp Middle RL,Tire Temp Middle RR,Tire Temp Outer FL,Tire Temp Outer FR,Tire Temp Outer RL,Tire Temp Outer RR,Toe In FL,Toe In FR,Toe In RL,Toe In RR,Turbo Boost,Wheel Angular Speed FL,Wheel Angular Speed FR,Wheel Angular Speed RL,Wheel Angular Speed RR,Wind Direction,Wind Speed,CG Distance,Lateral Velocity,Longitudinal Velocity,Lateral Acceleration,Longitudinal Acceleration
s,m,deg,deg,mm/s,mm/s,mm/s,mm/s,m,m,km/h,,,,,,,,,%,%,,kg/m3,C,kg,s,s,%,%,C,C,C,C,G,G,G,mm,deg,deg,deg,deg,m,m,m,,,,,,deg,deg,deg,deg/s,deg,deg/s,m/s,m/s,m/s,deg/s,%,,,rad/s,,,MJ,,,,,rpm,,l,,km/h,,,%,kJ,%,MJ,,,s,s,s,s,,l,hp,rpm,mm,mm,mm,mm,N.m,,,,,Hz,mm,mm,mm,mm,C,N.m,N.m,N.m,N.m,,s,deg,%,mm,mm,mm,mm,,,%,,,,,N,N,N,N,mm,mm,mm,mm,psi,psi,psi,psi,mm,mm,mm,mm,%,%,%,%,deg,deg,deg,deg,%,%,%,%,C,C,C,C,C,C,C,C,C,C,C,C,C,C,C,C,deg,deg,deg,deg,,rad/s,rad/s,rad/s,rad/s,deg,km/h,G,Km/h,Km/h,Km/h^2,Km/h^2
0.000,0.0,44.054630352906109,-78.681952819274784,-49.4,-27.3,78.3,88.0,6765.9,6766,148.6,0,1,1,0,1,1,0,0,0,100,1,1.186,26.0,0.0,0.000,65.681,66.0,0.0,26.0,26.0,26.0,26.0,-0.09,0.39,-0.13,382.1,-1.95,-2.36,-1.46,-2.58,-739.11,690.78,5.7,0.00,0.00,0.00,0.00,0.00,-7.49,-7.49,-0.30,-2.89,-0.06,-0.37,41.30,-0.07,-0.28,1.40,100.0,0,0,118.72,0,0,0.0,0,0,0,0,7959,0,30.00,3,148.6,0,0,0.0,0.0,0.0,0.0,0,0,0.014,0.014,68.774,24.308,0,110.00,435.8,8750,0.0,0.0,110.0,110.0,433.0,0.00,0,0,1,333.3,78.7,78.7,61.4,61.4,34.0,-10.28,7.64,-25.1,10.5,4,-272.240,1.4,100.0,18.7,16.4,41.0,38.2,0,1,98.4,0.00,0.00,0.00,0.00,2463,3210,5211,3318,318.8,316.7,340.8,346.3,25.42,23.51,24.30,23.96,325.0,325.0,355.0,355.0,99.86,100.00,99.99,100.00,-0.12,-0.09,-0.18,-0.09,-0.0,-0.1,2.1,2.2,84.9,72.9,71.6,69.5,81.0,69.5,72.2,70.4,78.2,67.2,70.5,68.3,75.1,65.7,69.8,67.5,0.08,-0.09,0.05,0.05,0.00,126.59,126.52,118.72,118.72,176.9,6.4,0.4208325082500163
0.050,2.1,44.054612096677509,-78.681947603209466,63.3,101.2,-71.5,-80.1,6768.0,6768,149.4,0,1,1,0,1,1,0,0,0,100,1,1.186,26.0,0.0,0.009,65.681,66.0,0.0,26.0,26.0,26.0,26.0,-0.10,0.40,-0.11,381.8,-2.12,-2.27,-1.37,-1.54,-738.53,688.75,5.7,0.00,0.00,0.00,0.00,0.00,-7.49,-7.49,-0.34,0.98,-0.01,-0.28,41.51,-0.07,-0.33,1.61,100.0,0,0,119.58,0,0,0.0,0,0,0,0,8016,0,30.00,3,149.4,1,0,0.0,0.0,0.0,0.0,0,0,0.066,0.066,68.774,24.308,1,110.00,435.8,8750,0.0,0.0,110.0,110.0,433.0,0.00,0,0,1,333.3,74.1,74.1,65.5,65.5,34.0,-11.56,6.05,-22.4,5.3,4,-272.290,1.4,100.0,21.9,21.5,37.4,34.2,0,1,98.4,0.00,0.00,0.00,0.00,2389,3130,4573,3987,318.7,316.2,343.1,344.4,25.42,23.51,24.30,23.96,325.0,325.0,355.0,355.0,99.86,100.00,99.99,100.00,-0.15,-0.12,-0.24,-0.11,-0.0,-0.1,2.3,2.5,84.9,72.9,71.6,69.5,80.9,69.5,72.2,70.4,78.2,67.2,70.5,68.3,75.0,65.7,69.8,67.5,0.08,-0.09,0.06,0.06,0.00,127.35,127.26,119.58,119.58,176.9,6.4,0.4267317658670374,146.56139631414013,41.77179849387533
0.100,4.2,44.054593750516752,-78.681942387144147,-25.6,-109.1,46.0,118.1,6770.1,6770,150.2,0,1,1,0,1,1,0,0,0,100,1,1.186,26.0,0.0,0.009,65.681,66.0,0.0,26.0,26.0,26.0,26.0,-0.14,0.39,0.14,380.1,-2.40,-2.95,-1.22,-1.19,-737.95,686.71,5.7,0.00,0.00,0.00,0.00,0.00,-7.49,-7.49,-0.35,-2.58,0.02,1.90,41.74,-0.07,-0.32,1.42,100.0,0,0,119.33,0,0,0.0,0,0,0,0,8000,0,30.00,3,150.2,0,0,0.0,0.0,0.0,0.0,0,0,0.117,0.117,68.774,24.308,0,110.00,435.8,8750,0.0,0.0,110.0,110.0,433.0,0.00,0,0,1,333.3,77.6,77.6,65.5,65.5,34.0,-19.82,6.77,-30.4,5.7,4,-272.340,1.4,100.0,20.6,16.0,39.7,40.1,0,1,98.4,0.00,0.00,0.00,0.00,3405,2457,5430,4918,316.2,318.8,340.2,341.8,25.42,23.50,24.30,23.96,325.0,325.0,355.0,355.0,99.86,100.00,99.99,100.00,-0.17,-0.11,-0.24,-0.09,-0.1,-0.1,1.7,1.8,84.9,72.9,71.6,69.5,80.9,69.4,72.2,70.4,78.1,67.2,70.5,68.4,75.0,65.6,69.8,67.5,0.08,-0.09,0.06,0.04,0.00,128.00,127.86,119.33,119.33,176.9,6.4,0.4373785545725808,142.9603792065234,40.69149333882938,-25.20711952570707,-10.803051550459486
0.150,6.3,44.054576393609757,-78.681937440875316,21.0,78.1,-56.9,-136.7,6772.2,6772,150.9,0,1,1,0,1,1,0,0,0,100,1,1.186,26.0,0.0,0.012,65.681,66.0,0.0,26.0,26.0,26.0,26.0,-0.14,0.45,-0.12,382.4,-2.45,-2.69,-1.06,-1.14,-737.40,684.78,5.7,0.00,0.00,0.00,0.00,0.01,-7.49,-7.49,-0.43,0.09,0.06,2.71,41.92,-0.06,-0.37,1.49,100.0,0,0,120.85,0,0,0.0,0,0,0,0,8102,0,30.00,3,150.9,1,0,0.0,0.0,0.0,0.0,0,0,0.164,0.164,68.774,24.308,1,110.00,435.8,8750,0.0,0.0,110.0,110.0,433.0,0.00,0,0,1,333.3,74.5,74.5,69.4,69.4,34.0,-21.87,3.99,-19.0,2.8,4,-272.390,1.4,100.0,21.6,19.9,36.8,33.3,0,1,98.4,0.00,0.00,0.00,0.00,3665,1959,4714,3728,314.9,319.0,342.4,345.2,25.41,23.50,24.30,23.96,325.0,325.0,355.0,355.0,99.86,100.00,99.99,100.00,-0.15,-0.15,-0.21,-0.10,-0.1,-0.1,2.6,2.6,84.8,72.9,71.6,69.5,80.8,69.4,72.2,70.4,78.1,67.1,70.5,68.4,75.0,65.6,69.8,67.5,0.08,-0.07,0.06,0.05,0.00,128.64,128.42,120.85,120.85,176.9,6.4,0.48631265663151313,144.04068436156942,40.69149333882938,61.21729117089785,10.803050981435831
0.200,8.4,44.054557777652512,-78.681932224809998,-117.8,-77.2,-30.8,86.5,6774.3,6774,151.7,0,1,1,0,1,1,0,0,0,100,1,1.186,26.0,0.0,0.012,65.681,66.0,0.0,26.0,26.0,26.0,26.0,-0.06,0.47,0.06,382.6,-1.59,-2.46,-1.44,-2.43,-736.82,682.71,5.7,0.00,0.00,0.00,0.00,0.01,-7.49,-7.49,-0.50,-2.79,0.19,-1.35,42.15,-0.06,-0.33,0.88,100.0,0,0,120.65,0,0,0.0,0,0,0,0,8088,0,30.00,3,151.7,0,0,0.0,0.0,0.0,0.0,0,0,0.216,0.216,68.774,24.308,0,110.00,435.8,8750,0.0,0.0,110.0,110.0,433.0,0.00,0,0,1,333.3,79.6,79.6,66.1,66.1,34.0,-12.17,8.92,-26.8,20.4,4,-272.440,1.4,100.0,15.7,16.1,35.3,37.6,0,1,98.4,0.00,0.00,0.00,0.00,2823,3471,5236,5100,317.9,315.8,341.3,340.7,25.41,23.50,24.30,23.96,325.0,325.0,355.0,355.0,99.86,100.00,99.99,100.00,-0.16,-0.09,-0.20,-0.05,-0.1,-0.0,1.9,2.1,84.8,72.9,71.6,69.5,80.8,69.4,72.2,70.4,78.0,67.1,70.5,68.4,74.9,65.6,69.8,67.5,0.08,-0.08,0.07,0.05,0.00,129.21,129.15,120.65,120.65,176.9,6.4,0.4775981574503821,149.0821083236132,41.771798436972965,10.803051265947374,0.0
0.250,10.5,44.054539161695267,-78.681927008744694,7.3,76.1,-67.9,-149.9,6776.4,6776,152.4,0,1,1,0,1,1,0,0,0,100,1,1.186,26.0,0.0,0.015,65.681,66.0,0.0,26.0,26.0,26.0,26.0,-0.03,0.48,-0.20,386.2,-2.64,-2.07,-0.98,-1.63,-736.24,680.64,5.7,0.00,0.00,0.00,0.00,0.01,-7.49,-7.49,-0.61,-0.12,0.08,-5.29,42.34,-0.07,-0.34,1.17,100.0,0,0,122.19,0,0,0.0,0,0,0,0,8191,0,30.00,3,152.4,1,0,0.0,0.0,0.0,0.0,0,0,0.267,0.267,68.774,24.308,1,110.00,435.8,8750,0.0,0.0,110.0,110.0,433.0,0.00,0,0,1,333.3,79.2,79.2,70.1,70.1,34.0,-12.78,4.02,-13.9,10.1,4,-272.490,1.4,100.0,16.1,19.9,31.9,30.1,0,1,98.4,0.00,0.00,0.00,0.00,2602,2244,4363,4342,319.3,317.9,343.8,343.5,25.41,23.50,24.30,23.96,325.0,325.0,355.0,355.0,99.86,100.00,99.99,100.00,-0.13,-0.10,-0.18,-0.01,-0.1,-0.0,2.8,2.9,84.8,72.9,71.6,69.5,80.7,69.3,72.2,70.4,78.0,67.1,70.5,68.3,74.9,65.5,69.8,67.5,0.08,-0.09,0.09,0.07,0.00,129.79,129.79,122.19,122.19,176.9,6.4,0.5208646657242166,145.12098948816416,40.69149333882938,14.40406797524787,3.6010175628356222
0.300,12.6,44.054521534991792,-78.681922062475849,124.8,-0.5,72.5,47.1,6778.5,6779,153.1,0,1,1,0,1,1,0,0,0,100,1,1.186,26.0,0.0,0.015,65.681,66.0,0.0,26.0,26.0,26.0,26.0,-0.12,0.44,0.24,379.8,-2.08,-2.84,-0.99,-1.03,-735.69,678.68,5.7,0.00,0.00,0.00,0.00,0.01,-7.49,-7.49,-0.59,1.21,-0.08,-1.03,42.55,-0.07,-0.35,1.49,100.0,0,0,121.94,0,0,0.0,0,0,0,0,8175,0,30.00,3,153.1,0,0,0.0,0.0,0.0,0.0,0,0,0.314,0.314,68.774,24.308,0,110.00,435.8,8750,0.0,0.0,110.0,110.0,433.0,0.00,0,0,1,166.7,70.6,70.6,70.1,70.1,34.0,-30.60,12.80,-19.7,6.6,4,-272.540,1.1,100.0,22.3,19.9,35.5,32.4,0,1,98.4,0.00,0.00,0.00,0.00,5167,3630,4590,4944,312.0,315.1,342.2,341.6,25.40,23.50,24.30,23.96,325.0,325.0,355.0,355.0,99.86,100.00,99.99,100.00,-0.17,-0.07,-0.20,-0.05,-0.1,-0.1,2.0,2.1,84.8,72.8,71.6,69.5,80.7,69.3,72.2,70.4,78.0,67.0,70.5,68.4,74.8,65.5,69.8,67.5,0.07,-0.07,0.06,0.06,0.00,130.74,130.51,121.94,121.94,176.9,6.4,0.5153639490690051,150.52251512113799,42.13190019325653,108.03051322849996,25.207119525707284
0.350,14.7,44.054501570052146,-78.681916486681899,131.0,70.0,44.0,51.6,6780.7,6781,153.9,0,1,1,0,1,1,0,0,0,100,1,1.186,26.0,0.0,0.018,65.681,66.0,0.0,26.0,26.0,26.0,26.0,-0.10,0.47,0.11,376.4,-1.41,-2.65,-1.16,-1.55,-735.07,676.46,5.7,0.00,0.00,0.00,0.00,0.01,-7.49,-7.49,-0.36,6.06,-0.05,4.81,42.77,-0.07,-0.29,1.56,100.0,0,0,122.52,0,0,0.0,0,0,0,0,8213,0,30.00,3,153.9,1,0,0.0,0.0,0.0,0.0,0,0,0.369,0.369,68.774,24.308,1,110.00,435.8,8750,0.0,0.0,110.0,110.0,433.0,0.00,0,0,1,166.7,68.9,68.9,65.0,65.0,34.0,-9.75,8.04,-35.4,12.1,4,-272.590,-0.1,100.0,28.9,23.4,37.7,35.0,0,1,98.4,0.00,0.00,0.00,0.00,2882,2768,6316,6012,316.0,317.7,338.8,339.6,25.40,23.49,24.30,23.96,325.0,325.0,355.0,355.0,99.86,100.00,99.99,100.00,-0.08,-0.07,-0.26,-0.08,-0.0,-0.1,1.9,2.0,84.8,72.8,71.6,69.5,80.6,69.3,72.2,70.4,77.9,67.0,70.5,68.4,74.8,65.5,69.8,67.5,0.02,-0.00,0.07,0.06,0.00,131.32,131.22,122.52,122.52,176.9,6.4,0.4929503017546495,155.92404081101415,43.21220529140011,-72.02034186782186,-28.808137088542907
0.400,16.9,44.054482594366256,-78.681911270616581,-190.4,-62.4,202.0,214.7,6782.8,6783,154.7,0,1,1,0,1,1,0,0,0,100,1,1.186,26.0,0.0,0.018,65.681,66.0,0.0,26.0,26.0,26.0,26.0,-0.07,0.34,0.16,376.7,-2.58,-2.65,-1.14,-1.66,-734.49,674.35,5.7,0.00,0.00,0.00,0.00,0.01,-7.49,-7.49,-0.19,-0.96,0.09,0.74,42.98,-0.04,-0.26,0.01,100.0,0,0,122.70,0,0,0.0,0,0,0,0,8225,0,30.00,3,154.7,0,0,0.0,0.0,0.0,0.0,1,0,0.420,0.420,68.774,24.308,0,110.00,435.8,8750,0.0,0.0,110.0,110.0,433.0,0.00,0,0,1,166.7,79.0,79.0,51.4,51.4,34.0,-7.31,5.73,-28.0,14.0,4,-272.640,-0.8,100.0,19.4,20.2,47.8,45.8,0,1,98.4,0.00,0.00,0.00,0.00,1913,2082,6069,4807,320.2,319.6,338.4,341.7,25.40,23.49,24.30,23.96,325.0,325.0,355.0,355.0,99.86,100.00,99.99,100.00,-0.04,-0.07,-0.16,-0.03,-0.0,-0.0,1.5,1.5,84.7,72.8,71.6,69.5,80.6,69.2,72.2,70.4,77.9,67.0,70.5,68.4,74.7,65.4,69.8,67.5,-0.03,0.03,0.03,0.04,0.00,131.76,131.71,122.70,122.70,176.9,6.4,0.3822302970723279,143.3204809343558,39.25108648440224,-118.83356477895944,-36.0101710761667
0.450,19.0,44.054465777052229,-78.681906684076395,-42.6,-4.0,-134.1,-67.4,6785.0,6785,155.3,0,1,1,0,1,1,0,0,0,100,1,1.186,26.0,0.0,0.018,65.681,66.0,0.0,26.0,26.0,26.0,26.0,0.02,0.38,-0.13,380.5,-2.29,-2.84,-1.53,-1.42,-733.98,672.48,5.7,0.00,0.00,0.00,0.00,0.01,-7.49,-7.49,-0.31,-3.02,0.02,-4.81,43.15,-0.03,-0.32,-0.57,100.0,0,0,123.74,0,0,0.0,0,0,0,0,8295,0,30.00,3,155.3,1,0,0.0,0.0,0.0,0.0,1,0,0.466,0.466,68.774,24.308,1,110.00,435.8,8750,0.0,0.0,110.0,110.0,433.0,0.00,0,0,1,333.3,78.6,78.6,60.8,60.8,34.0,-5.96,11.50,-15.3,15.5,4,-272.690,-1.3,100.0,17.2,20.0,41.1,42.4,0,1,98.4,0.00,0.00,0.00,0.00,2129,2595,4765,4733,319.5,317.7,342.9,342.3,25.39,23.49,24.30,23.96,325.0,325.0,355.0,355.0,99.86,100.00,99.99,100.00,0.03,0.03,-0.04,0.06,-0.1,-0.1,2.1,2.1,84.7,72.8,71.6,69.5,80.5,69.2,72.2,70.4,77.8,66.9,70.5,68.4,74.7,65.4,69.8,67.5,-0.06,0.06,0.06,0.05,0.00,132.18,132.20,123.74,123.74,176.9,6.4,0.402119385257662,144.0406843331182,39.61118818378344,100.8284789563649,32.4091540823548
0.500,21.2,44.054446621502024,-78.681901378078919,-40.1,-82.7,-85.5,-136.3,6787.1,6787,156.0,0,1,1,0,1,1,0,0,0,100,1,1.186,26.0,0.0,0.021,65.681,66.0,0.0,26.0,26.0,26.0,26.0,-0.02,0.48,-0.09,383.0,-2.09,-2.78,-1.21,-2.15,-733.39,670.35,5.7,0.00,0.00,0.00,0.00,0.01,-7.49,-7.49,-0.52,-4.95,-0.23,-4.38,43.35,-0.02,-0.35,-0.44,100.0,0,0,124.19,0,0,0.0,0,0,0,0,8325,0,30.00,3,156.0,0,0,0.0,0.0,0.0,0.0,1,0,0.516,0.516,68.774,24.308,0,110.00,435.8,8750,0.0,0.0,110.0,110.0,433.0,0.00,0,0,1,333.3,79.4,79.4,67.6,67.6,34.0,-14.87,10.06,-14.3,24.1,4,-272.740,-1.5,100.0,15.2,15.9,36.8,35.6,0,1,98.4,0.00,0.00,0.00,0.00,4524,2118,5153,4817,314.2,318.7,341.1,342.2,25.39,23.49,24.30,23.96,325.0,325.0,355.0,355.0,99.86,100.00,99.99,100.00,0.01,0.07,-0.05,0.11,-0.1,-0.1,2.2,2.2,84.7,72.8,71.6,69.5,80.5,69.2,72.2,70.4,77.8,66.9,70.5,68.4,74.6,65.4,69.8,67.5,-0.08,0.08,0.06,0.05,0.00,132.74,132.75,124.19,124.19,176.9,6.4,0.4887739763939975,153.4033288299923,42.49200189263772,54.01525689876223,18.00508553808335
0.550,23.4,44.054427465951818,-78.681896072081443,32.7,-4.3,-103.5,-106.9,6789.3,6789,156.7,0,1,1,0,1,1,0,0,0,100,1,1.186,26.0,0.0,0.021,65.681,66.0,0.0,26.0,26.0,26.0,26.0,0.01,0.40,-0.19,386.0,-2.31,-2.58,-0.79,-0.67,-732.80,668.22,5.7,0.00,0.00,0.00,0.00,0.02,-7.49,-7.49,-0.76,-3.53,-0.27,0.93,43.53,-0.02,-0.40,-0.47,100.0,0,0,125.55,0,0,0.0,0,0,0,0,8417,0,30.00,3,156.7,1,0,0.0,0.0,0.0,0.0,1,0,0.567,0.567,68.774,24.308,1,110.00,435.8,8750,0.0,0.0,110.0,110.0,433.0,0.00,0,0,1,333.3,76.8,76.8,76.6,76.6,34.0,-15.98,20.21,-5.8,6.9,4,-272.790,-1.7,100.0,16.9,15.7,31.7,30.2,0,1,98.4,0.00,0.00,0.00,0.00,4300,3891,3040,4195,314.6,315.2,346.3,344.3,25.39,23.48,24.30,23.96,325.0,325.0,355.0,355.0,99.86,100.00,99.99,100.00,-0.00,0.11,-0.08,0.07,-0.1,-0.1,2.8,2.8,84.7,72.8,71.6,69.5,80.4,69.1,72.2,70.4,77.7,66.9,70.5,68.3,74.6,65.3,69.8,67.5,-0.10,0.09,0.08,0.06,0.00,133.37,133.40,125.55,125.55,176.9,6.4,0.442944691807002,149.44221002299443,41.411696737591775,-28.80813680403122,-10.803051550459415
0.600,25.6,44.054409299655376,-78.681891035880454,99.8,38.7,-28.1,-9.1,6791.5,6792,157.3,0,1,1,0,1,1,0,0,0,100,1,1.186,26.0,0.0,0.021,65.681,66.0,0.0,26.0,26.0,26.0,26.0,-0.02,0.32,-0.19,384.9,-2.45,-2.34,-1.62,-0.93,-732.24,666.20,5.7,0.00,0.00,0.00,0.00,0.02,-7.49,-7.49,-0.80,0.58,-0.11,6.76,43.72,0.00,-0.39,-0.40,100.0,0,0,126.13,0,0,0.0,0,0,0,0,8456,0,30.00,3,157.3,0,0,0.0,0.0,0.0,0.0,1,0,0.616,0.616,68.774,24.308,0,110.00,435.8,8750,0.0,0.0,110.0,110.0,433.0,0.00,0,0,1,333.3,73.3,73.3,82.0,82.0,34.0,-20.55,12.37,-9.5,8.6,4,-272.840,-1.5,100.0,21.9,17.6,30.3,29.8,0,1,98.4,0.00,0.00,0.00,0.00,4668,3063,2796,4598,313.5,317.0,347.9,343.4,25.39,23.48,24.30,23.96,325.0,325.0,355.0,355.0,99.86,100.00,99.99,100.00,-0.03,0.05,-0.13,0.04,-0.1,-0.1,2.6,2.6,84.7,72.8,71.6,69.5,80.4,69.1,72.2,70.4,77.7,66.8,70.5,68.3,74.5,65.3,69.8,67.5,-0.08,0.08,0.08,0.07,0.00,134.09,134.08,126.13,126.13,176.9,6.4,0.37269290307168446,150.52251514958917,41.411696737591775,61.21729088638574,14.404068544271382
0.650,27.8,44.054389874308690,-78.681885729882978,-55.7,36.3,65.8,146.7,6793.7,6794,158.1,0,1,1,0,1,1,0,0,0,100,1,1.186,26.0,0.0,0.021,65.681,66.0,0.0,26.0,26.0,26.0,26.0,0.02,0.39,-0.13,382.2,-3.35,-2.72,-1.81,-1.07,-731.65,664.04,5.7,0.00,0.00,0.00,0.00,0.02,-7.49,-7.49,-0.74,0.48,0.12,2.35,43.92,0.03,-0.33,-1.15,100.0,0,0,126.11,0,0,0.0,0,0,0,0,8454,0,30.00,3,158.1,1,0,0.0,0.0,0.0,0.0,1,0,0.666,0.666,68.774,24.308,1,110.00,435.8,8750,0.0,0.0,110.0,110.0,433.0,0.00,0,0,1,333.3,76.6,76.6,67.0,67.0,34.0,-10.00,16.69,-19.4,11.4,4,-272.890,-1.5,100.0,19.1,19.4,33.6,37.1,0,1,98.4,0.00,0.00,0.00,0.00,2470,3239,5150,4008,318.8,315.8,341.5,344.7,25.38,23.48,24.30,23.96,325.0,325.0,355.0,355.0,99.86,100.00,99.99,100.00,0.05,0.08,-0.04,0.10,-0.1,-0.1,2.2,2.1,84.6,72.7,71.6,69.5,80.3,69.0,72.2,70.4,77.6,66.8,70.5,68.3,74.5,65.3,69.8,67.5,-0.08,0.09,0.07,0.05,0.00,134.60,134.74,126.11,126.11,176.9,6.4,0.41158231254513356,155.563939111633,42.85210359201891,7.20203427213562,7.202034556647519
0.700,30.0,44.054370448961997,-78.681880333953345,76.9,52.2,42.9,20.0,6795.9,6796,158.8,0,1,1,0,1,1,0,0,0,100,1,1.186,26.0,0.0,0.021,65.681,66.0,0.0,26.0,26.0,26.0,26.0,0.04,0.33,0.09,378.6,-2.38,-3.45,-1.40,-1.13,-731.05,661.88,5.7,0.00,0.00,0.00,0.00,0.02,-7.49,-7.49,-0.69,1.98,0.26,2.37,44.12,0.06,-0.34,-1.13,100.0,0,0,126.62,0,0,0.0,0,0,0,0,8488,0,30.00,3,158.8,0,0,0.0,0.0,0.0,0.0,1,0,0.717,0.717,68.774,24.308,0,110.00,435.8,8750,0.0,0.0,110.0,110.0,433.0,0.00,0,0,1,333.3,69.8,69.8,71.8,71.8,34.0,-15.62,21.04,-7.5,18.4,4,-272.940,-1.3,100.0,22.9,22.0,35.7,38.1,0,1,98.4,0.00,0.00,0.00,0.00,4569,3354,3697,4809,312.9,315.8,345.2,342.1,25.38,23.48,24.30,23.96,325.0,325.0,355.0,355.0,99.86,100.00,99.99,100.00,0.04,0.09,0.03,0.15,-0.1,-0.0,2.0,2.0,84.6,72.7,71.6,69.5,80.3,69.0,72.2,70.4,77.6,66.8,70.5,68.4,74.4,65.2,69.8,67.5,-0.07,0.07,0.07,0.05,0.00,135.39,135.40,126.62,126.62,176.9,6.4,0.3443835071544513,151.24271857680273,42.13190019325653,-39.61118835449071,-7.202033987623864
0.750,32.2,44.054352102801239,-78.681875207820184,-81.2,-97.2,50.5,79.6,6798.1,6798,159.0,0,1,1,0,1,1,0,0,0,100,1,1.186,26.0,0.0,0.021,65.681,66.0,0.0,26.0,26.0,26.0,26.0,0.06,-0.05,-0.03,379.6,-2.29,-1.99,-1.80,-1.98,-730.48,659.84,5.7,0.00,0.00,0.00,0.00,0.02,-7.49,-7.49,-0.66,-3.23,0.33,1.18,44.17,0.08,-0.28,-1.08,100.0,0,0,123.84,0,0,0.0,0,0,0,0,8247,0,30.00,0,159.0,1,0,0.0,0.0,0.0,0.0,1,0,0.764,0.764,68.774,24.308,1,110.00,435.8,8750,0.0,0.0,110.0,110.0,433.0,0.00,0,0,1,333.3,78.3,78.3,64.0,64.0,34.0,-3.55,16.92,-17.9,44.2,4,-272.990,-1.3,100.0,18.9,17.2,38.2,42.1,0,1,0.0,0.00,0.00,0.00,0.00,2179,3473,4958,5740,319.4,316.4,341.6,340.2,25.38,23.48,24.30,23.96,325.0,325.0,355.0,355.0,99.86,100.00,99.99,100.00,0.13,0.16,0.04,0.21,0.0,-0.0,0.1,0.0,84.6,72.7,71.6,69.5,80.2,69.0,72.1,70.4,77.5,66.7,70.4,68.3,74.4,65.2,69.7,67.5,-0.06,0.06,0.07,0.04,0.00,135.25,135.44,123.81,123.88,176.9,6.4,0.08366600265340755,151.60282027618393,42.13190019325653,50.41423933592682,10.803050981435831
0.800,34.4,44.054332587522389,-78.681869811890550,-8.1,53.3,-33.6,-137.5,6800.3,6800,158.8,0,1,1,0,1,1,0,0,0,100,1,1.186,26.0,0.0,0.021,65.681,66.0,0.0,26.0,26.0,26.0,26.0,0.05,-0.09,-0.20,382.5,-1.95,-2.06,-2.61,-2.00,-729.88,657.67,5.7,0.00,0.00,0.00,0.00,0.02,-7.49,-7.49,-0.96,-5.59,0.35,1.28,44.12,0.08,-0.46,-1.37,100.0,0,0,123.82,0,0,0.0,0,0,0,0,7872,0,30.00,0,158.8,0,0,0.0,0.0,0.0,0.0,1,0,0.816,0.816,68.774,24.308,0,110.00,435.8,8750,0.0,0.0,110.0,110.0,433.0,0.00,0,0,1,333.3,74.5,74.5,69.5,69.5,34.0,-6.90,18.62,-14.8,21.2,4,-273.040,-1.3,100.0,18.5,19.8,36.5,35.2,0,1,0.0,0.00,0.00,0.00,0.00,3636,3660,3453,3279,315.8,315.0,345.8,346.5,25.37,23.47,24.30,23.96,325.0,325.0,355.0,355.0,99.86,100.00,99.99,100.00,0.09,0.14,0.09,0.20,0.0,-0.0,-0.0,-0.1,84.6,72.7,71.6,69.5,80.2,68.9,72.1,70.4,77.4,66.7,70.4,68.3,74.3,65.2,69.7,67.5,-0.07,0.06,0.06,0.07,0.00,135.10,135.17,123.76,123.88,176.9,6.4,0.22494443758403987,156.2841425103954,43.21220529140011,0.0,3.6010169938118963
0.850,36.6,44.054313072243545,-78.681864415960916,16.4,10.6,-164.4,-49.6,6802.5,6803,159.1,0,1,1,0,1,1,0,0,0,100,1,1.186,26.0,0.0,0.021,65.681,66.0,0.0,26.0,26.0,26.0,26.0,0.10,0.03,-0.13,383.2,-2.87,-2.62,-0.98,-1.10,-729.28,655.50,5.6,0.00,0.00,0.00,0.00,0.02,-7.49,-7.49,-1.15,-2.12,0.31,-2.62,44.20,0.09,-0.50,-1.28,100.0,0,0,123.42,0,0,0.0,0,0,0,0,6583,0,30.00,4,159.1,1,0,0.0,0.0,0.0,0.0,1,0,0.867,0.867,68.774,24.308,1,110.00,435.8,8750,0.0,0.0,110.0,110.0,433.0,0.00,0,0,1,333.3,73.7,73.7,75.4,75.4,34.0,-13.77,20.79,-5.4,23.2,4,-273.090,-1.2,100.0,19.3,20.4,28.3,32.7,0,1,0.0,0.00,0.00,0.00,0.00,4272,3372,4767,3978,314.6,316.1,342.5,344.4,25.37,23.47,24.30,23.96,325.0,325.0,355.0,355.0,99.86,100.00,99.99,100.00,0.10,0.19,0.08,0.26,-0.1,-0.0,-0.0,0.1,84.6,72.7,71.6,69.5,80.1,68.9,72.1,70.4,77.4,66.7,70.4,68.3,74.3,65.2,69.7,67.5,-0.07,0.06,0.08,0.06,0.00,135.45,135.53,123.29,123.55,176.9,6.4,0.16673332000533067,151.60282027618393,42.49200189263772,-3.601016993812607,7.20203455664759
0.900,38.8,44.054294726082780,-78.681859199895598,-18.4,-14.4,41.7,-35.2,6804.7,6805,158.8,0,1,1,0,1,1,0,0,0,100,1,1.186,26.0,0.0,0.021,65.681,66.0,0.0,26.0,26.0,26.0,26.0,0.11,-0.13,-0.27,386.0,-2.64,-2.70,-1.25,-2.01,-728.70,653.46,5.6,0.00,0.00,0.00,0.00,0.02,-7.49,-7.49,-1.29,-3.50,0.27,-0.18,44.12,0.08,-0.49,-0.88,100.0,0,0,123.45,0,0,0.0,0,0,0,0,6585,0,30.00,4,158.8,0,0,0.0,0.0,0.0,0.0,0,0,0.914,0.914,68.774,24.308,0,110.00,435.8,8750,0.0,0.0,110.0,110.0,433.0,0.00,0,0,1,333.3,76.4,76.4,77.5,77.5,34.0,-6.44,20.16,-3.9,24.2,4,-273.140,-0.7,100.0,18.4,19.7,30.4,31.0,0,1,0.0,0.00,0.00,0.00,0.00,2560,3438,2275,3513,318.4,315.9,348.8,345.6,25.37,23.47,24.30,23.96,325.0,325.0,355.0,355.0,99.86,100.00,99.99,100.00,0.11,0.15,0.05,0.22,0.0,0.0,-0.2,-0.3,84.5,72.7,71.6,69.5,80.0,68.9,72.0,70.3,77.3,66.6,70.3,68.3,74.2,65.1,69.6,67.5,-0.05,0.04,0.08,0.07,0.00,135.15,135.21,123.45,123.45,176.9,6.4,0.31921779399024736,155.92404081101415,43.93240874706487,39.611188069978596,10.803050981435831
0.950,41.0,44.054274131618008,-78.681853444237319,275.8,184.9,-29.7,-33.6,6806.9,6807,158.5,0,1,1,0,1,1,0,0,0,100,1,1.186,26.0,0.0,0.021,65.681,66.0,0.0,26.0,26.0,26.0,26.0,0.05,-0.19,0.23,376.7,-3.03,-3.60,-1.64,-1.75,-728.06,651.17,5.6,0.00,0.00,0.00,0.00,0.03,-7.49,-7.49,-1.34,3.95,0.17,-0.72,44.02,0.08,-0.54,-0.72,100.0,0,0,123.40,0,0,0.0,0,0,0,0,6582,0,30.00,4,158.5,1,0,0.0,0.0,0.0,0.0,0,0,0.969,0.969,68.774,24.308,1,110.00,435.8,8750,0.0,0.0,110.0,110.0,433.0,0.00,0,0,1,166.7,57.5,57.5,79.3,79.3,34.0,-34.19,33.10,-10.8,22.5,4,-273.190,0.8,100.0,32.1,28.9,28.9,29.3,0,1,0.0,0.00,0.00,0.00,0.00,5860,4689,3673,3489,309.6,311.8,345.4,345.7,25.36,23.47,24.30,23.96,325.0,325.0,355.0,355.0,99.86,100.00,99.99,100.00,-0.03,0.09,0.04,0.22,0.0,-0.0,-0.3,-0.4,84.5,72.7,71.6,69.5,80.0,68.9,72.0,70.3,77.3,66.6,70.3,68.2,74.2,65.1,69.6,67.4,0.06,-0.03,0.09,0.06,0.00,135.38,135.21,123.40,123.40,176.9,6.4,0.30248966924508347,155.5639390831818,43.5723069907813,-93.62644468422872,-25.20712009473094
1.000,43.2,44.054255875389408,-78.681848318104173,-80.8,-44.6,121.6,230.3,6809.1,6809,158.3,0,1,1,0,1,1,0,0,0,100,1,1.186,26.0,0.0,0.021,65.681,66.0,0.0,26.0,26.0,26.0,26.0,-0.00,0.30,0.30,371.6,-2.85,-1.62,-1.59,-0.97,-727.49,649.14,5.6,0.00,0.00,0.00,0.00,0.03,-7.49,-7.49,-1.09,4.23,0.24,-0.06,43.98,0.06,-0.39,0.28,100.0,0,0,125.97,0,0,0.0,0,0,0,0,6720,0,30.00,4,158.3,0,0,0.0,0.0,0.0,0.0,0,0,1.017,1.017,68.774,24.308,0,110.00,435.8,8750,0.0,0.0,110.0,110.0,433.0,0.00,0,0,1,166.7,63.0,63.0,64.0,64.0,34.0,-26.19,18.74,-25.8,24.9,4,-273.240,1.1,100.0,28.1,26.7,35.0,40.8,0,1,98.4,0.00,0.00,0.00,0.00,5115,5309,6055,5869,313.4,311.5,338.9,339.1,25.36,23.47,24.30,23.96,325.0,325.0,355.0,355.0,99.86,100.00,99.99,100.00,-0.04,0.06,-0.06,0.16,-0.0,-0.0,1.4,1.5,84.5,72.7,71.6,69.5,80.0,68.8,72.0,70.3,77.3,66.6,70.3,68.2,74.2,65.1,69.6,67.4,0.07,-0.06,0.06,0.04,0.00,134.88,134.95,125.97,125.97,176.9,6.4,0.4242640687119285,146.56139634259128,41.411696737591775,-39.611188069978596,-7.202033987623864
1.050,45.4,44.054237529228644,-78.681843102038854,-66.4,-28.3,178.1,11.8,6811.3,6811,158.9,0,1,1,0,1,1,0,0,0,100,1,1.186,26.0,0.0,0.024,65.681,66.0,0.0,26.0,26.0,26.0,26.0,-0.02,0.42,-0.04,373.6,-3.37,-2.17,-1.03,-1.41,-726.91,647.10,5.6,0.00,0.00,0.00,0.00,0.03,-7.49,-7.49,-0.88,4.35,0.35,2.78,44.15,0.04,-0.36,0.71,100.0,0,0,126.33,0,0,0.0,0,0,0,0,6738,0,30.00,4,158.9,1,0,0.0,0.0,0.0,0.0,0,0,1.064,1.064,68.774,24.308,1,110.00,435.8,8750,0.0,0.0,110.0,110.0,433.0,0.00,0,0,1,166.7,69.8,69.8,59.1,59.1,34.0,-24.32,10.03,-12.4,19.3,4,-273.290,1.1,100.0,24.8,25.3,43.9,41.4,0,1,98.4,0.00,0.00,0.00,0.00,4165,3313,4894,5447,315.3,317.2,341.4,340.3,25.36,23.46,24.30,23.96,325.0,325.0,355.0,355.0,99.86,100.00,99.99,100.00,-0.06,-0.00,-0.04,0.06,-0.1,0.0,1.7,1.7,84.5,72.7,71.6,69.5,79.9,68.8,72.0,70.3,77.2,66.6,70.3,68.2,74.1,65.1,69.6,67.4,0.08,-0.07,0.06,0.04,0.00,135.43,135.37,126.33,126.33,176.9,6.4,0.4223742416388575,151.60282027618393,42.85210359201891,100.8284789563649,28.808137088542765
1.100,47.6,44.054218013949800,-78.681837616177063,-194.8,-115.0,3.8,92.5,6813.6,6814,159.6,0,1,1,0,1,1,0,0,0,100,1,1.186,26.0,0.0,0.024,65.681,66.0,0.0,26.0,26.0,26.0,26.0,0.07,0.31,-0.03,377.5,-2.43,-2.76,-2.47,-1.94,-726.30,644.93,5.5,0.00,0.00,0.00,0.00,0.03,-7.49,-7.49,-0.82,-2.80,0.34,-4.36,44.34,0.01,-0.31,0.60,100.0,0,0,126.76,0,0,0.0,0,0,0,0,6762,0,30.00,4,159.6,0,0,0.0,0.0,0.0,0.0,0,0,1.116,1.116,68.774,24.308,0,110.00,435.8,8750,0.0,0.0,110.0,110.0,433.0,0.00,0,0,1,333.3,79.0,79.0,54.3,54.3,34.0,-5.03,18.95,-21.1,24.0,4,-273.340,1.9,100.0,15.0,19.5,44.1,46.0,0,1,98.4,0.00,0.00,0.00,0.00,1471,4293,4355,5138,321.3,313.3,343.1,340.9,25.35,23.46,24.30,23.96,325.0,325.0,355.0,355.0,99.86,100.00,99.99,100.00,-0.04,-0.00,-0.01,0.06,-0.1,-0.1,1.6,1.6,84.5,72.6,71.6,69.5,79.9,68.8,72.0,70.3,77.2,66.5,70.3,68.2,74.1,65.0,69.6,67.4,0.10,-0.10,0.05,0.04,0.00,135.85,135.90,126.76,126.76,176.9,6.4,0.31921779399024736,156.64424423822777,44.29251044644605,57.616273892573986,14.404068544271382
1.150,49.9,44.054198408738785,-78.681832040383100,-11.4,-108.4,-136.1,-232.2,6815.8,6816,160.2,0,1,1,0,1,1,0,0,0,100,1,1.186,26.0,0.0,0.027,65.681,66.0,0.0,26.0,26.0,26.0,26.0,-0.05,0.36,-0.29,385.3,-2.07,-2.44,-1.78,-1.05,-725.68,642.75,5.5,0.00,0.00,0.00,0.00,0.03,-7.49,-7.49,-1.02,-4.42,0.06,-3.10,44.52,-0.01,-0.31,1.25,100.0,0,0,127.88,0,0,0.0,0,0,0,0,6821,0,30.00,4,160.2,1,0,0.0,0.0,0.0,0.0,0,0,1.167,1.167,68.774,24.308,1,110.00,435.8,8750,0.0,0.0,110.0,110.0,433.0,0.00,0,0,1,333.3,82.1,82.1,69.0,69.0,34.0,-13.20,6.91,-13.0,7.1,4,-273.390,3.2,100.0,14.5,14.1,37.3,34.4,0,1,98.4,0.00,0.00,0.00,0.00,2784,2808,3658,3434,318.1,317.5,344.9,345.5,25.35,23.46,24.30,23.96,325.0,325.0,355.0,355.0,99.86,100.00,99.99,100.00,-0.15,-0.09,-0.05,0.04,-0.0,-0.1,2.2,2.3,84.4,72.6,71.6,69.5,79.8,68.7,72.0,70.3,77.1,66.5,70.3,68.2,74.0,65.0,69.6,67.4,0.19,-0.18,0.06,0.05,0.00,136.42,136.29,127.88,127.88,176.9,6.4,0.4649731175025068,157.36444766544133,44.29251044644605,-32.4091540823548,-14.404068544271382
1.200,52.1,44.054178713595618,-78.681826554521308,268.8,103.5,-71.9,-86.6,6818.0,6818,160.9,0,1,1,0,1,1,0,0,0,100,1,1.186,26.0,0.0,0.027,65.681,66.0,0.0,26.0,26.0,26.0,26.0,-0.21,0.30,0.09,379.2,-3.04,-2.43,-1.61,-2.60,-725.07,640.56,5.5,0.00,0.00,0.00,0.00,0.03,-7.49,-7.49,-1.20,-0.11,-0.13,0.52,44.69,-0.03,-0.41,3.15,100.0,0,0,128.80,0,0,0.0,0,0,0,0,6870,0,30.00,4,160.9,0,0,0.0,0.0,0.0,0.0,0,0,1.218,1.218,68.774,24.308,0,110.00,435.8,8750,0.0,0.0,110.0,110.0,433.0,0.00,0,0,1,166.7,65.0,65.0,78.0,78.0,34.0,-65.75,8.48,-22.0,8.2,4,-273.440,4.2,100.0,27.9,19.3,33.7,30.1,0,1,97.7,0.00,0.00,0.00,0.00,6898,3835,4720,2699,307.3,315.1,342.8,348.3,25.35,23.46,24.30,23.96,325.0,325.0,355.0,355.0,99.86,100.00,99.99,100.00,-0.30,-0.12,-0.19,-0.05,-0.1,-0.1,2.5,2.6,84.4,72.6,71.6,69.5,79.8,68.7,72.0,70.3,77.1,66.4,70.3,68.2,74.0,64.9,69.5,67.4,0.26,-0.25,0.07,0.06,0.00,137.51,136.93,128.80,128.80,176.9,6.4,0.377094152699296,153.4033288299923,42.85210359201891,-32.40915408235509,-14.404068544271382
1.250,54.3,44.054160097638373,-78.681821338455990,144.6,152.3,4.4,59.9,6820.3,6820,161.5,0,1,1,0,1,1,0,0,0,100,1,1.186,26.0,0.0,0.027,65.681,66.0,0.0,26.0,26.0,26.0,26.0,-0.32,0.41,0.55,368.9,-3.24,-2.99,-2.13,-1.89,-724.49,638.49,5.5,0.00,0.00,0.00,0.00,0.03,-7.49,-7.49,-0.96,9.29,0.10,6.18,44.87,-0.06,-0.34,4.06,100.0,0,0,127.88,0,0,0.0,0,0,0,0,6822,0,30.00,4,161.5,1,0,0.0,0.0,0.0,0.0,0,0,1.266,1.266,68.774,24.308,1,110.00,435.8,8750,0.0,0.0,110.0,110.0,433.0,0.00,0,0,1,333.3,55.2,55.2,67.6,67.6,34.0,-72.55,12.84,-74.4,14.3,4,-273.490,4.3,100.0,35.1,26.9,33.9,33.1,0,1,97.3,0.00,0.00,0.00,0.00,7109,5284,7559,6949,307.0,310.5,335.9,336.8,25.35,23.46,24.30,23.96,325.0,325.0,355.0,355.0,99.86,100.00,99.99,100.00,-0.32,-0.19,-0.39,-0.14,-0.1,-0.1,1.5,1.8,84.4,72.6,71.6,69.5,79.7,68.7,72.0,70.3,77.0,66.4,70.3,68.2,74.0,64.9,69.5,67.4,0.28,-0.24,0.07,0.05,0.00,138.22,137.93,127.88,127.88,176.9,6.4,0.7569676347110225,154.12353225720582,42.85210359201891,14.404068259759129,-3.6010169938119674
1.300,56.6,44.054140222630885,-78.681815852594198,-116.4,10.6,314.0,259.5,6822.5,6823,162.2,0,1,1,0,1,1,0,0,0,100,1,1.186,26.0,0.0,0.027,65.681,66.0,0.0,26.0,26.0,26.0,26.0,-0.26,0.40,0.35,366.5,-2.31,-2.69,-2.00,-1.84,-723.88,636.28,5.5,0.00,0.00,0.00,0.00,0.03,-7.49,-7.49,-0.50,7.14,0.34,3.14,45.05,-0.07,-0.22,3.31,100.0,0,0,128.35,0,0,0.0,0,0,0,0,6846,0,30.00,4,162.2,0,0,0.0,0.0,0.0,0.0,0,0,1.317,1.317,68.774,24.308,0,110.00,435.8,8750,0.0,0.0,110.0,110.0,433.0,0.00,0,0,1,333.3,66.5,66.5,45.0,45.0,34.0,-20.80,3.69,-73.1,11.9,4,-273.540,4.2,100.0,29.3,27.4,49.6,46.0,0,1,97.3,0.00,0.00,0.00,0.00,3123,3768,8423,7419,316.6,315.7,333.4,336.3,25.34,23.45,24.30,23.97,325.0,325.0,355.0,355.0,99.86,100.00,99.99,100.00,-0.25,-0.24,-0.27,-0.17,-0.0,-0.1,1.3,1.5,84.4,72.6,71.6,69.5,79.7,68.7,72.0,70.3,77.0,66.4,70.3,68.2,73.9,64.9,69.5,67.4,0.25,-0.23,0.03,0.03,0.00,138.51,138.21,128.35,128.35,176.9,6.4,0.5916924876994806,154.8437356559682,42.49200189263772,14.404068544271809,-3.6010169938119674
1.350,58.8,44.054121426809324,-78.681810726461038,-33.3,-92.7,0.1,111.0,6824.8,6825,162.7,0,1,1,0,1,1,0,0,0,100,1,1.186,26.0,0.0,0.027,65.681,66.0,0.0,26.0,26.0,26.0,26.0,-0.25,0.31,0.33,367.4,-2.19,-2.90,-2.28,-1.61,-723.31,634.19,5.4,0.00,0.00,0.00,0.00,0.04,-7.49,-7.49,-0.35,1.70,0.41,0.39,45.22,-0.06,-0.28,2.64,100.0,0,0,129.10,0,0,0.0,0,0,0,0,6886,0,30.00,4,162.7,1,0,0.0,0.0,0.0,0.0,0,0,1.366,1.366,68.774,24.308,1,110.00,435.8,8750,0.0,0.0,110.0,110.0,433.0,0.00,0,0,1,333.3,65.3,65.3,51.9,51.9,34.0,-31.20,13.78,-53.5,6.4,4,-273.590,2.0,100.0,27.7,22.8,49.6,51.6,0,1,97.7,0.00,0.00,0.00,0.00,4810,4809,6700,5689,311.9,312.5,337.8,340.5,25.34,23.45,24.30,23.97,325.0,325.0,355.0,355.0,99.86,100.00,99.99,100.00,-0.19,-0.13,-0.22,-0.16,-0.1,-0.1,1.4,1.6,84.4,72.6,71.6,69.5,79.7,68.6,72.0,70.3,77.0,66.4,70.3,68.2,73.9,64.9,69.5,67.4,0.15,-0.14,0.04,0.02,0.00,138.88,138.64,129.10,129.10,176.9,6.4,0.51720402163943,155.563939111633,42.49200189263772,61.21729117089757,10.803050981435831
1.400,61.1,44.054101371937506,-78.681805240599246,-37.3,40.7,-41.1,-183.8,6827.0,6827,163.4,0,1,1,0,1,1,0,0,0,100,1,1.186,26.0,0.0,0.027,65.681,66.0,0.0,26.0,26.0,26.0,26.0,-0.13,0.36,0.05,371.4,-2.62,-1.90,-1.81,-2.21,-722.70,631.96,5.5,0.00,0.00,0.00,0.00,0.04,-7.49,-7.49,-0.25,2.09,0.33,-0.04,45.39,-0.08,-0.29,1.83,100.0,0,0,129.72,0,0,0.0,0,0,0,0,6920,0,30.00,4,163.4,0,0,0.0,0.0,0.0,0.0,1,0,1.416,1.416,68.774,24.308,0,110.00,435.8,8750,0.0,0.0,110.0,110.0,433.0,0.00,0,0,1,333.3,66.8,66.8,52.3,52.3,34.0,-26.33,11.44,-43.6,15.0,4,-273.640,-0.5,100.0,25.8,24.8,47.6,42.4,0,1,98.0,0.00,0.00,0.00,0.00,4829,3967,6790,5197,313.1,314.3,337.8,341.5,25.34,23.45,24.30,23.97,325.0,325.0,355.0,355.0,99.86,100.00,99.99,100.00,-0.09,-0.01,-0.20,-0.11,-0.0,-0.1,1.7,1.7,84.4,72.6,71.6,69.5,79.6,68.6,72.0,70.3,76.9,66.4,70.3,68.2,73.9,64.9,69.6,67.4,0.00,0.02,0.05,0.05,0.00,139.34,139.17,129.72,129.72,176.9,6.4,0.38600518131237566,160.96546477305796,43.5723069907813,14.404068259759413,-3.6010169938118963
1.450,63.4,44.054081227133537,-78.681799844669612,-0.9,90.5,-40.5,25.2,6829.3,6829,164.0,0,1,1,0,1,1,0,0,0,100,1,1.186,26.0,0.0,0.030,65.681,66.0,0.0,26.0,26.0,26.0,26.0,-0.02,0.38,0.08,372.4,-3.03,-2.09,-1.49,-1.05,-722.10,629.72,5.5,0.00,0.00,0.00,0.00,0.04,-7.49,-7.49,-0.12,3.64,0.25,-6.03,45.56,-0.08,-0.34,0.05,100.0,0,0,130.34,0,0,0.0,0,0,0,0,6953,0,30.00,4,164.0,1,0,0.0,0.0,0.0,0.0,1,0,1.467,1.467,68.774,24.308,1,110.00,435.8,8750,0.0,0.0,110.0,110.0,433.0,0.00,0,0,1,333.3,67.0,67.0,51.6,51.6,34.0,-9.28,17.83,-26.0,8.8,4,-273.690,-2.8,100.0,25.8,29.3,45.5,43.7,0,1,98.4,0.00,0.00,0.00,0.00,2758,3858,5857,5119,317.6,314.3,339.8,341.4,25.34,23.45,24.30,23.97,325.0,325.0,355.0,355.0,99.86,100.00,99.99,100.00,0.09,0.10,-0.11,-0.02,-0.0,-0.1,1.7,1.7,84.4,72.6,71.6,69.5,79.6,68.6,72.0,70.3,76.9,66.3,70.3,68.2,73.8,64.8,69.5,67.4,-0.14,0.16,0.05,0.03,0.00,139.82,139.79,130.34,130.34,176.9,6.4,0.3888444419044716,157.00434593760895,42.13190019325653,-32.40915408235452,-10.803050981435831
1.500,65.7,44.054062161515489,-78.681794718536452,25.3,-67.2,23.8,43.2,6831.6,6832,164.6,0,1,1,0,1,1,0,0,0,100,1,1.186,26.0,0.0,0.030,65.681,66.0,0.0,26.0,26.0,26.0,26.0,0.05,0.28,0.49,368.5,-2.08,-2.93,-1.46,-1.77,-721.53,627.60,5.5,0.00,0.00,0.00,0.00,0.04,-7.49,-7.49,-0.02,1.64,0.02,-3.57,45.73,-0.07,-0.38,-1.08,100.0,0,0,130.45,0,0,0.0,0,0,0,0,6958,0,30.00,4,164.6,0,0,0.0,0.0,0.0,0.0,1,0,1.514,1.514,68.774,24.308,0,110.00,435.8,8750,0.0,0.0,110.0,110.0,433.0,0.00,0,0,1,333.3,61.4,61.4,53.5,53.5,34.0,-15.32,48.11,-24.3,26.7,4,-273.740,-3.7,100.0,27.0,26.0,46.7,45.8,0,1,98.4,0.00,0.00,0.00,0.00,5538,6269,5871,6232,310.8,308.5,340.0,338.1,25.33,23.45,24.30,23.97,325.0,325.0,355.0,355.0,99.86,100.00,99.99,100.00,0.06,0.19,-0.08,0.03,-0.0,-0.1,1.5,1.4,84.3,72.5,71.7,69.5,79.5,68.6,72.0,70.3,76.8,66.3,70.3,68.2,73.8,64.8,69.6,67.4,-0.20,0.20,0.04,0.03,0.00,140.40,140.37,130.45,130.45,176.9,6.4,0.5665686189686118,157.7245493648225,42.49200189263772,57.61627360806216,18.005084969059695
1.550,68.0,44.054041836847198,-78.681789232674660,158.2,108.9,-84.3,-101.0,6833.9,6834,165.2,0,1,1,0,1,1,0,0,0,100,1,1.186,26.0,0.0,0.030,65.681,66.0,0.0,26.0,26.0,26.0,26.0,0.10,0.42,0.54,366.6,-2.72,-3.23,-1.25,-1.84,-720.92,625.34,5.5,0.00,0.00,0.00,0.00,0.04,-7.49,-7.49,0.30,10.38,-0.05,1.87,45.90,-0.02,-0.31,-1.94,100.0,0,0,130.86,0,0,0.0,0,0,0,0,6980,0,30.00,4,165.2,1,0,0.0,0.0,0.0,0.0,1,0,1.566,1.566,68.774,24.308,1,110.00,435.8,8750,0.0,0.0,110.0,110.0,433.0,0.00,0,0,1,333.3,54.7,54.7,55.7,55.7,34.0,-21.58,41.78,-26.8,34.7,4,-273.790,-4.7,100.0,34.9,31.4,42.5,40.8,0,1,98.4,0.00,0.00,0.00,0.00,6339,5132,7444,6694,308.9,311.0,335.6,337.5,25.33,23.45,24.31,23.97,325.0,325.0,355.0,355.0,99.86,100.00,99.99,100.00,0.10,0.21,-0.06,0.09,-0.0,-0.1,1.6,1.4,84.3,72.5,71.7,69.6,79.5,68.5,72.0,70.3,76.8,66.3,70.3,68.2,73.7,64.8,69.6,67.4,-0.24,0.29,0.05,0.05,0.00,141.07,141.18,130.86,130.86,176.9,6.4,0.6913754406977441,162.76597329841516,43.9324086901625,7.202034272135904,3.6010169938119674
1.600,70.3,44.054021512178906,-78.681783746812869,-34.2,23.5,210.0,252.8,6836.2,6836,165.8,0,1,1,0,1,1,0,0,0,100,1,1.186,26.0,0.0,0.030,65.681,66.0,0.0,26.0,26.0,26.0,26.0,0.11,0.36,0.51,363.3,-2.77,-2.66,-2.42,-1.80,-720.31,623.08,5.5,0.00,0.00,0.00,0.00,0.04,-7.49,-7.49,0.79,8.62,0.19,4.73,46.06,0.04,-0.26,-3.13,100.0,0,0,131.46,0,0,0.0,0,0,0,0,7012,0,30.00,4,165.8,0,0,0.0,0.0,0.0,0.0,1,0,1.617,1.617,68.774,24.308,0,110.00,435.8,8750,0.0,0.0,110.0,110.0,433.0,0.00,0,0,1,333.3,58.9,58.9,43.3,43.3,34.0,-4.94,38.09,-31.3,45.8,4,-273.840,-5.8,100.0,33.2,32.6,53.0,53.4,0,1,98.4,0.00,0.00,0.00,0.00,3459,4951,6524,7866,315.6,311.3,337.9,334.4,25.33,23.45,24.31,23.97,325.0,325.0,355.0,355.0,99.86,100.00,99.99,100.00,0.22,0.25,0.04,0.11,-0.0,-0.0,1.4,1.2,84.3,72.5,71.7,69.6,79.5,68.5,72.0,70.3,76.8,66.3,70.3,68.2,73.7,64.8,69.6,67.4,-0.30,0.35,0.03,0.02,0.00,141.31,141.64,131.46,131.46,176.9,6.4,0.6338769596696192,158.4447527920361,42.85210359201891,-36.010170791655014,-3.6010164247883125
1.650,72.6,44.054002266696536,-78.681778530747550,-440.4,-322.7,11.7,24.8,6838.5,6839,166.4,0,1,1,0,1,1,0,0,0,100,1,1.186,26.0,0.0,0.030,65.681,66.0,0.0,26.0,26.0,26.0,26.0,0.15,0.43,-0.00,376.7,-2.66,-2.01,-2.31,-1.27,-719.73,620.94,5.6,0.00,0.00,0.00,0.00,0.04,-7.49,-7.49,0.95,-4.19,0.19,-3.53,46.24,0.09,-0.23,-3.32,100.0,0,0,131.28,0,0,0.0,0,0,0,0,7002,0,30.00,4,166.4,1,0,0.0,0.0,0.0,0.0,1,0,1.664,1.664,68.774,24.308,1,110.00,435.8,8750,0.0,0.0,110.0,110.0,433.0,0.00,0,0,1,166.7,89.1,89.1,37.5,37.5,34.0,0.00,12.07,-21.8,54.9,4,-273.890,-6.7,100.0,11.2,16.5,53.6,54.7,0,1,97.7,0.00,0.00,0.00,0.00,0,1962,7444,7963,325.0,319.4,334.4,333.7,25.33,23.44,24.31,23.97,325.0,325.0,355.0,355.0,99.86,100.00,99.99,100.00,0.00,0.32,0.16,0.26,0.0,-0.1,1.4,1.1,84.3,72.5,71.7,69.6,79.4,68.5,72.0,70.3,76.7,66.3,70.3,68.3,73.7,64.8,69.6,67.4,-0.37,0.38,0.03,0.01,0.00,141.30,141.54,131.28,131.28,176.9,6.4,0.45541190146942795,159.16495621924966,43.572307047683665,57.616273608061874,25.207119525707284
1.700,74.9,44.053981762163922,-78.681772865021429,-92.2,-124.3,-387.2,-289.0,6840.8,6841,166.9,0,1,1,0,1,1,0,0,0,100,1,1.186,26.0,0.0,0.030,65.681,66.0,0.0,26.0,26.0,26.0,26.0,0.17,0.08,-0.66,395.4,-2.10,-1.92,-1.74,-1.81,-719.10,618.66,5.6,0.00,0.00,0.00,0.00,0.05,-7.49,-7.49,0.39,-13.08,-0.11,-9.29,46.35,0.13,-0.47,-3.03,100.0,0,0,133.70,0,0,0.0,0,0,0,0,7132,0,30.00,4,166.9,0,0,0.0,0.0,0.0,0.0,1,0,1.716,1.716,68.774,24.308,0,110.00,435.8,8750,0.0,0.0,110.0,110.0,433.0,0.00,0,0,1,166.7,91.3,91.3,74.6,74.6,34.0,2.20,19.36,0.5,2.9,4,-273.940,-7.0,100.0,6.6,10.2,34.3,40.2,0,1,74.6,0.00,0.00,0.00,0.00,1029,2282,1720,689,322.8,318.7,350.4,352.3,25.32,23.44,24.31,23.97,325.0,325.0,355.0,355.0,99.86,100.00,99.99,100.00,0.51,0.57,0.30,0.30,-0.1,-0.1,2.7,2.5,84.3,72.5,71.7,69.6,79.3,68.5,72.0,70.3,76.6,66.2,70.3,68.2,73.6,64.7,69.5,67.4,-0.38,0.40,0.07,0.05,0.00,141.48,141.76,133.70,133.70,176.9,6.4,0.6862215385719105,164.20638015284229,45.37281554458964,0.0,3.6010164247883125
1.750,77.2,44.053961257631308,-78.681767199295322,305.7,121.9,-251.9,-415.8,6843.2,6843,167.2,0,1,1,0,1,1,0,0,0,100,1,1.186,26.0,0.0,0.030,65.681,66.0,0.0,26.0,26.0,26.0,26.0,0.21,0.09,-0.28,393.3,-2.37,-3.45,-1.06,-0.83,-718.47,616.38,5.7,0.00,0.00,0.00,0.00,0.05,-7.49,-7.49,-0.04,-3.32,-0.27,4.11,46.44,0.18,-0.56,-4.50,100.0,0,0,132.31,0,0,0.0,0,0,0,0,7058,0,30.00,4,167.2,1,0,0.0,0.0,0.0,0.0,1,0,1.767,1.767,68.774,24.308,1,110.00,435.8,8750,0.0,0.0,110.0,110.0,433.0,0.00,0,0,1,166.7,72.8,72.8,93.3,93.3,34.0,3.94,37.21,0.9,15.2,4,-273.990,-5.5,100.0,21.9,16.3,21.7,19.4,0,1,19.0,0.00,0.00,0.00,0.00,4883,3679,1682,2844,313.3,315.4,350.6,348.5,25.32,23.44,24.31,23.97,325.0,325.0,355.0,355.0,99.86,100.00,99.99,100.00,0.33,0.47,0.22,0.42,0.0,-0.1,1.8,1.6,84.2,72.5,71.7,69.6,79.3,68.4,72.0,70.3,76.6,66.2,70.3,68.2,73.6,64.7,69.5,67.4,-0.32,0.32,0.10,0.09,0.00,142.16,142.51,132.31,132.31,176.9,6.4,0.36138621999185305,159.16495621924966,43.9324086901625,-50.414239335926254,-7.202033418600209
1.800,79.6,44.053942012148937,-78.681761893297846,131.6,125.3,66.4,136.4,6845.5,6845,167.0,0,1,1,0,1,1,0,0,0,100,1,1.186,26.0,0.0,0.030,65.681,66.0,0.0,26.0,26.0,26.0,26.0,0.31,-0.24,0.16,381.3,-2.00,-2.95,-2.01,-1.59,-717.88,614.24,5.7,0.00,0.00,0.00,0.00,0.05,-7.49,-7.49,-0.00,3.49,0.05,12.45,46.39,0.25,-0.49,-4.92,100.0,0,0,129.97,0,0,0.0,0,0,0,0,6933,0,30.00,4,167.0,0,0,0.0,0.0,0.0,0.0,1,0,1.814,1.814,68.774,24.308,0,110.00,435.8,8750,0.0,0.0,110.0,110.0,433.0,0.00,0,0,1,166.7,62.2,62.2,80.6,80.6,34.0,-1.42,54.04,-9.0,49.6,4,-274.040,-3.6,100.0,28.5,22.6,25.0,26.2,0,1,0.0,0.00,0.00,0.00,0.00,6371,5659,5002,5055,309.4,310.9,341.8,341.9,25.32,23.44,24.31,23.97,325.0,325.0,355.0,355.0,99.86,100.00,99.99,100.00,0.22,0.39,0.19,0.48,-0.0,-0.0,-0.2,-0.4,84.2,72.5,71.7,69.6,79.2,68.4,71.9,70.2,76.6,66.2,70.2,68.2,73.5,64.7,69.5,67.4,-0.21,0.22,0.09,0.07,0.00,142.29,142.62,129.97,129.97,176.9,6.4,0.4234383071948026,159.16495621924966,44.65261220272962,43.21220506379092,25.20712009473087
1.850,81.9,44.053921507616323,-78.681756047707395,-112.8,148.4,162.1,292.6,6847.8,6848,166.7,0,1,1,0,1,1,0,0,0,100,1,1.186,26.0,0.0,0.033,65.681,66.0,0.0,26.0,26.0,26.0,26.0,0.28,-0.19,0.01,377.9,-3.32,-2.27,-2.02,-1.90,-717.23,611.96,5.7,0.00,0.00,0.00,0.00,0.05,-7.49,-7.49,0.22,3.27,0.54,3.76,46.28,0.27,-0.40,-3.64,100.0,0,0,129.83,0,0,0.0,0,0,0,0,6925,0,30.00,4,166.7,1,0,0.0,0.0,0.0,0.0,1,0,1.866,1.866,68.774,24.308,1,110.00,435.8,8750,0.0,0.0,110.0,110.0,433.0,0.00,0,0,1,333.3,68.7,68.7,60.8,60.8,34.0,-1.67,31.84,-1.5,56.9,4,-274.090,-2.0,100.0,22.8,30.0,33.1,40.9,0,1,0.0,0.00,0.00,0.00,0.00,2076,4202,5633,5392,319.7,313.7,340.1,340.6,25.31,23.44,24.31,23.97,325.0,325.0,355.0,355.0,99.86,100.00,99.99,100.00,0.32,0.32,0.29,0.46,0.0,0.0,-0.1,-0.4,84.2,72.5,71.7,69.6,79.2,68.4,71.9,70.2,76.5,66.2,70.2,68.2,73.5,64.7,69.5,67.4,-0.12,0.13,0.07,0.04,0.00,141.82,142.18,129.66,130.01,176.9,6.4,0.33852621759621515,163.48617672562875,46.45312069963558,-10.803051550459486,7.202033418600209
1.900,84.2,44.053901182948032,-78.681750292049131,-102.8,-40.4,101.0,158.6,6850.1,6850,166.3,0,1,1,0,1,1,0,0,0,100,1,1.186,26.0,0.0,0.033,65.681,66.0,0.0,26.0,26.0,26.0,26.0,0.30,-0.17,0.01,378.3,-2.75,-2.63,-2.24,-1.40,-716.59,609.70,5.7,0.00,0.00,0.00,0.00,0.05,-7.49,-7.49,0.17,-3.18,0.39,-10.18,46.18,0.21,-0.48,-2.23,100.0,0,0,129.28,0,0,0.0,0,0,0,0,6896,0,30.00,4,166.3,0,0,0.0,0.0,0.0,0.0,0,0,1.917,1.917,68.774,24.308,0,110.00,435.8,8750,0.0,0.0,110.0,110.0,433.0,0.00,0,0,1,333.3,71.7,71.7,60.8,60.8,34.0,0.99,34.57,0.7,36.5,4,-274.140,-1.9,100.0,17.7,28.0,38.1,48.8,0,1,0.0,0.00,0.00,0.00,0.00,2532,3893,3654,4028,318.3,313.8,345.3,343.2,25.31,23.43,24.31,23.97,325.0,325.0,355.0,355.0,99.86,100.00,99.99,100.00,0.35,0.38,0.36,0.44,0.0,-0.0,-0.2,-0.3,84.2,72.5,71.7,69.6,79.1,68.4,71.9,70.2,76.5,66.1,70.2,68.2,73.4,64.7,69.4,67.4,-0.10,0.12,0.07,0.03,0.00,141.51,141.62,129.28,129.28,176.9,6.4,0.3449637662132068,158.0846510642037,45.37281554458964,-54.015256614250404,-7.202033987623793
1.950,86.5,44.053882027397826,-78.681744716255167,43.3,-110.1,-108.8,-215.4,6852.4,6852,165.9,0,1,1,0,1,1,0,0,0,100,1,1.186,26.0,0.0,0.036,65.681,66.0,0.0,26.0,26.0,26.0,26.0,0.28,-0.20,-0.09,381.5,-2.24,-2.49,-1.46,-1.47,-715.97,607.57,5.8,0.00,0.00,0.00,0.00,0.05,-7.49,-7.49,0.01,-3.14,-0.08,-8.27,46.09,0.17,-0.49,-1.65,100.0,0,0,129.07,0,0,0.0,0,0,0,0,6884,0,30.00,4,165.9,1,0,0.0,0.0,0.0,0.0,0,0,1.966,1.966,68.774,24.308,1,110.00,435.8,8750,0.0,0.0,110.0,110.0,433.0,0.00,0,0,1,333.3,72.0,72.0,70.0,70.0,34.0,2.58,29.29,2.0,37.8,4,-274.190,-1.9,100.0,19.8,22.5,32.7,38.0,0,1,0.0,0.00,0.00,0.00,0.00,4369,3599,5023,4268,314.2,315.8,342.0,342.9,25.31,23.43,24.31,23.97,325.0,325.0,355.0,355.0,99.86,100.00,99.99,100.00,0.30,0.39,0.25,0.41,-0.0,-0.0,-0.2,-0.3,84.2,72.4,71.7,69.6,79.1,68.4,71.8,70.2,76.4,66.1,70.1,68.2,73.4,64.6,69.4,67.3,-0.10,0.12,0.08,0.06,0.00,141.22,141.32,129.07,129.07,176.9,6.4,0.35566838487557484,158.0846510642037,45.732917300873204,39.61118835449071,18.00508553808335
2.000,88.8,44.053861702729534,-78.681738870664731,80.4,3.4,-1.7,-131.2,6854.7,6855,165.6,0,1,1,0,1,1,0,0,0,100,1,1.186,26.0,0.0,0.036,65.681,66.0,0.0,26.0,26.0,26.0,26.0,0.16,-0.21,-0.12,383.4,-1.65,-3.05,-1.41,-1.38,-715.32,605.31,5.8,0.00,0.00,0.00,0.00,0.05,-7.49,-7.49,-0.08,-0.36,-0.16,3.59,45.99,0.14,-0.52,-2.02,100.0,0,0,128.83,0,0,0.0,0,0,0,0,6872,0,30.00,4,165.6,0,0,0.0,0.0,0.0,0.0,0,0,2.016,2.016,68.774,24.308,0,110.00,435.8,8750,0.0,0.0,110.0,110.0,433.0,0.00,0,0,1,333.3,70.9,70.9,74.8,74.8,34.0,-1.09,20.77,-3.2,31.6,4,-274.240,-1.9,100.0,23.9,22.7,32.6,31.5,0,1,0.0,0.00,0.00,0.00,0.00,3636,3002,3572,4474,315.4,316.7,345.2,343.3,25.30,23.43,24.30,23.97,325.0,325.0,355.0,355.0,99.86,100.00,99.99,100.00,0.17,0.21,0.15,0.30,0.0,-0.0,-0.2,-0.4,84.1,72.4,71.7,69.6,79.0,68.3,71.8,70.2,76.4,66.1,70.1,68.1,73.3,64.6,69.4,67.3,-0.10,0.10,0.07,0.07,0.00,141.00,141.15,128.83,128.83,176.9,6.4,0.29,162.04576989965278,47.17332409839798,-14.404068259759413,7.202033987623793
2.050,91.1,44.053841557925558,-78.681732935142136,-139.6,-105.8,-15.6,77.2,6857.0,6857,165.3,0,1,1,0,1,1,0,0,0,100,1,1.186,26.0,0.0,0.039,65.681,66.0,0.0,26.0,26.0,26.0,26.0,0.19,-0.19,-0.22,385.9,-3.04,-2.69,-1.02,-1.78,-714.66,603.07,5.8,0.00,0.00,0.00,0.00,0.05,-7.49,-7.49,-0.24,-5.89,0.05,3.44,45.89,0.13,-0.51,-1.05,100.0,0,0,128.41,0,0,0.0,0,0,0,0,6850,0,30.00,4,165.3,1,0,0.0,0.0,0.0,0.0,0,0,2.067,2.067,68.774,24.308,1,110.00,435.8,8750,0.0,0.0,110.0,110.0,433.0,0.00,0,0,1,166.7,79.4,79.4,71.2,71.2,34.0,-4.62,23.63,-5.2,32.7,4,-274.290,-1.9,100.0,16.9,17.4,31.8,35.3,0,1,0.0,0.00,0.00,0.00,0.00,2294,3435,4519,4406,319.7,316.0,343.4,342.9,25.30,23.43,24.30,23.97,325.0,325.0,355.0,355.0,99.86,100.00,99.99,100.00,0.18,0.25,0.08,0.25,0.0,-0.0,-0.2,-0.3,84.1,72.4,71.7,69.6,79.0,68.3,71.7,70.1,76.3,66.1,70.0,68.1,73.3,64.6,69.3,67.3,-0.11,0.11,0.06,0.06,0.00,140.53,140.63,128.41,128.41,176.9,6.4,0.34727510708370674,156.64424423822777,46.45312069963558,-54.01525661425012,-7.202033418600209
2.100,93.4,44.053822582239675,-78.681727269416015,39.2,201.8,-136.2,-124.2,6859.3,6859,164.9,0,1,1,0,1,1,0,0,0,100,1,1.186,26.0,0.0,0.039,65.681,66.0,1.7,26.0,26.0,26.0,26.0,0.17,-0.20,-0.20,386.0,-2.96,-2.07,-0.85,-0.53,-714.03,600.96,5.8,0.00,0.00,0.00,0.00,0.06,-7.49,-7.49,-0.45,-0.73,0.04,-5.21,45.80,0.10,-0.58,-1.77,100.0,0,0,128.12,0,0,0.0,0,0,0,0,6834,0,30.00,4,164.9,0,0,0.0,0.0,0.0,0.0,0,0,2.116,2.116,68.774,24.308,0,110.00,435.8,8750,0.0,0.0,110.0,110.0,433.0,0.00,0,0,1,166.7,68.1,68.1,74.6,74.6,34.0,-7.79,41.02,-0.9,8.8,4,-274.340,-1.7,100.0,18.8,27.5,25.0,29.1,0,1,0.0,0.00,0.00,0.00,0.00,3243,5599,2999,2199,316.9,309.4,347.2,349.5,25.30,23.43,24.30,23.97,325.0,325.0,355.0,355.0,99.86,100.00,99.99,100.00,0.16,0.27,0.11,0.28,-0.1,-0.0,-0.4,-0.5,84.1,72.4,71.6,69.6,78.9,68.3,71.7,70.1,76.3,66.0,70.0,68.1,73.2,64.6,69.3,67.2,-0.10,0.10,0.09,0.08,0.00,140.30,140.48,128.12,128.12,176.9,6.4,0.33,156.64424423822777,46.453120756537956,39.611188069978596,14.404068544271453
2.150,95.6,44.053802437435699,-78.681721333893407,68.9,11.6,104.2,67.3,6861.6,6862,164.4,0,1,1,0,1,1,0,0,0,100,1,1.186,26.0,0.0,0.042,65.681,66.0,14.3,26.0,26.0,26.0,26.0,0.21,-0.36,0.10,379.7,-2.85,-1.99,-1.63,-1.99,-713.37,598.72,5.8,0.00,0.00,0.00,0.00,0.06,-7.49,-7.49,-0.38,1.44,-0.32,-8.39,45.65,0.08,-0.50,-1.30,100.0,0,0,127.63,0,0,0.0,0,0,0,0,6808,0,30.00,4,164.4,1,0,0.0,0.0,0.0,0.0,0,0,2.166,2.166,68.774,24.308,1,110.00,435.8,8750,0.0,0.0,110.0,110.0,433.0,0.00,0,0,1,333.3,66.5,66.5,67.6,67.6,34.0,-8.37,33.16,-10.4,45.8,4,-274.390,-0.9,100.0,22.3,28.0,30.2,32.5,0,1,0.0,0.00,0.00,0.00,0.00,3606,5148,4580,5040,316.1,310.9,342.8,341.3,25.29,23.42,24.30,23.97,325.0,325.0,355.0,355.0,99.86,100.00,99.99,100.00,0.15,0.23,0.10,0.33,-0.6,-0.5,-0.4,-0.4,84.1,72.4,71.6,69.6,78.9,68.3,71.7,70.1,76.2,66.0,70.0,68.0,73.2,64.5,69.2,67.2,-0.05,0.06,0.09,0.06,0.00,139.07,139.43,127.63,127.63,176.9,6.4,0.4286023798347368,160.60536304522563,47.89352755406273,-18.005085822595674,-5.690237259159403e-07
2.200,97.9,44.053782472496053,-78.681715308438655,-36.5,-149.1,130.3,34.0,6863.8,6864,163.5,0,1,1,0,1,1,0,0,0,100,1,1.186,26.0,0.0,0.042,65.681,66.0,31.4,26.0,26.0,26.0,26.0,0.13,-0.64,-0.14,382.1,-2.10,-1.27,-0.89,-0.69,-712.70,596.50,5.8,0.00,0.00,0.00,0.00,0.06,-7.49,-7.49,-0.44,-4.04,-0.69,-3.40,45.39,0.06,-0.50,-0.86,100.0,0,0,126.38,0,0,0.0,0,0,0,0,6741,0,30.00,4,163.5,0,0,0.0,0.0,0.0,0.0,0,0,2.217,2.217,68.774,24.308,0,110.00,435.8,8750,0.0,0.0,110.0,110.0,433.0,0.00,0,0,1,333.3,74.6,74.6,67.3,67.3,34.0,-3.68,11.51,-5.5,19.3,4,-274.440,-1.8,100.0,20.4,20.6,36.7,34.2,0,1,0.0,0.00,0.00,0.00,0.00,3123,3211,4379,4463,317.0,316.1,342.9,343.8,25.29,23.42,24.30,23.97,325.0,325.0,355.0,355.0,99.86,100.00,99.99,100.00,0.14,0.18,0.05,0.22,-1.8,-1.6,-0.6,-0.8,84.1,72.4,71.6,69.6,78.8,68.2,71.6,70.1,76.2,66.0,69.9,68.0,73.2,64.5,69.2,67.2,-0.07,0.07,0.05,0.06,0.00,136.55,136.69,126.38,126.38,176.9,6.4,0.6679071791798619,154.8437356559682,46.45312069963558,-72.02034186782186,-18.00508553808335
2.250,100.2,44.053763766606650,-78.681709732644691,146.1,110.6,-81.7,-94.6,6866.1,6866,162.1,0,1,1,0,1,1,0,0,0,100,1,1.186,26.0,0.0,0.045,65.681,66.0,46.5,26.0,26.0,26.0,26.0,0.21,-0.90,-0.16,381.1,-1.95,-2.47,-0.65,-1.12,-712.08,594.42,5.9,0.00,0.00,0.00,0.00,0.06,-7.49,-7.49,-0.67,-2.72,-0.70,3.41,44.99,0.04,-0.66,-2.07,100.0,0,0,124.22,0,0,0.0,0,0,0,0,6626,0,30.00,4,162.1,1,0,0.0,0.0,0.0,0.0,0,0,2.264,2.264,68.774,24.308,1,110.00,435.8,8750,0.0,0.0,110.0,110.0,433.0,0.00,0,0,1,333.3,62.1,62.1,75.5,75.5,34.0,1.68,48.51,-2.1,7.6,4,-274.490,-7.3,100.0,27.8,26.1,32.7,29.5,0,1,0.0,0.00,0.00,0.00,0.00,4652,6038,2289,2473,313.5,309.1,348.6,348.7,25.29,23.42,24.30,23.97,325.0,325.0,355.0,355.0,99.86,100.00,99.99,100.00,0.26,0.39,0.01,0.13,-2.0,-1.9,-1.6,-1.7,84.0,72.4,71.6,69.6,78.8,68.3,71.6,70.0,76.2,66.0,69.9,68.0,73.2,64.5,69.2,67.2,-0.36,0.36,0.08,0.06,0.00,134.94,135.63,124.22,124.22,176.9,6.4,0.9379232377972091,153.40332885844344,46.093019000254394,10.803051550459486,14.404067975247798
2.300,102.4,44.053744161395635,-78.681703797122097,45.1,151.1,-38.0,20.5,6868.3,6868,160.0,0,1,1,0,1,1,0,0,0,100,1,1.186,26.0,0.0,0.048,65.681,66.0,62.9,26.0,26.0,26.0,26.0,0.41,-1.31,0.31,374.5,-2.82,-3.53,-1.46,-1.15,-711.42,592.24,5.9,0.00,0.00,0.00,0.00,0.06,-7.49,-7.49,-0.62,2.09,-0.53,4.68,44.41,0.05,-0.69,-6.10,100.0,0,0,123.18,0,0,0.0,0,0,0,0,6571,0,30.00,4,160.0,0,0,0.0,0.0,0.0,0.0,0,0,2.316,2.316,68.774,24.308,0,110.00,435.8,8750,0.0,0.0,110.0,110.0,433.0,0.00,0,0,1,166.7,54.0,54.0,69.0,69.0,34.0,14.68,92.10,-8.4,31.6,4,-274.540,-15.7,100.0,30.0,33.7,30.8,30.5,0,1,0.0,0.00,0.00,0.00,0.00,5584,7507,4136,4962,311.2,304.9,344.3,341.9,25.28,23.42,24.30,23.97,325.0,325.0,355.0,355.0,99.86,100.00,99.99,100.00,0.61,0.74,0.07,0.30,-2.6,-2.4,-1.2,-1.3,84.0,72.4,71.6,69.6,78.8,68.3,71.6,70.0,76.2,66.1,69.9,68.0,73.2,64.6,69.2,67.2,-0.84,0.86,0.07,0.07,0.00,132.55,133.60,122.98,123.38,176.9,6.4,1.4072313242676202,155.92404081101415,47.89352749716036,-43.212205632814005,3.6010169938118963
2.350,104.6,44.053724825981114,-78.681697771667345,-105.9,-167.3,-21.4,173.7,6870.5,6871,157.8,0,1,1,0,1,1,0,0,0,100,1,1.186,26.0,0.0,0.051,65.681,66.0,72.6,26.0,26.0,26.0,26.0,0.40,-1.20,-0.12,381.1,-2.64,-2.97,-1.33,-1.04,-710.75,590.09,5.9,0.00,0.00,0.00,0.00,0.06,-7.49,-7.49,-0.62,-3.79,-0.31,3.33,43.79,0.14,-0.71,-7.58,100.0,0,0,120.75,0,0,0.0,0,0,0,0,6441,0,30.00,4,157.8,1,0,0.0,0.0,0.0,0.0,0,0,2.367,2.367,68.774,24.308,1,110.00,435.8,8750,0.0,0.0,110.0,110.0,433.0,0.00,0,0,1,333.3,69.1,69.1,75.2,75.2,34.0,4.06,27.31,2.6,34.0,4,-274.590,-23.2,100.0,24.7,25.3,29.7,39.2,0,1,0.0,0.00,0.00,0.00,0.00,2517,4546,2851,4388,319.3,312.5,347.4,342.5,25.28,23.42,24.30,23.97,325.0,325.0,355.0,355.0,99.86,100.00,99.99,100.00,1.13,1.15,0.29,0.45,-6.6,-5.5,-1.9,-1.5,84.0,72.4,71.6,69.6,78.8,68.3,71.6,70.0,76.2,66.1,69.9,68.0,73.2,64.6,69.1,67.1,-1.26,1.26,0.08,0.04,0.00,123.97,127.24,120.29,121.20,176.9,6.4,1.2705904139414872,149.08210829516204,46.45312069963558,-97.22746196255258,-18.005084969059695
2.400,106.7,44.053706929481152,-78.681692195873381,45.5,94.8,-139.8,-183.0,6872.7,6873,155.3,0,1,1,0,1,1,0,0,0,100,1,1.186,26.0,0.0,0.054,65.681,66.0,88.2,26.0,26.0,26.0,26.0,0.67,-1.62,-0.10,381.2,-2.46,-1.94,-2.63,-1.82,-710.13,588.10,5.9,0.00,0.00,0.00,0.00,0.06,-7.49,-7.49,-0.86,-2.77,-0.19,4.74,43.07,0.24,-0.87,-13.91,100.0,0,0,116.19,0,0,0.0,0,0,0,0,6198,0,30.00,4,155.3,0,0,0.0,0.0,0.0,0.0,1,0,2.414,2.414,68.774,24.308,0,110.00,435.8,8750,0.0,0.0,110.0,110.0,433.0,0.00,0,0,1,333.3,55.9,55.9,84.0,84.0,34.0,43.90,78.83,2.1,9.6,4,-274.640,-35.0,100.0,27.0,30.0,22.7,30.0,0,1,0.0,0.00,0.00,0.00,0.00,6517,7879,2153,1684,308.9,304.7,349.6,350.2,25.28,23.42,24.30,23.97,325.0,325.0,355.0,355.0,99.86,100.00,99.99,100.00,1.62,1.78,0.57,0.72,-4.7,-4.7,-3.9,-3.9,84.0,72.4,71.6,69.6,78.9,68.4,71.5,70.0,76.2,66.2,69.8,68.0,73.2,64.7,69.1,67.1,-1.92,1.90,0.10,0.08,0.00,125.82,126.72,116.05,116.33,176.9,6.4,1.7559328005365127,146.2012946147589,46.093019000254394,-18.005085538083563,18.00508553808335
2.450,108.9,44.053688313523914,-78.681686260350787,81.4,77.7,-164.6,29.6,6874.8,6875,152.3,0,1,1,0,1,1,0,0,0,100,1,1.186,26.0,0.0,0.060,65.681,66.0,100.0,26.0,26.0,26.0,26.0,0.70,-1.70,0.07,381.5,-2.79,-2.27,-2.48,-0.59,-709.47,586.03,5.9,0.00,0.00,0.00,0.00,0.07,-7.49,-7.49,-0.74,3.75,0.34,10.46,42.24,0.53,-0.80,-19.62,100.0,0,0,111.25,0,0,0.0,0,0,0,0,5934,0,30.00,4,152.3,1,0,0.0,0.0,0.0,0.0,1,0,2.466,2.466,68.774,24.308,1,110.00,435.8,8750,0.0,0.0,110.0,110.0,433.0,0.00,0,0,1,166.7,57.1,57.1,88.8,88.8,34.0,-2.61,2.16,-0.2,61.1,4,-274.690,-46.2,100.0,31.1,33.9,14.5,31.5,0,1,0.0,0.00,0.00,0.00,0.00,3531,6458,2069,4930,316.4,307.8,349.4,342.2,25.28,23.42,24.30,23.97,325.0,325.0,355.0,355.0,99.86,100.00,99.99,100.00,2.51,2.56,1.08,1.31,-10.5,-8.5,-10.1,-2.6,84.0,72.4,71.6,69.6,79.0,68.6,71.5,70.0,76.3,66.3,69.8,68.0,73.3,64.8,69.1,67.1,-2.61,2.58,0.11,0.07,0.00,113.57,119.06,106.14,116.37,176.9,6.4,1.8398097727754354,147.2815997413537,48.25362925344392,-61.21729060187363,10.803051550459557
2.500,110.9,44.053670147227471,-78.681680144963863,-188.8,68.0,212.0,87.6,6876.9,6877,149.1,1,1,1,0,1,1,0,0,0,100,1,1.186,26.0,0.0,0.066,65.681,66.0,100.0,26.0,26.0,26.0,26.0,0.96,-1.80,0.12,377.8,-2.04,-1.28,-2.90,-1.19,-708.79,584.01,5.9,0.00,0.00,0.00,0.00,0.07,-7.49,-7.49,-0.68,-1.01,0.53,-1.39,41.36,0.81,-0.81,-18.31,100.0,0,0,110.93,0,0,0.0,0,0,0,0,5917,0,30.00,4,149.1,0,0,0.0,0.0,0.0,0.0,1,0,2.517,2.517,68.774,24.308,0,110.00,435.8,8750,0.0,0.0,110.0,110.0,433.0,0.00,0,0,1,333.3,57.9,57.9,64.9,64.9,34.0,-1.29,1.01,7.4,55.4,4,-274.740,-56.2,100.0,21.6,37.3,25.1,35.9,0,1,0.0,0.00,0.00,0.00,0.00,1692,10316,2465,4403,319.9,297.7,348.7,342.9,25.27,23.42,24.30,23.97,325.0,325.0,355.0,355.0,99.86,100.00,99.99,100.00,3.71,3.68,1.59,1.76,-15.9,-7.8,-6.0,-3.4,83.9,72.4,71.6,69.6,79.1,68.8,71.6,70.0,76.4,66.5,69.9,68.0,73.3,65.0,69.1,67.2,-3.20,3.12,0.10,0.05,0.00,102.80,118.13,108.66,113.19,176.9,6.4,2.0435263639111683,140.07956555457153,47.17332415530035,-104.42949595017637,-7.202033987623722
2.550,113.0,44.053653329913438,-78.681674479237742,-90.8,-8.9,-89.5,-96.4,6878.9,6879,146.7,0,1,1,0,1,1,0,0,0,100,1,1.186,26.0,0.0,0.069,65.681,66.0,100.0,26.0,26.0,26.0,26.0,0.94,-1.55,-0.10,382.5,-3.29,-1.77,-2.63,-0.64,-708.16,582.14,5.9,0.00,0.00,0.00,0.00,0.07,-7.49,-7.49,-0.69,-0.52,-0.01,-17.27,40.68,1.01,-0.75,-16.52,100.0,0,0,106.50,0,0,0.0,0,0,0,0,5681,0,30.00,4,146.7,1,0,0.0,0.0,0.0,0.0,1,0,2.566,2.566,68.774,24.308,1,110.00,435.8,8750,0.0,0.0,110.0,110.0,433.0,0.00,0,0,1,333.3,62.1,62.1,70.7,70.7,34.0,-3.05,-16.99,-1.0,52.7,4,-274.790,-63.7,100.0,17.1,36.9,20.6,31.0,0,1,0.0,0.00,0.00,0.00,0.00,2723,8322,2378,4338,318.6,302.7,349.4,343.6,25.27,23.42,24.30,23.97,325.0,325.0,355.0,355.0,99.86,100.00,99.99,100.00,4.59,4.59,1.99,2.19,-11.5,-11.3,-10.4,-3.5,83.9,72.4,71.6,69.6,79.1,69.1,71.6,70.1,76.4,66.8,69.9,68.0,73.4,65.3,69.1,67.2,-3.67,3.55,0.11,0.06,0.00,107.11,110.99,101.99,111.01,176.9,6.4,1.8155164554473198,136.83865014633605,47.533425854681546,14.40406797524787,43.21220506379056
2.600,115.0,44.053635973006443,-78.681668273918660,149.3,-147.0,-15.1,-44.3,6880.9,6881,144.0,0,1,1,0,1,1,0,0,0,100,1,1.186,26.0,0.0,0.072,65.681,66.0,100.0,26.0,26.0,26.0,26.0,0.96,-1.41,-0.15,385.0,-2.01,-3.02,-0.77,-0.66,-707.47,580.21,5.9,0.00,0.00,0.00,0.00,0.07,-7.49,-7.49,-0.76,-0.91,-0.81,-9.74,39.92,1.17,-0.75,-20.12,100.0,0,0,103.23,0,0,0.0,0,0,0,0,5506,0,30.00,4,144.0,0,0,0.0,0.0,0.0,0.0,1,0,2.616,2.616,68.774,24.308,0,110.00,435.8,8750,0.0,0.0,110.0,110.0,433.0,0.00,0,0,1,166.7,62.5,62.5,87.5,87.5,34.0,-11.28,-8.17,-1.0,8.6,4,-274.840,-72.7,100.0,24.5,29.5,19.8,28.8,0,1,0.0,0.00,0.00,0.00,0.00,5805,4363,2386,2187,310.7,312.9,348.9,349.2,25.26,23.41,24.30,23.97,325.0,325.0,355.0,355.0,99.86,100.00,99.99,100.00,5.16,5.16,2.33,2.49,-8.8,-11.8,-9.7,-6.2,83.9,72.3,71.6,69.5,79.2,69.3,71.6,70.1,76.5,67.0,69.9,68.0,73.5,65.5,69.2,67.2,-4.19,4.06,0.10,0.07,0.00,109.27,106.38,100.80,105.65,176.9,6.4,1.7123667831396403,141.51997235209632,51.494544661679406,-61.21729117089785,14.404067975247727
2.650,116.9,44.053617986574331,-78.681661618938776,112.0,51.2,-37.6,-6.2,6882.8,6883,140.8,0,1,1,0,1,1,0,0,0,100,1,1.186,26.0,0.0,0.081,65.681,66.0,100.0,26.0,26.0,26.0,26.0,1.12,-1.49,0.04,382.0,-2.83,-2.86,-1.78,-0.95,-706.73,578.21,5.9,0.00,0.00,0.00,0.00,0.07,-7.49,-7.49,-0.77,1.74,-0.58,11.57,39.03,1.49,-0.78,-26.39,100.0,0,0,100.59,0,0,0.0,0,0,0,0,5365,0,30.00,4,140.8,1,0,0.0,0.0,0.0,0.0,1,0,2.670,2.670,68.774,24.308,1,110.00,435.8,8750,0.0,0.0,110.0,110.0,433.0,0.00,0,0,1,166.7,56.6,56.6,87.8,87.8,34.0,-6.89,-19.20,-1.0,30.5,4,-274.900,-80.9,100.0,30.1,32.1,18.0,28.5,0,1,0.0,0.00,0.00,0.00,0.00,4183,6877,1472,3975,314.0,306.1,351.2,344.3,25.26,23.41,24.29,23.97,325.0,325.0,355.0,355.0,99.86,100.00,99.99,100.00,5.79,5.71,2.85,3.00,-11.0,-7.2,-12.0,-4.7,83.9,72.3,71.6,69.5,79.4,69.6,71.6,70.1,76.7,67.3,69.9,68.1,73.7,65.7,69.2,67.3,-4.67,4.53,0.11,0.07,0.00,103.25,110.01,95.40,105.77,176.9,6.4,1.8644302078651267,130.71692102924627,48.97383265220632,-176.4498381025102,-36.01017107616677
2.700,118.8,44.053603327632153,-78.681656043144827,-204.1,26.0,-10.0,79.0,6884.8,6885,138.5,1,1,1,0,1,1,0,0,0,100,1,1.186,26.0,0.0,0.090,65.681,66.0,100.0,26.0,26.0,26.0,26.0,1.02,-1.34,-0.11,384.2,-2.42,-1.63,-2.10,-0.19,-706.11,576.58,6.0,0.00,0.00,0.00,0.00,0.07,-7.49,-7.49,-0.70,0.28,-0.07,8.50,38.39,1.81,-0.72,-24.42,100.0,0,0,100.12,0,0,0.0,0,0,0,0,5341,0,30.00,4,138.5,0,0,0.0,0.0,0.0,0.0,1,0,2.714,2.714,68.774,24.308,0,110.00,435.8,8750,0.0,0.0,110.0,110.0,433.0,0.00,0,0,1,333.3,66.4,66.4,77.3,77.3,34.0,-0.76,-16.15,-1.8,50.3,4,-274.940,-82.9,100.0,19.9,33.4,17.5,32.5,0,1,0.0,0.00,0.00,0.00,0.00,753,6942,1902,5856,322.9,306.6,350.0,339.6,25.26,23.41,24.29,23.97,325.0,325.0,355.0,355.0,99.86,100.00,99.99,100.00,6.63,6.45,3.36,3.53,-14.2,-11.1,-10.2,-4.2,83.9,72.3,71.6,69.5,79.5,69.8,71.7,70.2,76.8,67.5,69.9,68.2,73.7,65.9,69.2,67.4,-4.88,4.69,0.10,0.07,0.00,95.55,108.70,95.61,104.64,176.9,6.4,1.687631476359694,123.8749885418453,47.89352755406273,-18.00508525357145,28.808137088542907
2.750,120.7,44.053587049911087,-78.681649657961415,-46.8,-28.0,-49.7,80.6,6886.7,6887,136.2,0,1,1,0,1,1,0,0,0,100,1,1.186,26.0,0.0,0.096,65.681,66.0,100.0,26.0,26.0,26.0,26.0,1.21,-1.20,-0.02,384.8,-2.70,-2.07,-2.26,-0.71,-705.40,574.77,6.0,0.00,0.00,0.00,0.00,0.07,-7.49,-7.49,-0.83,-3.01,-0.05,-4.43,37.75,1.97,-0.76,-19.76,100.0,0,0,97.47,0,0,0.0,0,0,0,0,5199,0,30.00,4,136.2,1,0,0.0,0.0,0.0,0.0,1,0,2.766,2.766,68.774,24.308,1,110.00,435.8,8750,0.0,0.0,110.0,110.0,433.0,0.00,0,0,1,333.3,65.3,65.3,83.7,83.7,34.0,-3.99,-18.55,-0.5,29.0,4,-274.990,-80.7,100.0,17.6,32.0,15.0,36.5,0,1,0.0,0.00,0.00,0.00,0.00,2169,7569,742,4745,319.1,305.0,353.3,341.6,25.25,23.41,24.29,23.97,325.0,325.0,355.0,355.0,99.86,100.00,99.99,100.00,7.08,6.96,3.65,3.80,-7.3,-11.3,-11.1,-4.5,83.8,72.3,71.6,69.5,79.6,70.1,71.7,70.3,76.8,67.8,70.0,68.3,73.8,66.2,69.2,67.5,-4.80,4.59,0.11,0.06,0.00,102.25,101.63,92.75,102.20,176.9,6.4,1.7042593699317012,128.91641250388912,51.85464636106061,-18.00508553808328,36.010170507143044
