Time,Distance,GPS Latitude,GPS Longitude,Damper Velocity (Calc) FL,Damper Velocity (Calc) FR,Damper Velocity (Calc) RL,Damper Velocity (Calc) RR,Corr Dist,Corr Dist (Unstretched),Corr Speed,ABS Active,ABS Enabled,AID Allow Tire Blankets,AID Auto Blip,AID Auto Clutch,AID Auto Shift,AID Fuel Rate,AID Ideal Line,AID Mech Damage,AID Stability,AID Tire Wear Rate,Air Density,Air Temp,Ballast,Best Lap Delta,Best Lap Time,Brake Bias,Brake Pos,Brake Temp FL,Brake Temp FR,Brake Temp RL,Brake Temp RR,CG Accel Lateral,CG Accel Longitudinal,CG Accel Vertical,CG Height,Camber FL,Camber FR,Camber RL,Camber RR,Car Coord X,Car Coord Y,Car Coord Z,Car Damage Front,Car Damage Left,Car Damage Rear,Car Damage Right,Car Pos Norm,Caster FL,Caster FR,Chassis Pitch Angle,Chassis Pitch Rate,Chassis Roll Angle,Chassis Roll Rate,Chassis Velocity X,Chassis Velocity Y,Chassis Velocity Z,Chassis Yaw Rate,Clutch Pos,DRS Active,DRS Available,Drive Train Speed,ERS Heat Charging,ERS Is Charging,ERS Max Energy,ERS Power Level,ERS Recovery Level,Engine Brake Setting,Engine Limiter,Engine RPM,Flags,Fuel Level,Gear,Ground Speed,HR Sample Clock,In Pit,KERS Charge,KERS Deployed Energy,KERS Input,KERS Max Energy,LR Sample Clock,Lap Invalidated,Lap Time,Lap Time2,Last Lap Time,Last Sector Time,MR Sample Clock,Max Fuel,Max Power,Max RPM,Max Sus Travel FL,Max Sus Travel FR,Max Sus Travel RL,Max Sus Travel RR,Max Torque,Max Turbo Boost,Num Tires Off Track,Penalties Enabled,Position,Raw Data Sample Rate,Ride Height FL,Ride Height FR,Ride Height RL,Ride Height RR,Road Temp,Self Align Torque FL,Self Align Torque FR,Self Align Torque RL,Self Align Torque RR,Session Lap Count,Session Time Left,Steering Angle,Surface Grip,Suspension Travel FL,Suspension Travel FR,Suspension Travel RL,Suspension Travel RR,TC Active,TC Enabled,Throttle Pos,Tire Dirt Level FL,Tire Dirt Level FR,Tire Dirt Level RL,Tire Dirt Level RR,Tire Load FL,Tire Load FR,Tire Load RL,Tire Load RR,Tire Loaded Radius FL,Tire Loaded Radius FR,Tire Loaded Radius RL,Tire Loaded Radius RR,Tire Pressure FL,Tire Pressure FR,Tire Pressure RL,Tire Pressure RR,Tire Radius FL,Tire Radius FR,Tire Radius RL,Tire Radius RR,Tire Rubber Grip FL,Tire Rubber Grip FR,Tire Rubber Grip RL,Tire Rubber Grip RR,Tire Slip Angle FL,Tire Slip Angle FR,Tire Slip Angle RL,Tire Slip Angle RR,Tire Slip Ratio FL,Tire Slip Ratio FR,Tire Slip Ratio RL,Tire Slip Ratio RR,Tire Temp Core FL,Tire Temp Core FR,Tire Temp Core RL,Tire Temp Core RR,Tire Temp Inner FL,Tire Temp Inner FR,Tire Temp Inner RL,Tire Temp Inner RR,Tire Temp Middle FL,Tire Temp Middle FR,Tire Temp Middle RL,Tire Temp Middle RR,Tire Temp Outer FL,Tire Temp Outer FR,Tire Temp Outer RL,Tire Temp Outer RR,Toe In FL,Toe In FR,Toe In RL,Toe In RR,Turbo Boost,Wheel Angular Speed FL,Wheel Angular Speed FR,Wheel Angular Speed RL,Wheel Angular Speed RR,Wind Direction,Wind Speed,CG Distance,Lateral Velocity,Longitudinal Velocity,Lateral Acceleration,Longitudinal Acceleration
s,m,deg,deg,mm/s,mm/s,mm/s,mm/s,m,m,km/h,,,,,,,,,%,%,,kg/m3,C,kg,s,s,%,%,C,C,C,C,G,G,G,mm,deg,deg,deg,deg,m,m,m,,,,,,deg,deg,deg,deg/s,deg,deg/s,m/s,m/s,m/s,deg/s,%,,,rad/s,,,MJ,,,,,rpm,,l,,km/h,,,%,kJ,%,MJ,,,s,s,s,s,,l,hp,rpm,mm,mm,mm,mm,N.m,,,,,Hz,mm,mm,mm,mm,C,N.m,N.m,N.m,N.m,,s,deg,%,mm,mm,mm,mm,,,%,,,,,N,N,N,N,mm,mm,mm,mm,psi,psi,psi,psi,mm,mm,mm,mm,%,%,%,%,deg,deg,deg,deg,%,%,%,%,C,C,C,C,C,C,C,C,C,C,C,C,C,C,C,C,deg,deg,deg,deg,,rad/s,rad/s,rad/s,rad/s,deg,km/h,G,Km/h,Km/h,Km/h^2,Km/h^2
0.000,0.0,44.054618391928749,-78.681986993495798,48.4,121.0,-17.2,-32.2,8963.3,8963,150.4,0,1,1,0,1,1,0,0,0,100,1,1.186,26.0,0.0,0.00,59.817,66.0,0.0,26.0,26.0,26.0,26.0,0.34,0.15,0.22,380.0,-3.24,-2.03,-1.92,-1.63,-742.91,689.45,5.7,0.00,0.00,0.00,0.00,0.00,-7.49,-7.49,-0.32,6.04,0.35,3.00,41.79,0.19,-0.43,-5.56,100.0,0,0,118.78,0,0,0.0,0,0,0,0,7963,0,30.00,3,150.4,0,0,0.0,0.0,0.0,0.0,0,0,0.017,0.017,95.237,21.595,0,110.00,435.8,8750,0.0,0.0,110.0,110.0,433.0,0.00,0,0,1,166.7,65.3,65.3,71.4,71.4,34.0,1.62,44.88,0.2,55.4,5,-475.889,-7.2,100.0,23.9,28.0,28.0,31.8,0,1,40.1,0.00,0.00,0.00,0.00,3735,4837,4915,5549,315.0,311.3,343.4,341.7,25.34,22.60,26.11,25.44,325.0,325.0,355.0,355.0,99.77,99.94,99.83,99.88,0.41,0.48,0.29,0.51,-0.0,-0.1,1.2,0.9,84.4,67.2,82.9,78.7,101.5,71.1,84.0,76.6,96.4,68.6,82.3,74.5,92.6,67.5,81.1,73.1,-0.41,0.41,0.09,0.07,0.00,128.14,128.61,118.78,118.78,13.4,28.7,0.4318564576337837
0.050,2.1,44.054601035021754,-78.681982137159125,-223.7,-63.7,164.4,187.2,8965.4,8965,150.8,0,1,1,0,1,1,0,0,0,100,1,1.186,26.0,0.0,-0.03,59.817,66.0,0.0,26.0,26.0,26.0,26.0,0.32,0.23,0.04,383.2,-2.49,-3.01,-1.33,-1.16,-742.37,687.52,5.7,0.00,0.00,0.00,0.00,0.00,-7.49,-7.49,-0.12,0.92,0.36,-4.54,41.88,0.19,-0.33,-4.27,100.0,0,0,118.74,0,0,0.0,0,0,0,0,7960,0,30.00,3,150.8,1,0,0.0,0.0,0.0,0.0,0,0,0.067,0.067,95.237,21.595,1,110.00,435.8,8750,0.0,0.0,110.0,110.0,433.0,0.00,0,0,1,333.3,83.1,83.1,62.5,62.5,34.0,1.99,4.66,8.0,73.0,5,-475.933,-7.0,100.0,12.7,24.9,36.2,41.2,0,1,40.1,0.00,0.00,0.00,0.00,728,702,4195,7101,322.8,323.0,343.9,336.7,25.34,22.60,26.11,25.44,325.0,325.0,355.0,355.0,99.77,99.94,99.83,99.88,0.61,0.53,0.35,0.52,-0.1,0.1,1.1,0.7,84.4,67.2,82.9,78.7,101.4,71.1,84.0,76.6,96.3,68.5,82.3,74.5,92.5,67.5,81.1,73.1,-0.41,0.41,0.07,0.05,0.00,128.17,128.68,118.75,118.74,13.4,28.7,0.39610604640676716,139.35936209890681,39.61118818378344
0.100,4.2,44.054583588182602,-78.681977100958136,-82.9,-277.2,-5.8,-24.6,8967.5,8968,151.1,0,1,1,0,1,1,0,0,0,100,1,1.186,26.0,0.0,-0.05,59.817,66.0,0.0,26.0,26.0,26.0,26.0,0.27,0.16,-0.41,388.7,-2.57,-2.70,-1.26,-1.41,-741.81,685.58,5.7,0.00,0.00,0.00,0.00,0.00,-7.49,-7.49,-0.39,-9.33,0.11,-4.54,41.97,0.19,-0.38,-2.73,100.0,0,0,119.16,0,0,0.0,0,0,0,0,7988,0,30.00,3,151.1,0,0,0.0,0.0,0.0,0.0,0,0,0.113,0.113,95.237,21.595,0,110.00,435.8,8750,0.0,0.0,110.0,110.0,433.0,0.00,0,0,1,333.3,90.0,90.0,70.6,70.6,34.0,2.13,23.25,4.0,57.1,5,-475.989,-7.0,100.0,8.6,11.0,35.9,39.9,0,1,40.1,0.00,0.00,0.00,0.00,955,2405,2612,6172,323.0,318.6,347.9,339.3,25.35,22.60,26.11,25.44,325.0,325.0,355.0,355.0,99.77,99.94,99.83,99.88,0.59,0.66,0.33,0.44,0.0,-0.0,1.3,1.1,84.4,67.2,82.9,78.7,101.3,71.1,84.0,76.5,96.2,68.5,82.3,74.5,92.4,67.5,81.1,73.1,-0.40,0.41,0.08,0.06,0.00,128.24,128.52,119.17,119.16,13.4,28.7,0.5163332257370233,148.36190486794848,42.85210359201891,90.02542769041668,32.40915408235473
0.150,6.3,44.054563982971594,-78.681971435232015,295.8,162.4,-247.1,-387.0,8969.6,8970,151.4,0,1,1,0,1,1,0,0,0,100,1,1.186,26.0,0.0,-0.06,59.817,66.0,0.0,26.0,26.0,26.0,26.0,0.27,0.21,-0.05,387.7,-2.65,-1.70,-1.12,-1.37,-741.18,683.40,5.7,0.00,0.00,0.00,0.00,0.01,-7.49,-7.49,-0.78,-1.73,-0.03,5.22,42.05,0.19,-0.50,-4.33,100.0,0,0,120.22,0,0,0.0,0,0,0,0,8059,0,30.00,3,151.4,1,0,0.0,0.0,0.0,0.0,0,0,0.167,0.167,95.237,21.595,1,110.00,435.8,8750,0.0,0.0,110.0,110.0,433.0,0.00,0,0,1,166.7,67.2,67.2,88.4,88.4,34.0,4.99,48.93,1.9,20.7,5,-476.033,-6.4,100.0,23.4,19.1,23.5,20.6,0,1,40.1,0.00,0.00,0.00,0.00,5605,5008,2211,2993,310.8,311.3,349.2,347.4,25.35,22.60,26.11,25.44,325.0,325.0,355.0,355.0,99.77,99.94,99.83,99.88,0.37,0.58,0.26,0.46,-0.0,-0.1,2.0,1.7,84.5,67.2,82.9,78.7,101.2,71.1,83.9,76.5,96.1,68.5,82.2,74.4,92.4,67.5,81.0,73.1,-0.37,0.37,0.10,0.09,0.00,128.95,129.28,120.23,120.22,13.4,28.7,0.3456877203488721,148.36190486794848,42.85210359201891,-86.42441041209338,-18.00508553808342
0.200,8.4,44.054546536132442,-78.681966399031026,61.0,271.2,15.2,150.2,8971.7,8972,151.7,0,1,1,0,1,1,0,0,0,100,1,1.186,26.0,0.0,-0.07,59.817,66.0,0.0,26.0,26.0,26.0,26.0,0.36,0.23,0.23,378.7,-3.40,-2.80,-1.56,-0.03,-740.62,681.46,5.7,0.00,0.00,0.00,0.00,0.01,-7.49,-7.49,-0.54,8.38,0.19,1.50,42.15,0.22,-0.42,-6.05,100.0,0,0,119.73,0,0,0.0,0,0,0,0,8026,0,30.00,3,151.7,0,0,0.0,0.0,0.0,0.0,0,0,0.217,0.217,95.237,21.595,0,110.00,435.8,8750,0.0,0.0,110.0,110.0,433.0,0.00,0,0,1,333.3,60.5,60.5,69.0,69.0,34.0,-0.56,68.85,4.5,40.0,5,-476.089,-5.5,100.0,26.4,32.7,24.3,28.1,0,1,40.1,0.00,0.00,0.00,0.00,3124,6472,5406,5282,316.9,307.2,341.9,341.8,25.36,22.60,26.11,25.43,325.0,325.0,355.0,355.0,99.77,99.94,99.83,99.88,0.38,0.46,0.30,0.57,-0.0,-0.1,1.3,0.8,84.5,67.3,82.9,78.7,101.1,71.1,83.9,76.5,96.1,68.5,82.2,74.4,92.3,67.4,81.0,73.0,-0.32,0.35,0.10,0.07,0.00,129.26,129.83,119.73,119.73,13.4,28.7,0.48518037882832815,139.71946382673914,41.05159503821057,-43.212205063790634,7.202033987623864
0.250,10.5,44.054529089293283,-78.681961182965708,-130.2,-116.7,318.3,359.8,8973.8,8974,152.1,0,1,1,0,1,1,0,0,0,100,1,1.186,26.0,0.0,-0.08,59.817,66.0,0.0,26.0,26.0,26.0,26.0,0.40,0.23,0.20,375.4,-2.49,-2.79,-1.96,-1.59,-740.04,679.52,5.7,0.00,0.00,0.00,0.00,0.01,-7.49,-7.49,-0.23,4.00,0.14,-2.16,42.24,0.21,-0.32,-4.06,100.0,0,0,119.74,0,0,0.0,0,0,0,0,8027,0,30.00,3,152.1,1,0,0.0,0.0,0.0,0.0,0,0,0.263,0.263,95.237,21.595,1,110.00,435.8,8750,0.0,0.0,110.0,110.0,433.0,0.00,0,0,1,333.3,74.0,74.0,53.5,53.5,34.0,0.80,35.69,7.4,82.1,5,-476.133,-3.8,100.0,19.9,26.8,40.2,46.1,0,1,40.1,0.00,0.00,0.00,0.00,708,4104,5610,7124,322.8,314.0,341.0,336.7,25.36,22.60,26.11,25.43,325.0,325.0,355.0,355.0,99.77,99.94,99.83,99.88,0.42,0.39,0.40,0.55,0.0,-0.0,1.0,0.8,84.5,67.3,82.9,78.7,101.1,71.0,83.8,76.5,96.0,68.5,82.1,74.4,92.3,67.4,80.9,73.0,-0.22,0.23,0.05,0.04,0.00,129.47,129.74,119.74,119.74,13.4,28.7,0.5028916384272063,144.04068436156942,43.5723069907813,133.23763303871914,57.61627360806216
0.300,12.6,44.054510563268202,-78.681955517239601,-95.9,-193.3,-31.6,15.0,8976.0,8976,152.4,0,1,1,0,1,1,0,0,0,100,1,1.186,26.0,0.0,-0.09,59.817,66.0,0.0,26.0,26.0,26.0,26.0,0.27,0.19,0.06,381.2,-2.64,-2.12,-1.71,-2.11,-739.41,677.46,5.7,0.00,0.00,0.00,0.00,0.01,-7.49,-7.49,-0.28,-4.21,-0.19,-6.88,42.34,0.16,-0.35,-1.75,100.0,0,0,120.07,0,0,0.0,0,0,0,0,8049,0,30.00,3,152.4,0,0,0.0,0.0,0.0,0.0,0,0,0.313,0.313,95.237,21.595,0,110.00,435.8,8750,0.0,0.0,110.0,110.0,433.0,0.00,0,0,1,166.7,80.4,80.4,61.8,61.8,34.0,0.88,22.37,1.3,33.7,5,-476.189,-1.9,100.0,15.1,17.2,38.6,46.8,0,1,40.1,0.00,0.00,0.00,0.00,2392,3072,5588,3884,319.1,316.3,341.3,344.8,25.36,22.60,26.11,25.43,325.0,325.0,355.0,355.0,99.77,99.94,99.83,99.88,0.34,0.37,0.28,0.37,-0.0,-0.1,1.1,0.9,84.5,67.3,82.9,78.7,101.0,71.0,83.8,76.4,95.9,68.4,82.1,74.4,92.2,67.4,80.9,73.0,-0.13,0.11,0.06,0.03,0.00,129.62,129.83,120.07,120.06,13.4,28.7,0.3355592347112504,153.04322713061106,46.81322239901679,7.202033987623508,7.202034556647519
0.350,14.8,44.054490868125029,-78.681949491784835,8.4,-47.8,-122.2,-306.0,8978.1,8978,152.7,0,1,1,0,1,1,0,0,0,100,1,1.186,26.0,0.0,-0.11,59.817,66.0,0.0,26.0,26.0,26.0,26.0,0.10,0.17,-0.48,389.2,-2.29,-2.49,-1.61,-0.93,-738.74,675.27,5.7,0.00,0.00,0.00,0.00,0.01,-7.49,-7.49,-0.52,-4.62,-0.31,1.61,42.43,0.13,-0.39,-0.85,100.0,0,0,120.77,0,0,0.0,0,0,0,0,8096,0,30.00,3,152.7,1,0,0.0,0.0,0.0,0.0,0,0,0.370,0.370,95.237,21.595,1,110.00,435.8,8750,0.0,0.0,110.0,110.0,433.0,0.00,0,0,1,166.7,82.5,82.5,74.8,74.8,34.0,-1.99,13.61,-5.2,16.3,5,-476.233,-0.9,100.0,15.6,14.8,32.5,31.5,0,1,40.1,0.00,0.00,0.00,0.00,2074,2468,3497,3655,319.9,318.5,346.2,346.6,25.37,22.60,26.11,25.43,325.0,325.0,355.0,355.0,99.77,99.94,99.83,99.88,0.18,0.21,0.12,0.25,-0.0,-0.1,1.4,1.3,84.5,67.3,82.9,78.7,100.9,71.0,83.8,76.4,95.8,68.4,82.1,74.3,92.1,67.4,80.9,73.0,-0.05,0.04,0.07,0.07,0.00,129.89,129.95,120.77,120.77,13.4,28.7,0.5189412298131648,144.76088776033177,44.29251044644605,-126.03559905109535,-36.01017107616677
0.400,16.9,44.054474410539648,-78.681944455583846,27.2,66.3,-51.8,-15.7,8980.2,8980,153.0,0,1,1,0,1,1,0,0,0,100,1,1.186,26.0,0.0,-0.12,59.817,66.0,0.0,26.0,26.0,26.0,26.0,0.10,0.16,-0.04,386.0,-1.29,-3.27,-1.75,-1.39,-738.18,673.44,5.7,0.00,0.00,0.00,0.00,0.01,-7.49,-7.49,-0.72,-3.69,-0.27,0.33,42.51,0.10,-0.47,-0.87,100.0,0,0,120.85,0,0,0.0,0,0,0,0,8102,0,30.00,3,153.0,0,0,0.0,0.0,0.0,0.0,1,0,0.413,0.413,95.237,21.595,0,110.00,435.8,8750,0.0,0.0,110.0,110.0,433.0,0.00,0,0,1,333.3,73.8,73.8,76.7,76.7,34.0,-6.23,33.28,-7.8,14.6,5,-476.289,-0.3,100.0,16.9,18.1,29.9,30.7,0,1,40.1,0.00,0.00,0.00,0.00,4694,4531,3300,2832,313.8,312.5,346.8,347.3,25.37,22.60,26.10,25.43,325.0,325.0,355.0,355.0,99.77,99.94,99.83,99.88,0.05,0.19,0.07,0.23,-0.1,-0.1,1.2,1.1,84.6,67.3,82.9,78.7,100.8,70.9,83.7,76.4,95.8,68.4,82.0,74.3,92.0,67.3,80.8,73.0,-0.03,0.02,0.08,0.07,0.00,130.33,130.36,120.86,120.85,13.4,28.7,0.1928730152198591,140.43966722550152,43.21220529140011,46.81322262662661,18.00508553808342
0.450,19.0,44.054455794582402,-78.681938699925567,93.6,64.5,-76.6,-19.7,8982.3,8982,153.4,0,1,1,0,1,1,0,0,0,100,1,1.186,26.0,0.0,-0.13,59.817,66.0,0.0,26.0,26.0,26.0,26.0,0.10,0.22,-0.11,386.1,-2.61,-1.76,-1.49,-1.27,-737.54,671.37,5.7,0.00,0.00,0.00,0.00,0.01,-7.49,-7.49,-0.71,2.36,-0.13,1.02,42.60,0.09,-0.42,-0.59,100.0,0,0,121.13,0,0,0.0,0,0,0,0,8120,0,30.00,3,153.4,1,0,0.0,0.0,0.0,0.0,1,0,0.463,0.463,95.237,21.595,1,110.00,435.8,8750,0.0,0.0,110.0,110.0,433.0,0.00,0,0,1,333.3,74.6,74.6,78.1,78.1,34.0,-3.81,14.20,-8.8,25.1,5,-476.333,-0.2,100.0,21.6,21.3,26.1,29.8,0,1,40.1,0.00,0.00,0.00,0.00,1835,3471,3555,4775,320.5,315.2,346.4,342.8,25.38,22.60,26.10,25.43,325.0,325.0,355.0,355.0,99.77,99.94,99.83,99.88,0.12,0.11,0.03,0.20,0.0,-0.0,1.1,1.1,84.6,67.3,82.9,78.7,100.7,70.9,83.7,76.3,95.7,68.3,82.0,74.3,92.0,67.3,80.8,72.9,-0.02,0.01,0.08,0.08,0.00,130.59,130.81,121.13,121.13,13.4,28.7,0.26551836094703507,149.44221002299443,46.093019000254394,50.414239620438934,18.00508553808342
0.500,21.1,44.054437088693000,-78.681932944267288,52.5,-45.2,195.4,107.2,8984.5,8984,153.7,0,1,1,0,1,1,0,0,0,100,1,1.186,26.0,0.0,-0.14,59.817,66.0,0.0,26.0,26.0,26.0,26.0,-0.02,0.20,0.14,379.2,-2.98,-2.10,-2.31,-1.92,-736.90,669.29,5.7,0.00,0.00,0.00,0.00,0.01,-7.49,-7.49,-0.66,0.71,0.02,7.75,42.70,0.08,-0.43,0.12,100.0,0,0,121.13,0,0,0.0,0,0,0,0,8120,0,30.00,3,153.7,0,0,0.0,0.0,0.0,0.0,1,0,0.517,0.517,95.237,21.595,0,110.00,435.8,8750,0.0,0.0,110.0,110.0,433.0,0.00,0,0,1,333.3,70.8,70.8,71.8,71.8,34.0,-23.41,13.61,-28.4,31.5,5,-476.389,-0.3,100.0,24.2,19.1,35.9,35.1,0,1,39.7,0.00,0.00,0.00,0.00,4910,3396,5059,5438,312.7,315.7,342.6,341.4,25.38,22.60,26.10,25.43,325.0,325.0,355.0,355.0,99.77,99.94,99.83,99.88,0.01,0.07,-0.05,0.12,-0.1,-0.0,1.0,1.0,84.6,67.3,82.9,78.7,100.6,70.9,83.6,76.3,95.6,68.3,81.9,74.3,91.9,67.3,80.7,72.9,-0.01,0.01,0.06,0.05,0.00,131.07,130.96,121.14,121.13,13.4,28.7,0.24494897427831783,145.48109118754542,45.01271384520845,7.20203427213562,3.6010169938118963
0.550,23.3,44.054419461989525,-78.681927458405497,-170.3,-33.1,-62.3,15.0,8986.6,8987,154.0,0,1,1,0,1,1,0,0,0,100,1,1.186,26.0,0.0,-0.16,59.817,66.0,0.0,26.0,26.0,26.0,26.0,0.02,0.23,-0.06,384.4,-2.36,-1.64,-2.10,-0.84,-736.29,667.33,5.7,0.00,0.00,0.00,0.00,0.02,-7.49,-7.49,-0.64,-1.39,0.28,3.05,42.79,0.08,-0.35,-0.30,100.0,0,0,121.25,0,0,0.0,0,0,0,0,8128,0,30.00,3,154.0,1,0,0.0,0.0,0.0,0.0,1,0,0.563,0.563,95.237,21.595,1,110.00,435.8,8750,0.0,0.0,110.0,110.0,433.0,0.00,0,0,1,166.7,80.6,80.6,66.6,66.6,34.0,-2.33,12.94,-26.1,19.7,5,-476.433,-0.3,100.0,15.7,17.4,32.7,35.9,0,1,40.1,0.00,0.00,0.00,0.00,1312,3579,5047,5203,321.5,315.2,342.3,341.8,25.38,22.60,26.10,25.43,325.0,325.0,355.0,355.0,99.77,99.94,99.83,99.88,0.11,0.09,-0.04,0.14,-0.0,-0.1,1.0,0.9,84.6,67.3,82.9,78.7,100.6,70.8,83.6,76.3,95.5,68.3,81.9,74.2,91.8,67.2,80.7,72.9,-0.01,0.01,0.06,0.05,0.00,131.05,131.25,121.25,121.25,13.4,28.7,0.23853720883753127,150.162413450208,46.45312069963558,93.62644496873997,28.808137088542765
0.600,25.4,44.054399586982029,-78.681921343018573,-27.0,32.2,7.6,-80.2,8988.7,8989,154.4,0,1,1,0,1,1,0,0,0,100,1,1.186,26.0,0.0,-0.17,59.817,66.0,0.0,26.0,26.0,26.0,26.0,0.07,0.16,-0.45,388.2,-2.36,-2.68,-1.48,-0.35,-735.61,665.12,5.7,0.00,0.00,0.00,0.00,0.02,-7.49,-7.49,-0.82,-3.84,0.27,-1.52,42.88,0.08,-0.42,-0.56,100.0,0,0,122.16,0,0,0.0,0,0,0,0,8190,0,30.00,3,154.4,0,0,0.0,0.0,0.0,0.0,1,0,0.617,0.617,95.237,21.595,0,110.00,435.8,8750,0.0,0.0,110.0,110.0,433.0,0.00,0,0,1,166.7,80.6,80.6,73.6,73.6,34.0,-4.47,13.67,-3.5,10.6,5,-476.489,-0.1,100.0,14.4,19.0,33.1,31.9,0,1,40.9,0.00,0.00,0.00,0.00,2026,2692,2341,3796,320.1,317.5,349.2,346.4,25.39,22.61,26.10,25.42,325.0,325.0,355.0,355.0,99.77,99.94,99.83,99.88,0.08,0.12,0.08,0.19,-0.1,-0.0,1.4,1.3,84.7,67.3,82.9,78.6,100.5,70.8,83.5,76.3,95.5,68.2,81.8,74.2,91.7,67.2,80.6,72.8,-0.01,0.00,0.09,0.06,0.00,131.34,131.36,122.17,122.17,13.4,28.7,0.4827007354458868,154.8437356844194,47.89352755406273,-82.82339370279317,-21.606102531895317
0.650,27.6,44.054380791160469,-78.681915497428136,50.5,-10.7,-89.1,-4.8,8990.9,8991,154.7,0,1,1,0,1,1,0,0,0,100,1,1.186,26.0,0.0,-0.18,59.817,66.0,0.0,26.0,26.0,26.0,26.0,0.06,0.14,-0.25,387.5,-2.32,-2.45,-1.59,-0.10,-734.96,663.03,5.7,0.00,0.00,0.00,0.00,0.02,-7.49,-7.49,-0.99,-3.45,0.01,-5.63,42.98,0.06,-0.46,-0.29,100.0,0,0,122.12,0,0,0.0,0,0,0,0,8187,0,30.00,3,154.7,1,0,0.0,0.0,0.0,0.0,1,0,0.670,0.670,95.237,21.595,1,110.00,435.8,8750,0.0,0.0,110.0,110.0,433.0,0.00,0,0,1,166.7,78.5,78.5,76.3,76.3,34.0,-6.95,13.48,-8.9,7.2,5,-476.533,0.5,100.0,16.9,18.5,28.7,31.6,0,1,40.1,0.00,0.00,0.00,0.00,2854,2883,3713,2881,318.4,317.2,345.2,348.0,25.39,22.61,26.10,25.42,325.0,325.0,355.0,355.0,99.77,99.94,99.83,99.88,0.07,0.11,0.06,0.21,-0.0,-0.0,1.1,1.1,84.7,67.3,82.9,78.6,100.4,70.7,83.5,76.2,95.4,68.2,81.8,74.2,91.7,67.2,80.6,72.8,0.02,-0.04,0.08,0.06,0.00,131.66,131.67,122.13,122.12,13.4,28.7,0.29274562336608895,141.88007407992868,44.29251044644605,-126.03559876658352,-36.01017107616677
0.700,29.7,44.054364153710758,-78.681910281362818,-0.9,-5.3,18.0,-47.4,8993.0,8993,155.0,0,1,1,0,1,1,0,0,0,100,1,1.186,26.0,0.0,-0.19,59.817,66.0,0.0,26.0,26.0,26.0,26.0,0.04,0.21,0.01,385.8,-1.91,-2.38,-1.50,-1.55,-734.38,661.18,5.7,0.00,0.00,0.00,0.00,0.02,-7.49,-7.49,-1.11,-2.83,-0.09,-1.64,43.07,0.04,-0.46,0.02,100.0,0,0,122.05,0,0,0.0,0,0,0,0,8182,0,30.00,3,155.0,0,0,0.0,0.0,0.0,0.0,1,0,0.713,0.713,95.237,21.595,0,110.00,435.8,8750,0.0,0.0,110.0,110.0,433.0,0.00,0,0,1,333.3,78.8,78.8,70.2,70.2,34.0,-3.77,17.37,-19.7,23.3,5,-476.589,0.5,100.0,16.8,18.2,29.6,29.3,0,1,40.1,0.00,0.00,0.00,0.00,1696,3788,5226,4476,320.5,314.6,342.2,343.4,25.39,22.61,26.10,25.42,325.0,325.0,355.0,355.0,99.77,99.94,99.83,99.88,0.03,0.08,-0.04,0.15,-0.0,-0.1,1.1,1.1,84.7,67.3,82.9,78.6,100.3,70.7,83.4,76.2,95.3,68.2,81.8,74.2,91.6,67.1,80.6,72.8,0.03,-0.04,0.08,0.06,0.00,131.97,132.01,122.05,122.05,13.4,28.7,0.21400934559032694,142.24017580776106,44.29251044644605,93.62644496874054,28.808137088542978
0.750,31.9,44.054345267957032,-78.681904435772381,13.0,-27.7,11.0,-40.7,8995.2,8995,155.4,0,1,1,0,1,1,0,0,0,100,1,1.186,26.0,0.0,-0.21,59.817,66.0,0.0,26.0,26.0,26.0,26.0,0.04,0.16,-0.26,386.6,-1.61,-2.12,-0.54,-0.93,-733.73,659.08,5.7,0.00,0.00,0.00,0.00,0.02,-7.49,-7.49,-1.26,-2.49,-0.22,0.92,43.16,0.02,-0.46,0.65,100.0,0,0,122.68,0,0,0.0,0,0,0,0,8224,0,30.00,3,155.4,1,0,0.0,0.0,0.0,0.0,1,0,0.763,0.763,95.237,21.595,1,110.00,435.8,8750,0.0,0.0,110.0,110.0,433.0,0.00,0,0,1,333.3,76.0,76.0,79.7,79.7,34.0,-12.91,13.41,-6.6,10.3,5,-476.633,-0.5,100.0,17.5,16.8,30.1,27.2,0,1,40.1,0.00,0.00,0.00,0.00,4864,3204,3411,3614,313.2,316.7,346.7,346.4,25.40,22.61,26.10,25.42,325.0,325.0,355.0,355.0,99.77,99.94,99.83,99.88,0.00,0.10,-0.08,0.10,-0.0,-0.1,1.2,1.2,84.7,67.3,82.9,78.6,100.2,70.7,83.4,76.2,95.2,68.1,81.7,74.1,91.5,67.1,80.5,72.8,-0.01,0.02,0.08,0.08,0.00,132.36,132.18,122.68,122.68,13.4,28.7,0.30789608636681304,151.24271857680273,47.17332415530035,50.414239335926254,14.404068544271524
0.800,34.0,44.054326382203307,-78.681898500249773,205.5,95.8,-72.1,79.1,8997.4,8997,155.7,0,1,1,0,1,1,0,0,0,100,1,1.186,26.0,0.0,-0.22,59.817,66.0,0.0,26.0,26.0,26.0,26.0,0.01,0.11,0.09,380.8,-1.46,-3.38,-3.33,-1.44,-733.07,656.98,5.6,0.00,0.00,0.00,0.00,0.02,-7.49,-7.49,-1.21,4.29,-0.15,2.79,43.24,-0.00,-0.46,0.01,100.0,0,0,123.06,0,0,0.0,0,0,0,0,8249,0,30.00,3,155.7,0,0,0.0,0.0,0.0,0.0,1,0,0.817,0.817,95.237,21.595,0,110.00,435.8,8750,0.0,0.0,110.0,110.0,433.0,0.00,0,0,1,333.3,64.8,64.8,82.0,82.0,34.0,-11.00,31.45,-38.8,7.7,5,-476.689,-2.2,100.0,27.8,21.6,26.5,31.2,0,1,40.1,0.00,0.00,0.00,0.00,5583,4414,4771,2536,310.6,313.0,343.9,348.3,25.40,22.61,26.10,25.42,325.0,325.0,355.0,355.0,99.77,99.94,99.83,99.88,0.04,0.16,-0.14,0.04,-0.1,-0.1,1.1,1.1,84.8,67.3,82.9,78.6,100.1,70.6,83.3,76.1,95.2,68.1,81.7,74.1,91.4,67.1,80.5,72.7,-0.11,0.11,0.09,0.08,0.00,132.85,132.76,123.06,123.06,13.4,28.7,0.14247806848775008,147.2815997413537,45.732917300873204,-36.01017136067867,-14.404069113295108
0.850,36.2,44.054308485703352,-78.681893014387981,-67.7,-3.0,240.2,155.9,8999.5,9000,156.0,0,1,1,0,1,1,0,0,0,100,1,1.186,26.0,0.0,-0.23,59.817,66.0,0.0,26.0,26.0,26.0,26.0,-0.03,0.18,0.16,377.8,-2.33,-2.64,-1.56,-0.54,-732.46,654.99,5.6,0.00,0.00,0.00,0.00,0.02,-7.49,-7.49,-0.95,3.39,0.25,10.68,43.34,0.03,-0.33,-1.39,100.0,0,0,122.84,0,0,0.0,0,0,0,0,8234,0,30.00,3,156.0,1,0,0.0,0.0,0.0,0.0,1,0,0.863,0.863,95.237,21.595,1,110.00,435.8,8750,0.0,0.0,110.0,110.0,433.0,0.00,0,0,1,333.3,73.4,73.4,65.5,65.5,34.0,-4.21,15.89,-25.2,11.4,5,-476.733,-3.8,100.0,24.4,21.5,38.5,39.0,0,1,40.1,0.00,0.00,0.00,0.00,2180,3095,4794,5568,318.9,316.8,343.0,340.6,25.41,22.61,26.10,25.42,325.0,325.0,355.0,355.0,99.77,99.94,99.83,99.88,0.12,0.12,-0.14,0.06,-0.0,-0.0,0.8,0.8,84.8,67.3,82.9,78.6,100.1,70.6,83.3,76.1,95.1,68.0,81.6,74.1,91.4,67.0,80.4,72.7,-0.19,0.20,0.06,0.05,0.00,132.92,133.09,122.84,122.83,13.4,28.7,0.24269322199023194,147.64170144073486,45.73291724397084,50.414239620438366,21.606102531895246
0.900,38.4,44.054289510017469,-78.681887078865387,-203.6,6.2,5.5,74.0,9001.7,9002,156.3,0,1,1,0,1,1,0,0,0,100,1,1.186,26.0,0.0,-0.24,59.817,66.0,0.0,26.0,26.0,26.0,26.0,0.18,0.18,-0.12,380.4,-2.50,-2.18,-1.70,-1.59,-731.80,652.88,5.6,0.00,0.00,0.00,0.00,0.02,-7.49,-7.49,-0.96,-2.98,0.54,0.23,43.43,0.05,-0.36,-2.42,100.0,0,0,123.19,0,0,0.0,0,0,0,0,8258,0,30.00,3,156.3,0,0,0.0,0.0,0.0,0.0,0,0,0.913,0.913,95.237,21.595,0,110.00,435.8,8750,0.0,0.0,110.0,110.0,433.0,0.00,0,0,1,166.7,78.5,78.5,57.4,57.4,34.0,-0.01,33.07,-11.8,26.1,5,-476.789,-5.0,100.0,14.2,21.8,38.8,42.7,0,1,40.1,0.00,0.00,0.00,0.00,462,4813,4194,4720,323.6,311.4,345.0,342.9,25.41,22.61,26.10,25.41,325.0,325.0,355.0,355.0,99.77,99.94,99.83,99.88,0.29,0.26,0.04,0.16,0.0,-0.1,1.0,0.8,84.8,67.3,82.9,78.6,100.0,70.6,83.3,76.1,95.0,68.0,81.6,74.0,91.3,67.0,80.4,72.7,-0.28,0.26,0.06,0.05,0.00,132.92,133.25,123.19,123.19,13.4,28.7,0.2814249455894058,152.32302370339752,47.89352755406273,3.601017278323866,10.803051550459486
0.950,40.6,44.054270444399421,-78.681881053410621,100.4,-33.7,-135.1,-108.4,9003.9,9004,156.7,0,1,1,0,1,1,0,0,0,100,1,1.186,26.0,0.0,-0.26,59.817,66.0,0.0,26.0,26.0,26.0,26.0,0.16,0.16,-0.08,382.0,-2.37,-1.80,-1.31,-2.08,-731.13,650.76,5.6,0.00,0.00,0.00,0.00,0.03,-7.49,-7.49,-1.12,-2.40,0.40,-1.35,43.52,0.07,-0.42,-2.65,100.0,0,0,123.61,0,0,0.0,0,0,0,0,8286,0,30.00,3,156.7,1,0,0.0,0.0,0.0,0.0,0,0,0.967,0.967,95.237,21.595,1,110.00,435.8,8750,0.0,0.0,110.0,110.0,433.0,0.00,0,0,1,166.7,73.2,73.2,76.7,76.7,34.0,-1.72,23.62,-2.5,33.7,5,-476.833,-5.0,100.0,19.2,20.1,32.0,37.3,0,1,40.1,0.00,0.00,0.00,0.00,4450,3653,2816,4574,314.0,315.8,347.5,343.9,25.41,22.61,26.10,25.41,325.0,325.0,355.0,355.0,99.77,99.94,99.83,99.88,0.25,0.34,0.13,0.26,-0.0,-0.0,1.2,1.0,84.8,67.3,82.9,78.6,99.9,70.5,83.2,76.1,94.9,68.0,81.5,74.0,91.2,67.0,80.3,72.7,-0.28,0.28,0.08,0.05,0.00,133.31,133.44,123.61,123.61,13.4,28.7,0.24000000000000002,148.00180316856725,46.81322239901679,-43.212205348302746,-10.803051550459415
1.000,42.7,44.054252547899466,-78.681875387684514,96.2,109.1,7.0,-59.7,9006.1,9006,157.0,0,1,1,0,1,1,0,0,0,100,1,1.186,26.0,0.0,-0.27,59.817,66.0,0.0,26.0,26.0,26.0,26.0,0.14,0.20,-0.05,379.5,-4.04,-2.76,-1.27,-0.40,-730.50,648.77,5.6,0.00,0.00,0.00,0.00,0.03,-7.49,-7.49,-1.08,2.77,0.31,0.03,43.60,0.10,-0.43,-3.30,100.0,0,0,123.76,0,0,0.0,0,0,0,0,8297,0,30.00,3,157.0,0,0,0.0,0.0,0.0,0.0,0,0,1.013,1.013,95.237,21.595,0,110.00,435.8,8750,0.0,0.0,110.0,110.0,433.0,0.00,0,0,1,166.7,69.2,69.2,69.6,69.6,34.0,-9.33,28.23,-3.7,19.2,5,-476.878,-4.7,100.0,24.0,25.5,32.4,34.3,0,1,40.9,0.00,0.00,0.00,0.00,3382,3646,4324,4314,316.9,314.8,343.4,344.3,25.42,22.61,26.10,25.41,325.0,325.0,355.0,355.0,99.77,99.94,99.83,99.88,0.25,0.31,0.13,0.28,-0.0,-0.1,1.2,0.8,84.9,67.3,82.9,78.6,99.8,70.5,83.2,76.0,94.9,68.0,81.5,74.0,91.2,67.0,80.3,72.6,-0.27,0.28,0.07,0.05,0.00,133.57,133.93,123.76,123.76,13.4,28.7,0.24919871588754228,148.00180316856725,46.81322239901679,50.41423962043808,18.005086107107076
1.050,44.9,44.054233482281418,-78.681869362229747,-59.6,-40.8,135.9,157.8,9008.2,9008,157.3,0,1,1,0,1,1,0,0,0,100,1,1.186,26.0,0.0,-0.28,59.817,66.0,0.0,26.0,26.0,26.0,26.0,0.23,0.15,0.18,377.7,-2.38,-2.35,-1.71,-1.61,-729.83,646.65,5.5,0.00,0.00,0.00,0.00,0.03,-7.49,-7.49,-1.02,-1.26,0.44,3.00,43.70,0.12,-0.43,-2.90,100.0,0,0,123.78,0,0,0.0,0,0,0,0,8298,0,30.00,3,157.3,1,0,0.0,0.0,0.0,0.0,0,0,1.063,1.063,95.237,21.595,1,110.00,435.8,8750,0.0,0.0,110.0,110.0,433.0,0.00,0,0,1,333.3,73.9,73.9,61.1,61.1,34.0,-0.02,26.92,-8.1,35.9,5,-476.933,-4.0,100.0,21.0,23.5,39.2,42.2,0,1,40.1,0.00,0.00,0.00,0.00,1623,3757,4732,4821,320.7,314.4,343.5,342.4,25.42,22.61,26.10,25.41,325.0,325.0,355.0,355.0,99.77,99.94,99.83,99.88,0.27,0.30,0.14,0.29,0.0,-0.1,0.8,0.7,84.9,67.3,82.9,78.6,99.7,70.5,83.2,76.0,94.8,67.9,81.5,74.0,91.1,66.9,80.3,72.6,-0.23,0.23,0.06,0.04,0.00,133.83,134.13,123.78,123.78,13.4,28.7,0.3283291031876401,153.04322713061106,48.613731009727495,7.20203427213562,10.803051550459415
1.100,47.1,44.054214326731213,-78.681863246842823,53.0,82.1,-123.9,-71.4,9010.4,9010,157.6,0,1,1,0,1,1,0,0,0,100,1,1.186,26.0,0.0,-0.29,59.817,66.0,0.0,26.0,26.0,26.0,26.0,0.27,0.21,0.28,376.5,-2.19,-3.05,-1.92,-2.10,-729.15,644.52,5.5,0.00,0.00,0.00,0.00,0.03,-7.49,-7.49,-1.04,2.41,0.42,-1.88,43.78,0.13,-0.47,-3.31,100.0,0,0,124.27,0,0,0.0,0,0,0,0,8330,0,30.00,3,157.6,0,0,0.0,0.0,0.0,0.0,0,0,1.117,1.117,95.237,21.595,0,110.00,435.8,8750,0.0,0.0,110.0,110.0,433.0,0.00,0,0,1,333.3,66.1,66.1,65.7,65.7,34.0,0.09,41.68,-8.4,34.1,5,-476.989,-3.5,100.0,23.7,27.6,33.0,38.6,0,1,40.9,0.00,0.00,0.00,0.00,3693,4662,5493,4044,315.4,311.5,342.1,344.3,25.42,22.61,26.10,25.41,325.0,325.0,355.0,355.0,99.77,99.94,99.83,99.88,0.25,0.33,0.18,0.34,-0.0,-0.0,1.1,0.9,84.9,67.3,82.9,78.6,99.7,70.5,83.1,76.0,94.7,67.9,81.4,73.9,91.0,66.9,80.2,72.6,-0.21,0.22,0.07,0.06,0.00,134.23,134.57,124.27,124.26,13.4,28.7,0.4420407221060069,148.7220065957808,47.89352755406273,-43.21220534830246,-5.690237259159403e-07
1.150,49.3,44.054196340299093,-78.681857401252387,-76.2,-103.2,20.0,-5.6,9012.6,9013,157.9,0,1,1,0,1,1,0,0,0,100,1,1.186,26.0,0.0,-0.29,59.817,66.0,0.0,26.0,26.0,26.0,26.0,0.20,0.25,-0.04,379.4,-4.44,-2.66,-1.49,-1.91,-728.50,642.52,5.5,0.00,0.00,0.00,0.00,0.03,-7.49,-7.49,-0.88,2.12,0.37,-1.40,43.87,0.15,-0.35,-2.52,100.0,0,0,124.24,0,0,0.0,0,0,0,0,8329,0,30.00,3,157.9,1,0,0.0,0.0,0.0,0.0,0,0,1.163,1.163,95.237,21.595,1,110.00,435.8,8750,0.0,0.0,110.0,110.0,433.0,0.00,0,0,1,333.3,77.1,77.1,62.9,62.9,34.0,-3.98,15.69,-2.5,63.6,5,-477.033,-2.8,100.0,19.9,22.5,34.0,38.3,0,1,40.9,0.00,0.00,0.00,0.00,1721,2486,6235,6656,320.8,318.0,338.8,338.6,25.43,22.61,26.10,25.41,325.0,325.0,355.0,355.0,99.77,99.94,99.83,99.88,0.30,0.25,0.20,0.37,-0.0,-0.0,1.0,0.8,84.9,67.3,82.9,78.6,99.6,70.5,83.1,75.9,94.6,67.9,81.4,73.9,91.0,66.9,80.2,72.6,-0.16,0.17,0.06,0.05,0.00,134.38,134.63,124.24,124.24,13.4,28.7,0.3226453160980336,148.7220065957808,48.61373095282512,90.02542769041696,39.61118806997881
1.200,51.5,44.054177184748887,-78.681851106001147,-151.3,-78.1,86.3,25.9,9014.8,9015,158.2,0,1,1,0,1,1,0,0,0,100,1,1.186,26.0,0.0,-0.30,59.817,66.0,0.0,26.0,26.0,26.0,26.0,0.15,0.12,-0.26,384.0,-2.39,-2.56,-2.33,-1.66,-727.80,640.39,5.5,0.00,0.00,0.00,0.00,0.03,-7.49,-7.49,-1.04,-6.15,0.22,-4.09,43.95,0.11,-0.42,-1.49,100.0,0,0,124.78,0,0,0.0,0,0,0,0,8365,0,30.00,3,158.2,0,0,0.0,0.0,0.0,0.0,0,0,1.213,1.213,95.237,21.595,0,110.00,435.8,8750,0.0,0.0,110.0,110.0,433.0,0.00,0,0,1,333.3,80.8,80.8,65.2,65.2,34.0,-0.73,25.98,-7.3,20.4,5,-477.089,-2.8,100.0,12.3,18.5,38.3,39.6,0,1,40.9,0.00,0.00,0.00,0.00,2460,3565,3338,3238,319.1,315.7,346.7,346.7,25.43,22.61,26.10,25.41,325.0,325.0,355.0,355.0,99.77,99.94,99.83,99.88,0.25,0.32,0.18,0.27,-0.0,-0.0,1.1,1.0,84.9,67.3,82.9,78.5,99.5,70.4,83.0,75.9,94.6,67.9,81.3,73.9,90.9,66.8,80.1,72.5,-0.15,0.15,0.06,0.05,0.00,134.54,134.61,124.78,124.78,13.4,28.7,0.3232645975048923,157.7245493648225,51.85464636106061,3.6010169938123227,3.6010169938119674
1.250,53.7,44.054156950012754,-78.681844451021263,186.5,17.3,-229.8,-183.7,9017.0,9017,158.5,0,1,1,0,1,1,0,0,0,100,1,1.186,26.0,0.0,-0.31,59.817,66.0,0.0,26.0,26.0,26.0,26.0,0.18,0.15,-0.08,384.8,-1.89,-2.40,-1.51,-1.80,-727.06,638.14,5.5,0.00,0.00,0.00,0.00,0.03,-7.49,-7.49,-1.24,-0.79,-0.02,-2.71,44.04,0.10,-0.46,-1.88,100.0,0,0,125.33,0,0,0.0,0,0,0,0,8402,0,30.00,3,158.5,1,0,0.0,0.0,0.0,0.0,0,0,1.270,1.270,95.237,21.595,1,110.00,435.8,8750,0.0,0.0,110.0,110.0,433.0,0.00,0,0,1,166.7,70.9,70.9,83.5,83.5,34.0,-4.60,25.78,-3.8,19.3,5,-477.133,-2.8,100.0,21.6,19.4,26.8,30.4,0,1,40.1,0.00,0.00,0.00,0.00,5065,3674,3240,2968,312.6,315.0,347.5,347.7,25.43,22.61,26.10,25.40,325.0,325.0,355.0,355.0,99.77,99.94,99.83,99.88,0.16,0.29,0.13,0.31,-0.0,-0.1,1.3,1.2,85.0,67.3,82.8,78.5,99.4,70.4,83.0,75.9,94.5,67.8,81.3,73.8,90.8,66.8,80.1,72.5,-0.15,0.15,0.10,0.08,0.00,135.14,135.08,125.33,125.33,13.4,28.7,0.24758836806279894,149.08210829516204,48.97383265220632,-129.63661604490738,-39.61118806997881
1.300,55.9,44.054139952834404,-78.681838875227314,208.8,125.0,31.6,49.8,9019.2,9019,158.8,0,1,1,0,1,1,0,0,0,100,1,1.186,26.0,0.0,-0.33,59.817,66.0,0.0,26.0,26.0,26.0,26.0,0.11,0.17,0.29,376.5,-2.63,-2.48,-1.04,-1.26,-726.44,636.25,5.5,0.00,0.00,0.00,0.00,0.03,-7.49,-7.49,-1.11,6.19,0.11,6.51,44.11,0.11,-0.46,-1.92,100.0,0,0,125.33,0,0,0.0,0,0,0,0,8402,0,30.00,3,158.8,0,0,0.0,0.0,0.0,0.0,0,0,1.313,1.313,95.237,21.595,0,110.00,435.8,8750,0.0,0.0,110.0,110.0,433.0,0.00,0,0,1,166.7,59.9,59.9,79.3,79.3,34.0,-15.24,31.30,-7.0,25.1,5,-477.178,-2.8,100.0,32.1,25.7,28.4,32.9,0,1,40.1,0.00,0.00,0.00,0.00,5803,4560,4471,4515,310.5,312.2,343.8,343.6,25.44,22.62,26.10,25.40,325.0,325.0,355.0,355.0,99.77,99.94,99.83,99.88,0.13,0.23,0.04,0.22,0.0,-0.1,1.0,0.9,85.0,67.3,82.8,78.5,99.4,70.4,82.9,75.9,94.4,67.8,81.3,73.8,90.8,66.8,80.1,72.5,-0.14,0.17,0.09,0.06,0.00,135.45,135.59,125.33,125.33,13.4,28.7,0.3536947836765479,144.76088776033177,47.89352755406273,46.81322262662633,25.20712009473087
1.350,58.1,44.054120797284199,-78.681832490043902,-122.4,166.5,225.9,245.6,9021.4,9021,159.1,0,1,1,0,1,1,0,0,0,100,1,1.186,26.0,0.0,-0.34,59.817,66.0,0.0,26.0,26.0,26.0,26.0,0.20,0.15,0.65,366.9,-2.99,-2.44,-1.82,-2.11,-725.73,634.12,5.4,0.00,0.00,0.00,0.00,0.04,-7.49,-7.49,-0.67,8.85,0.63,5.46,44.20,0.12,-0.36,-2.58,100.0,0,0,125.27,0,0,0.0,0,0,0,0,8398,0,30.00,3,159.1,1,0,0.0,0.0,0.0,0.0,0,0,1.363,1.363,95.237,21.595,1,110.00,435.8,8750,0.0,0.0,110.0,110.0,433.0,0.00,0,0,1,333.3,57.9,57.9,49.7,49.7,34.0,-11.40,59.96,-20.7,56.5,5,-477.233,-2.3,100.0,26.0,34.0,39.7,45.2,0,1,40.1,0.00,0.00,0.00,0.00,3836,7691,6418,6561,314.8,303.8,339.1,337.9,25.44,22.62,26.10,25.40,325.0,325.0,355.0,355.0,99.77,99.94,99.83,99.88,0.13,0.24,0.07,0.25,-0.1,-0.0,0.8,0.7,85.0,67.4,82.8,78.5,99.3,70.4,82.9,75.8,94.4,67.8,81.2,73.8,90.7,66.8,80.0,72.5,-0.13,0.17,0.06,0.04,0.00,135.84,136.18,125.28,125.27,13.4,28.7,0.696419413859206,153.76343055782468,51.494544661679406,50.41423962043808,21.606102531895388
1.400,60.3,44.054101551801828,-78.681826014928347,-5.6,12.3,114.3,93.6,9023.7,9024,159.4,0,1,1,0,1,1,0,0,0,100,1,1.186,26.0,0.0,-0.34,59.817,66.0,0.0,26.0,26.0,26.0,26.0,0.26,0.18,0.25,366.3,-3.30,-1.68,-1.64,-2.86,-725.01,631.98,5.4,0.00,0.00,0.00,0.00,0.04,-7.49,-7.49,-0.24,7.47,0.62,-4.88,44.27,0.12,-0.30,-2.21,100.0,0,0,125.76,0,0,0.0,0,0,0,0,8430,0,30.00,3,159.4,0,0,0.0,0.0,0.0,0.0,1,0,1.417,1.417,95.237,21.595,0,110.00,435.8,8750,0.0,0.0,110.0,110.0,433.0,0.00,0,0,1,333.3,59.9,59.9,49.0,49.0,34.0,-9.16,45.71,-1.3,93.0,5,-477.289,-1.7,100.0,25.7,34.6,45.4,49.9,0,1,40.1,0.00,0.00,0.00,0.00,3312,6891,4619,8185,316.8,306.5,344.2,334.3,25.45,22.62,26.10,25.40,325.0,325.0,355.0,355.0,99.77,99.94,99.83,99.88,0.17,0.27,0.23,0.31,-0.0,-0.1,0.8,0.8,85.0,67.4,82.8,78.5,99.2,70.4,82.9,75.8,94.3,67.8,81.2,73.8,90.6,66.8,80.0,72.5,-0.09,0.12,0.06,0.02,0.00,135.90,136.14,125.76,125.76,13.4,28.7,0.4031128874149275,149.80231172237558,50.05413780725227,-39.61118835449099,-10.80305098143576
1.450,62.6,44.054083385505393,-78.681819989473581,62.2,-10.7,109.5,6.4,9025.9,9026,159.6,0,1,1,0,1,1,0,0,0,100,1,1.186,26.0,0.0,-0.35,59.817,66.0,0.0,26.0,26.0,26.0,26.0,0.14,0.13,0.54,365.4,-2.98,-1.59,-1.73,-1.17,-724.34,629.96,5.4,0.00,0.00,0.00,0.00,0.04,-7.49,-7.49,0.06,5.80,-0.03,-12.39,44.35,0.07,-0.34,-1.20,100.0,0,0,125.70,0,0,0.0,0,0,0,0,8426,0,30.00,3,159.6,1,0,0.0,0.0,0.0,0.0,1,0,1.463,1.463,95.237,21.595,1,110.00,435.8,8750,0.0,0.0,110.0,110.0,433.0,0.00,0,0,1,333.3,58.9,58.9,43.9,43.9,34.0,-14.60,29.72,-6.5,33.9,5,-477.333,0.3,100.0,28.8,34.1,50.9,50.2,0,1,40.1,0.00,0.00,0.00,0.00,4669,5242,6439,5409,313.2,310.4,338.2,342.0,25.45,22.62,26.10,25.40,325.0,325.0,355.0,355.0,99.77,99.94,99.83,99.88,0.13,0.22,0.20,0.26,0.0,-0.1,0.8,0.5,85.1,67.4,82.8,78.5,99.1,70.4,82.8,75.8,94.2,67.8,81.2,73.8,90.6,66.8,80.0,72.4,0.02,0.02,0.04,0.03,0.00,136.20,136.29,125.70,125.70,13.4,28.7,0.5728001396647875,149.80231172237558,50.41423956353583,46.81322262662661,25.207119525707213
1.500,64.8,44.054064140023023,-78.681813424425854,-146.0,-227.2,-3.5,-37.1,9028.1,9028,160.0,0,1,1,0,1,1,0,0,0,100,1,1.186,26.0,0.0,-0.36,59.817,66.0,0.0,26.0,26.0,26.0,26.0,0.10,0.21,0.30,371.2,-2.46,-3.04,-1.28,-1.47,-723.61,627.82,5.5,0.00,0.00,0.00,0.00,0.04,-7.49,-7.49,0.21,-0.93,-0.43,-5.56,44.44,0.02,-0.34,0.53,100.0,0,0,125.64,0,0,0.0,0,0,0,0,8422,0,30.00,3,160.0,0,0,0.0,0.0,0.0,0.0,1,0,1.513,1.513,95.237,21.595,0,110.00,435.8,8750,0.0,0.0,110.0,110.0,433.0,0.00,0,0,1,333.3,71.5,71.5,46.3,46.3,34.0,-21.37,16.56,-22.9,29.5,5,-477.389,2.5,100.0,21.5,22.7,50.7,48.3,0,1,40.1,0.00,0.00,0.00,0.00,4393,3685,8149,5855,314.1,315.1,335.3,339.9,25.45,22.62,26.10,25.40,325.0,325.0,355.0,355.0,99.77,99.94,99.83,99.88,-0.07,0.00,0.03,0.11,-0.1,-0.0,0.7,0.7,85.1,67.4,82.9,78.5,99.1,70.3,82.8,75.8,94.2,67.8,81.1,73.8,90.5,66.7,79.9,72.4,0.14,-0.13,0.03,0.03,0.00,136.27,136.24,125.64,125.64,13.4,28.7,0.37960505792204613,154.48363398503824,52.57484975982299,7.202034272135904,7.202033418600209
1.550,67.0,44.054044804608495,-78.681806859378142,108.3,30.9,-205.0,-234.8,9030.3,9030,160.2,0,1,1,0,1,1,0,0,0,100,1,1.186,26.0,0.0,-0.37,59.817,66.0,0.0,26.0,26.0,26.0,26.0,-0.05,0.12,-0.03,378.2,-2.58,-3.38,0.01,-2.24,-722.88,625.67,5.5,0.00,0.00,0.00,0.00,0.04,-7.49,-7.49,0.17,1.90,-0.47,2.68,44.49,-0.01,-0.47,2.18,100.0,0,0,126.55,0,0,0.0,0,0,0,0,8483,0,30.00,3,160.2,1,0,0.0,0.0,0.0,0.0,1,0,1.567,1.567,95.237,21.595,1,110.00,435.8,8750,0.0,0.0,110.0,110.0,433.0,0.00,0,0,1,333.3,65.3,65.3,68.0,68.0,34.0,-35.13,10.86,-5.2,16.2,5,-477.433,4.5,100.0,26.9,24.2,40.5,36.6,0,1,40.1,0.00,0.00,0.00,0.00,4845,3976,3512,4331,312.9,312.8,346.4,344.1,25.46,22.62,26.10,25.40,325.0,325.0,355.0,355.0,99.77,99.94,99.83,99.88,-0.23,-0.20,-0.12,-0.06,-0.1,-0.1,1.0,1.2,85.1,67.4,82.8,78.5,99.0,70.3,82.8,75.8,94.1,67.7,81.1,73.7,90.4,66.7,79.9,72.4,0.24,-0.24,0.06,0.04,0.00,136.64,136.43,126.55,126.55,13.4,28.7,0.13341664064126332,150.52251514958917,51.13444290539585,7.202033987623793,-3.6010164247882415
1.600,69.2,44.054026548379895,-78.681800654059060,18.5,-9.7,-25.2,59.4,9032.5,9033,160.4,0,1,1,0,1,1,0,0,0,100,1,1.186,26.0,0.0,-0.37,59.817,66.0,0.0,26.0,26.0,26.0,26.0,-0.23,0.09,0.35,376.2,-2.95,-2.47,-1.91,-1.27,-722.19,623.64,5.5,0.00,0.00,0.00,0.00,0.04,-7.49,-7.49,0.31,2.98,-0.38,1.57,44.57,-0.03,-0.45,3.18,100.0,0,0,126.35,0,0,0.0,0,0,0,0,8470,0,30.00,3,160.4,0,0,0.0,0.0,0.0,0.0,1,0,1.613,1.613,95.237,21.595,0,110.00,435.8,8750,0.0,0.0,110.0,110.0,433.0,0.00,0,0,1,166.7,64.5,64.5,67.4,67.4,34.0,-53.96,2.95,-40.8,5.9,5,-477.478,5.3,100.0,27.8,23.8,39.2,39.6,0,1,40.1,0.00,0.00,0.00,0.00,5925,4036,5588,4431,310.4,313.9,342.0,343.7,25.46,22.62,26.10,25.40,325.0,325.0,355.0,355.0,99.77,99.94,99.83,99.88,-0.32,-0.23,-0.23,-0.10,-0.0,-0.0,0.7,0.9,85.1,67.4,82.8,78.5,98.9,70.3,82.7,75.7,94.0,67.7,81.1,73.7,90.4,66.7,79.9,72.4,0.31,-0.31,0.06,0.05,0.00,136.95,136.67,126.36,126.35,13.4,28.7,0.4283689998120779,155.20383738380062,52.214748117344165,93.62644468422872,21.6061031009189
1.650,71.5,44.054006043847281,-78.681793819214846,1.9,9.9,16.8,-7.7,9034.8,9035,160.7,0,1,1,0,1,1,0,0,0,100,1,1.186,26.0,0.0,-0.38,59.817,66.0,0.0,26.0,26.0,26.0,26.0,-0.24,0.17,0.14,377.7,-2.94,-2.22,-1.55,-1.34,-721.43,621.36,5.6,0.00,0.00,0.00,0.00,0.04,-7.49,-7.49,0.55,4.29,-0.22,2.03,44.64,-0.07,-0.38,3.75,100.0,0,0,126.58,0,0,0.0,0,0,0,0,8486,0,30.00,3,160.7,1,0,0.0,0.0,0.0,0.0,1,0,1.667,1.667,95.237,21.595,1,110.00,435.8,8750,0.0,0.0,110.0,110.0,433.0,0.00,0,0,1,166.7,69.5,69.5,60.8,60.8,34.0,-13.27,-0.46,-44.8,2.5,5,-477.533,5.5,100.0,27.9,24.3,40.0,39.2,0,1,40.1,0.00,0.00,0.00,0.00,1858,3897,5661,5337,319.4,314.9,340.3,341.6,25.46,22.62,26.10,25.40,325.0,325.0,355.0,355.0,99.77,99.94,99.83,99.88,-0.28,-0.27,-0.30,-0.17,0.0,-0.0,0.7,0.9,85.2,67.4,82.8,78.5,98.9,70.2,82.7,75.7,94.0,67.7,81.0,73.7,90.3,66.7,79.8,72.3,0.33,-0.32,0.06,0.05,0.00,137.18,136.85,126.58,126.58,13.4,28.7,0.3257299494980466,159.88515961801204,53.29505321548774,-86.42441069660492,-32.40915465137846
1.700,73.7,44.053986618500595,-78.681787344099291,-345.2,-171.8,103.1,19.3,9037.0,9037,161.0,0,1,1,0,1,1,0,0,0,100,1,1.186,26.0,0.0,-0.39,59.817,66.0,0.0,26.0,26.0,26.0,26.0,-0.14,0.15,-0.33,385.3,-3.22,-2.12,-1.64,-2.57,-720.71,619.20,5.6,0.00,0.00,0.00,0.00,0.04,-7.49,-7.49,0.53,-6.02,-0.40,-6.79,44.72,-0.11,-0.36,2.47,100.0,0,0,126.69,0,0,0.0,0,0,0,0,8493,0,30.00,3,161.0,0,0,0.0,0.0,0.0,0.0,1,0,1.720,1.720,95.237,21.595,0,110.00,435.8,8750,0.0,0.0,110.0,110.0,433.0,0.00,0,0,1,166.7,85.6,85.6,53.6,53.6,34.0,-11.50,-2.60,-37.0,11.8,5,-477.589,5.5,100.0,10.7,15.7,45.2,40.1,0,1,40.1,0.00,0.00,0.00,0.00,1712,3212,5555,3292,321.3,316.8,341.3,346.2,25.47,22.62,26.10,25.40,325.0,325.0,355.0,355.0,99.77,99.94,99.83,99.88,-0.35,-0.31,-0.21,-0.11,0.0,-0.1,0.8,1.0,85.2,67.4,82.8,78.5,98.8,70.2,82.7,75.7,93.9,67.6,81.0,73.7,90.2,66.6,79.8,72.3,0.33,-0.33,0.05,0.05,0.00,136.99,136.81,126.69,126.69,13.4,28.7,0.38858718455450897,146.56139631414013,48.97383265220632,-129.63661576039527,-46.81322205760246
1.750,75.9,44.053969441457923,-78.681781588441012,83.6,-142.1,-282.5,-157.9,9039.3,9039,161.0,0,1,1,0,1,1,0,0,0,100,1,1.186,26.0,0.0,-0.39,59.817,66.0,0.0,26.0,26.0,26.0,26.0,-0.17,-0.12,-0.56,394.9,-2.24,-1.72,-0.95,-1.42,-720.07,617.29,5.6,0.00,0.00,0.00,0.00,0.05,-7.49,-7.49,0.18,-8.66,-0.61,-2.25,44.72,-0.14,-0.47,3.62,100.0,0,0,125.47,0,0,0.0,0,0,0,0,8270,0,30.00,0,161.0,1,0,0.0,0.0,0.0,0.0,1,0,1.763,1.763,95.237,21.595,1,110.00,435.8,8750,0.0,0.0,110.0,110.0,433.0,0.00,0,0,1,333.3,86.6,86.6,88.2,88.2,34.0,-34.43,-0.06,-12.0,-0.1,5,-477.633,5.8,100.0,14.8,8.6,31.1,32.2,0,1,0.0,0.00,0.00,0.00,0.00,3991,155,2310,1774,315.1,324.9,349.3,350.5,25.47,22.62,26.09,25.39,325.0,325.0,355.0,355.0,99.77,99.94,99.83,99.88,-0.44,-0.37,-0.30,-0.22,-0.1,0.1,-0.0,0.0,85.2,67.4,82.8,78.5,98.7,70.1,82.6,75.6,93.8,67.6,80.9,73.6,90.2,66.6,79.7,72.3,0.34,-0.34,0.09,0.07,0.00,137.03,136.70,125.59,125.37,13.4,28.7,0.597411081249754,146.9214980419725,48.613731009727495,93.62644496874026,18.005086107107005
1.800,78.2,44.053949926179072,-78.681775203257601,225.9,196.3,-112.0,-235.3,9041.5,9041,160.8,0,1,1,0,1,1,0,0,0,100,1,1.186,26.0,0.0,-0.41,59.817,66.0,0.0,26.0,26.0,26.0,26.0,-0.38,-0.12,-0.17,389.0,-2.07,-1.99,-2.05,-1.08,-719.36,615.12,5.7,0.00,0.00,0.00,0.00,0.05,-7.49,-7.49,-0.10,-1.33,-0.44,8.23,44.66,-0.17,-0.56,5.34,100.0,0,0,125.47,0,0,0.0,0,0,0,0,7893,0,30.00,0,160.8,0,0,0.0,0.0,0.0,0.0,1,0,1.813,1.813,95.237,21.595,0,110.00,435.8,8750,0.0,0.0,110.0,110.0,433.0,0.00,0,0,1,333.3,68.0,68.0,89.8,89.8,34.0,-58.80,-5.91,-29.3,-5.1,5,-477.689,5.7,100.0,26.1,18.4,25.5,20.5,0,1,0.0,0.00,0.00,0.00,0.00,5804,3617,2991,2308,310.0,315.6,347.8,349.4,25.47,22.62,26.09,25.39,325.0,325.0,355.0,355.0,99.77,99.94,99.83,99.88,-0.50,-0.37,-0.54,-0.36,-0.1,0.0,-0.1,0.1,85.2,67.4,82.8,78.4,98.6,70.1,82.6,75.6,93.8,67.6,80.9,73.6,90.1,66.5,79.7,72.2,0.34,-0.34,0.09,0.09,0.00,137.28,136.77,125.61,125.34,13.4,28.7,0.4332435804486894,155.92404081101415,50.77434126291702,46.813222342114216,-5.690237259159403e-07
1.850,80.4,44.053930500832386,-78.681768908006362,23.8,160.7,115.1,173.0,9043.7,9044,161.0,0,1,1,0,1,1,0,0,0,100,1,1.186,26.0,0.0,-0.42,59.817,66.0,0.0,26.0,26.0,26.0,26.0,-0.40,-0.09,0.33,379.5,-2.89,-2.74,-2.11,-1.50,-718.66,612.96,5.7,0.00,0.00,0.00,0.00,0.05,-7.49,-7.49,0.04,5.15,-0.01,4.41,44.72,-0.20,-0.49,5.51,100.0,0,0,124.76,0,0,0.0,0,0,0,0,6655,0,30.00,4,161.0,1,0,0.0,0.0,0.0,0.0,1,0,1.867,1.867,95.237,21.595,1,110.00,435.8,8750,0.0,0.0,110.0,110.0,433.0,0.00,0,0,1,333.3,62.8,62.8,72.2,72.2,34.0,-46.08,-1.10,-52.3,-8.2,5,-477.733,4.8,100.0,27.3,26.4,31.2,29.1,0,1,0.0,0.00,0.00,0.00,0.00,4625,5447,4573,5360,313.3,310.1,344.2,340.7,25.48,22.63,26.09,25.39,325.0,325.0,355.0,355.0,99.77,99.94,99.83,99.88,-0.45,-0.33,-0.59,-0.33,-0.0,-0.0,-0.4,-0.3,85.2,67.4,82.8,78.4,98.6,70.1,82.5,75.6,93.7,67.5,80.9,73.5,90.1,66.5,79.7,72.2,0.29,-0.27,0.07,0.06,0.00,137.65,137.31,125.00,124.51,13.4,28.7,0.5263078946776307,151.60282027618393,48.61373095282512,-39.61118806997831,-25.20712009473101
1.900,82.6,44.053912064739464,-78.681763062415925,-108.6,-103.6,132.0,140.8,9046.0,9046,160.7,0,1,1,0,1,1,0,0,0,100,1,1.186,26.0,0.0,-0.42,59.817,66.0,0.0,26.0,26.0,26.0,26.0,-0.36,-0.19,-0.08,380.3,-2.77,-2.41,-1.19,-0.78,-718.01,610.91,5.7,0.00,0.00,0.00,0.00,0.05,-7.49,-7.49,0.22,1.05,-0.09,-4.79,44.63,-0.20,-0.39,3.65,100.0,0,0,125.19,0,0,0.0,0,0,0,0,6678,0,30.00,4,160.7,0,0,0.0,0.0,0.0,0.0,0,0,1.913,1.913,95.237,21.595,0,110.00,435.8,8750,0.0,0.0,110.0,110.0,433.0,0.00,0,0,1,333.3,73.0,73.0,63.2,63.2,34.0,-29.84,-4.67,-52.5,-11.9,5,-477.789,5.4,100.0,21.9,21.2,37.8,36.2,0,1,0.0,0.00,0.00,0.00,0.00,3439,3809,5847,5134,316.7,315.2,340.3,341.9,25.48,22.63,26.09,25.39,325.0,325.0,355.0,355.0,99.77,99.94,99.83,99.88,-0.42,-0.38,-0.42,-0.28,0.0,-0.0,-0.3,-0.1,85.3,67.4,82.8,78.4,98.5,70.1,82.5,75.5,93.7,67.5,80.8,73.5,90.0,66.5,79.6,72.2,0.31,-0.31,0.06,0.05,0.00,137.00,136.72,125.20,125.19,13.4,28.7,0.4148493702538308,151.96292200401632,48.25362925344392,43.21220534830218,3.6010169938119674
1.950,84.9,44.053892549460613,-78.681756857096843,-9.9,-65.4,63.7,-40.8,9048.2,9048,160.4,0,1,1,0,1,1,0,0,0,100,1,1.186,26.0,0.0,-0.43,59.817,66.0,0.0,26.0,26.0,26.0,26.0,-0.25,-0.14,-0.31,385.3,-2.30,-2.84,-0.69,-2.16,-717.32,608.74,5.8,0.00,0.00,0.00,0.00,0.05,-7.49,-7.49,0.10,-4.37,-0.37,-2.86,44.55,-0.19,-0.48,3.56,100.0,0,0,124.69,0,0,0.0,0,0,0,0,6651,0,30.00,4,160.4,1,0,0.0,0.0,0.0,0.0,0,0,1.963,1.963,95.237,21.595,1,110.00,435.8,8750,0.0,0.0,110.0,110.0,433.0,0.00,0,0,1,333.3,75.8,75.8,70.8,70.8,34.0,-33.72,-3.15,-15.1,1.3,5,-477.833,6.8,100.0,21.4,18.0,41.0,34.1,0,1,0.0,0.00,0.00,0.00,0.00,3782,2456,2490,2235,316.0,318.2,347.3,349.3,25.48,22.63,26.09,25.39,325.0,325.0,355.0,355.0,99.77,99.94,99.83,99.88,-0.49,-0.45,-0.36,-0.28,0.0,-0.0,-0.3,-0.3,85.3,67.4,82.8,78.4,98.4,70.0,82.5,75.5,93.6,67.5,80.8,73.5,90.0,66.5,79.6,72.1,0.38,-0.38,0.06,0.06,0.00,136.61,136.34,124.69,124.69,13.4,28.7,0.4221374183841087,155.92404081101415,48.97383265220632,-7.202034272135904,-14.404068544271311
2.000,87.1,44.053873124113927,-78.681750831642091,40.5,28.5,-110.6,-115.8,9050.4,9050,160.1,0,1,1,0,1,1,0,0,0,100,1,1.186,26.0,0.0,-0.44,59.817,66.0,0.0,26.0,26.0,26.0,26.0,-0.36,-0.03,-0.14,385.9,-2.07,-3.45,-1.29,-2.05,-716.65,606.58,5.8,0.00,0.00,0.00,0.00,0.05,-7.49,-7.49,-0.05,-1.88,-0.42,0.15,44.47,-0.18,-0.54,4.88,100.0,0,0,126.30,0,0,0.0,0,0,0,0,6737,0,30.00,4,160.1,0,0,0.0,0.0,0.0,0.0,0,0,2.017,2.017,95.237,21.595,0,110.00,435.8,8750,0.0,0.0,110.0,110.0,433.0,0.00,0,0,1,333.3,71.8,71.8,75.4,75.4,34.0,-46.37,-5.68,-29.1,0.3,5,-477.889,9.0,100.0,23.4,19.4,35.5,28.3,0,1,40.1,0.00,0.00,0.00,0.00,4382,3105,3585,2110,313.5,316.4,346.0,350.1,25.49,22.63,26.09,25.38,325.0,325.0,355.0,355.0,99.77,99.94,99.83,99.88,-0.60,-0.57,-0.45,-0.30,-0.0,-0.0,0.5,0.8,85.3,67.4,82.8,78.4,98.4,70.0,82.4,75.4,93.5,67.5,80.7,73.4,89.9,66.4,79.5,72.1,0.50,-0.51,0.08,0.08,0.00,136.50,136.11,126.30,126.30,13.4,28.7,0.3874274125562103,151.24271857680273,46.81322239901679,-39.61118806997831,-25.207119525707355
2.050,89.3,44.053854777953163,-78.681745165915970,-36.6,-37.0,-36.7,7.0,9052.6,9053,160.4,0,1,1,0,1,1,0,0,0,100,1,1.186,26.0,0.0,-0.45,59.817,66.0,0.0,26.0,26.0,26.0,26.0,-0.32,0.14,-0.17,387.1,-2.83,-2.64,-1.26,-2.12,-716.02,604.54,5.8,0.00,0.00,0.00,0.00,0.05,-7.49,-7.49,-0.08,-1.49,-0.41,-0.11,44.54,-0.22,-0.49,5.33,100.0,0,0,126.37,0,0,0.0,0,0,0,0,6741,0,30.00,4,160.4,1,0,0.0,0.0,0.0,0.0,0,0,2.063,2.063,95.237,21.595,1,110.00,435.8,8750,0.0,0.0,110.0,110.0,433.0,0.00,0,0,1,333.3,77.3,77.3,75.4,75.4,34.0,-30.23,-4.76,-40.1,-1.3,5,-477.933,7.2,100.0,21.6,17.5,33.6,28.7,0,1,40.1,0.00,0.00,0.00,0.00,2945,1993,4385,3841,317.3,319.7,344.4,344.9,25.49,22.63,26.09,25.38,325.0,325.0,355.0,355.0,99.77,99.94,99.83,99.88,-0.59,-0.55,-0.54,-0.35,-0.0,-0.0,0.8,1.2,85.3,67.4,82.8,78.4,98.3,70.0,82.4,75.4,93.5,67.4,80.7,73.4,89.8,66.4,79.5,72.1,0.45,-0.44,0.07,0.07,0.00,136.76,136.25,126.37,126.37,13.4,28.7,0.38845849199110066,151.96292200401632,46.45312069963558,57.61627360806216,3.6010169938118963
2.100,91.5,44.053835172742154,-78.681739230393376,-76.9,-59.9,-15.6,-8.4,9054.9,9055,160.6,0,1,1,0,1,1,0,0,0,100,1,1.186,26.0,0.0,-0.45,59.817,66.0,0.0,26.0,26.0,26.0,26.0,-0.35,0.10,-0.23,389.0,-2.02,-2.80,-1.23,-2.03,-715.36,602.36,5.8,0.00,0.00,0.00,0.00,0.06,-7.49,-7.49,-0.27,-4.40,-0.42,-0.66,44.62,-0.27,-0.49,5.07,100.0,0,0,126.88,0,0,0.0,0,0,0,0,6768,0,30.00,4,160.6,0,0,0.0,0.0,0.0,0.0,0,0,2.113,2.113,95.237,21.595,0,110.00,435.8,8750,0.0,0.0,110.0,110.0,433.0,0.00,0,0,1,333.3,78.5,78.5,77.1,77.1,34.0,-38.28,-5.66,-33.6,-2.8,5,-477.989,5.9,100.0,17.7,14.5,32.9,28.3,0,1,40.1,0.00,0.00,0.00,0.00,3897,2797,3783,2592,315.1,317.2,345.8,348.2,25.49,22.63,26.09,25.38,325.0,325.0,355.0,355.0,99.77,99.94,99.83,99.88,-0.58,-0.51,-0.57,-0.41,-0.1,-0.1,1.1,1.4,85.3,67.4,82.8,78.4,98.2,69.9,82.3,75.4,93.4,67.4,80.7,73.4,89.8,66.4,79.5,72.0,0.35,-0.36,0.07,0.06,0.00,136.93,136.43,126.88,126.88,13.4,28.7,0.4305810028322197,157.00434593760895,47.17332409839798,7.202033987623793,-10.803050981435831
2.150,93.8,44.053815567531146,-78.681733384802939,84.1,162.9,-84.1,-83.3,9057.1,9057,160.9,0,1,1,0,1,1,0,0,0,100,1,1.186,26.0,0.0,-0.46,59.817,66.0,0.0,26.0,26.0,26.0,26.0,-0.25,0.18,-0.18,386.2,-3.10,-3.02,-1.94,-1.56,-714.71,600.18,5.8,0.00,0.00,0.00,0.00,0.06,-7.49,-7.49,-0.32,2.68,-0.47,-4.00,44.68,-0.32,-0.46,5.46,100.0,0,0,127.41,0,0,0.0,0,0,0,0,6796,0,30.00,4,160.9,1,0,0.0,0.0,0.0,0.0,0,0,2.167,2.167,95.237,21.595,1,110.00,435.8,8750,0.0,0.0,110.0,110.0,433.0,0.00,0,0,1,333.3,69.7,69.7,75.2,75.2,34.0,-29.63,7.69,-39.6,-7.0,5,-478.033,-0.1,100.0,22.0,22.7,28.7,24.1,0,1,40.1,0.00,0.00,0.00,0.00,3564,4805,3889,3254,316.3,311.4,346.3,347.2,25.50,22.63,26.09,25.38,325.0,325.0,355.0,355.0,99.77,99.94,99.83,99.88,-0.33,-0.24,-0.65,-0.45,-0.0,-0.1,1.3,1.6,85.3,67.4,82.8,78.4,98.2,69.9,82.3,75.3,93.3,67.4,80.6,73.3,89.7,66.3,79.4,72.0,0.07,-0.07,0.10,0.08,0.00,137.35,136.95,127.41,127.41,13.4,28.7,0.35679125549822543,152.6831254027787,45.372815601492,-39.61118835449014,-18.005084969059766
2.200,96.0,44.053797041506066,-78.681727898941134,4.4,-43.2,210.7,118.0,9059.3,9059,161.2,0,1,1,0,1,1,0,0,0,100,1,1.186,26.0,0.0,-0.47,59.817,66.0,0.0,26.0,26.0,26.0,26.0,-0.19,0.16,0.06,381.5,-2.36,-3.27,-2.27,-1.80,-714.10,598.12,5.8,0.00,0.00,0.00,0.00,0.06,-7.49,-7.49,-0.18,1.60,-0.73,-2.95,44.77,-0.33,-0.37,1.50,100.0,0,0,126.87,0,0,0.0,0,0,0,0,6768,0,30.00,4,161.2,0,0,0.0,0.0,0.0,0.0,0,0,2.213,2.213,95.237,21.595,0,110.00,435.8,8750,0.0,0.0,110.0,110.0,433.0,0.00,0,0,1,333.3,73.6,73.6,64.3,64.3,34.0,-10.68,17.94,-74.9,-4.5,5,-478.089,-10.0,100.0,22.2,20.5,39.2,30.0,0,1,40.1,0.00,0.00,0.00,0.00,3858,3118,6231,4450,315.5,317.2,340.7,343.1,25.50,22.63,26.09,25.38,325.0,325.0,355.0,355.0,99.77,99.94,99.83,99.88,0.07,0.12,-0.56,-0.35,-0.0,-0.0,0.8,1.0,85.4,67.4,82.8,78.3,98.1,69.9,82.3,75.3,93.3,67.3,80.6,73.3,89.7,66.3,79.4,72.0,-0.49,0.47,0.06,0.07,0.00,137.51,137.15,126.87,126.87,13.4,28.7,0.25553864678361277,153.04322710215993,45.372815601492,54.01525661425012,14.40406797524787
2.250,98.3,44.053777346362899,-78.681722053350697,-65.8,-79.5,-3.2,111.2,9061.6,9062,161.5,0,1,1,0,1,1,0,0,0,100,1,1.186,26.0,0.0,-0.47,59.817,66.0,0.0,26.0,26.0,26.0,26.0,0.08,0.21,-0.17,383.4,-1.03,-2.73,-1.29,-1.75,-713.45,595.93,5.9,0.00,0.00,0.00,0.00,0.06,-7.49,-7.49,-0.20,-2.78,-0.87,0.65,44.85,-0.27,-0.36,-3.99,100.0,0,0,127.02,0,0,0.0,0,0,0,0,6775,0,30.00,4,161.5,1,0,0.0,0.0,0.0,0.0,0,0,2.263,2.263,95.237,21.595,1,110.00,435.8,8750,0.0,0.0,110.0,110.0,433.0,0.00,0,0,1,333.3,79.6,79.6,63.0,63.0,34.0,16.45,30.59,-44.9,3.0,5,-478.133,-25.6,100.0,18.9,16.6,39.0,35.6,0,1,40.1,0.00,0.00,0.00,0.00,2213,2783,5854,3659,319.0,318.1,340.0,345.2,25.50,22.63,26.09,25.37,325.0,325.0,355.0,355.0,99.77,99.94,99.83,99.88,0.85,0.85,-0.34,-0.21,-0.0,-0.1,1.0,0.8,85.4,67.4,82.8,78.3,98.0,69.8,82.2,75.3,93.2,67.3,80.6,73.3,89.6,66.3,79.4,71.9,-1.36,1.34,0.06,0.06,0.00,137.27,137.50,127.02,127.02,13.4,28.7,0.28178005607210743,158.0846510642037,46.81322239901679,3.601017562835125,7.202033987623935
2.300,100.5,44.053757561287568,-78.681716207760260,52.2,138.2,-101.1,-18.8,9063.8,9064,161.7,0,1,1,0,1,1,0,0,0,100,1,1.186,26.0,0.0,-0.49,59.817,66.0,0.0,26.0,26.0,26.0,26.0,0.53,0.09,-0.02,382.5,-2.41,-2.82,-1.66,-0.84,-712.80,593.73,5.9,0.00,0.00,0.00,0.00,0.06,-7.49,-7.49,-0.34,-0.51,-0.58,8.58,44.91,-0.13,-0.47,-12.97,100.0,0,0,127.88,0,0,0.0,0,0,0,0,6821,0,30.00,4,161.7,0,0,0.0,0.0,0.0,0.0,0,0,2.317,2.317,95.237,21.595,0,110.00,435.8,8750,0.0,0.0,110.0,110.0,433.0,0.00,0,0,1,333.3,69.4,69.4,72.6,72.6,34.0,40.16,81.70,-4.5,14.2,5,-478.189,-38.9,100.0,21.5,23.5,34.0,34.6,0,1,40.1,0.00,0.00,0.00,0.00,3571,4829,2162,3842,315.9,311.8,349.3,345.5,25.50,22.63,26.09,25.37,325.0,325.0,355.0,355.0,99.77,99.94,99.83,99.88,1.49,1.51,0.05,0.16,-0.0,-0.1,1.6,0.8,85.4,67.4,82.8,78.3,98.0,69.8,82.2,75.3,93.2,67.3,80.5,73.2,89.5,66.3,79.3,71.9,-2.18,2.14,0.07,0.06,0.00,137.21,138.13,127.89,127.88,13.4,28.7,0.5379591062525106,153.40332885844344,46.093019000254394,-3.6010169938120384,21.606103100919043
2.350,102.8,44.053739035262481,-78.681710542034139,19.9,53.3,-118.9,154.5,9066.1,9066,161.9,0,1,1,0,1,1,0,0,0,100,1,1.186,26.0,0.0,-0.49,59.817,66.0,0.0,26.0,26.0,26.0,26.0,0.87,0.07,0.26,379.2,-2.87,-3.02,-3.04,-1.15,-712.17,591.67,5.9,0.00,0.00,0.00,0.00,0.06,-7.49,-7.49,-0.24,2.71,-0.10,10.42,44.97,0.16,-0.43,-20.51,100.0,0,0,127.79,0,0,0.0,0,0,0,0,6816,0,30.00,4,161.9,1,0,0.0,0.0,0.0,0.0,0,0,2.363,2.363,95.237,21.595,1,110.00,435.8,8750,0.0,0.0,110.0,110.0,433.0,0.00,0,0,1,333.3,68.4,68.4,74.4,74.4,34.0,37.26,79.84,3.8,85.2,5,-478.233,-47.1,100.0,22.5,26.1,28.0,42.4,0,1,40.1,0.00,0.00,0.00,0.00,2845,4475,3403,6630,317.3,312.2,347.0,337.9,25.51,22.63,26.09,25.37,325.0,325.0,355.0,355.0,99.77,99.94,99.83,99.88,2.13,2.07,0.58,0.74,-0.1,-0.1,1.6,0.4,85.4,67.4,82.8,78.3,97.9,69.9,82.2,75.2,93.1,67.3,80.5,73.2,89.5,66.3,79.3,71.9,-2.69,2.63,0.09,0.04,0.00,137.09,138.68,127.79,127.78,13.4,28.7,0.9107140056021978,157.7245493648225,48.97383270910869,39.61118778546677,43.212205063790705
2.400,105.0,44.053718171001229,-78.681703976986412,-252.7,-123.8,3.1,108.9,9068.3,9068,162.1,0,1,1,0,1,1,0,0,0,100,1,1.186,26.0,0.0,-0.51,59.817,66.0,0.0,26.0,26.0,26.0,26.0,0.93,0.20,-0.37,383.8,-2.87,-1.04,-2.72,-0.54,-711.44,589.35,5.9,0.00,0.00,0.00,0.00,0.06,-7.49,-7.49,-0.29,-4.86,0.35,4.86,45.03,0.60,-0.42,-20.22,100.0,0,0,128.03,0,0,0.0,0,0,0,0,6829,0,30.00,4,162.1,0,0,0.0,0.0,0.0,0.0,1,0,2.417,2.417,95.237,21.595,0,110.00,435.8,8750,0.0,0.0,110.0,110.0,433.0,0.00,0,0,1,166.7,81.6,81.6,67.5,67.5,34.0,6.59,74.51,27.4,107.9,5,-478.289,-57.6,100.0,9.9,19.9,28.2,47.8,0,1,40.1,0.00,0.00,0.00,0.00,813,4882,4175,6574,323.3,311.9,345.7,338.5,25.51,22.63,26.09,25.37,325.0,325.0,355.0,355.0,99.77,99.94,99.83,99.88,3.34,3.27,1.16,1.32,0.0,-0.1,2.1,0.7,85.4,67.4,82.8,78.3,97.8,69.9,82.1,75.3,93.0,67.4,80.5,73.2,89.4,66.3,79.3,71.9,-3.30,3.20,0.10,0.04,0.00,136.80,138.42,128.03,128.03,13.4,28.7,1.0206860437960343,157.36444763699012,50.414239506633464,-100.82847895636434,3.6010164247881704
2.450,107.3,44.053699734908307,-78.681697951531660,175.3,314.5,-122.5,-171.1,9070.6,9071,162.2,0,1,1,0,1,1,0,0,0,100,1,1.186,26.0,0.0,-0.52,59.817,66.0,0.0,26.0,26.0,26.0,26.0,0.99,0.02,-0.16,384.3,-3.17,-1.89,-2.26,-0.32,-710.77,587.30,5.9,0.00,0.00,0.00,0.00,0.06,-7.49,-7.49,-0.44,1.05,0.52,0.81,45.03,0.92,-0.55,-29.06,100.0,0,0,129.60,0,0,0.0,0,0,0,0,6913,0,30.00,4,162.2,1,0,0.0,0.0,0.0,0.0,1,0,2.467,2.467,95.237,21.595,1,110.00,435.8,8750,0.0,0.0,110.0,110.0,433.0,0.00,0,0,1,166.7,67.5,67.5,79.8,79.8,34.0,18.39,44.62,0.9,70.9,5,-478.333,-72.0,100.0,18.6,35.7,22.1,39.2,0,1,39.7,0.00,0.00,0.00,0.00,2196,4505,167,4260,319.8,314.0,354.2,344.1,25.51,22.63,26.08,25.37,325.0,325.0,355.0,355.0,99.77,99.94,99.83,99.88,4.23,4.16,1.96,1.97,-0.1,0.1,3.0,1.1,85.4,67.4,82.8,78.3,97.8,70.0,82.1,75.3,93.0,67.5,80.4,73.2,89.4,66.5,79.2,71.9,-4.12,3.97,0.11,0.05,0.00,136.68,138.67,129.60,129.60,13.4,28.7,1.0030453628824572,147.64170146918607,49.33393435158751,-57.616273608061874,32.4091540823548
2.500,109.5,44.053681298815384,-78.681691656280421,-74.2,-55.7,-44.7,305.5,9072.8,9073,162.3,0,1,1,0,1,1,0,0,0,100,1,1.186,26.0,0.0,-0.53,59.817,66.0,0.0,26.0,26.0,26.0,26.0,1.85,0.11,0.39,375.7,-1.93,-2.60,-2.25,-0.36,-710.07,585.25,5.9,0.00,0.00,0.00,0.00,0.07,-7.49,-7.49,-0.25,3.04,0.70,-0.28,45.06,1.36,-0.44,-30.26,100.0,0,0,128.02,0,0,0.0,0,0,0,0,6829,0,30.00,4,162.3,0,0,0.0,0.0,0.0,0.0,1,0,2.513,2.513,95.237,21.595,0,110.00,435.8,8750,0.0,0.0,110.0,110.0,433.0,0.00,0,0,1,166.7,70.2,70.2,65.8,65.8,34.0,0.00,15.14,49.9,258.5,5,-478.378,-89.9,100.0,14.9,32.9,19.8,54.5,0,1,39.7,0.00,0.00,0.00,0.00,0,7084,3885,10531,325.0,305.3,346.0,326.7,25.51,22.63,26.08,25.37,325.0,325.0,355.0,355.0,99.77,99.94,99.83,99.88,0.00,5.70,2.47,2.70,0.0,-0.3,2.3,0.5,85.5,67.5,82.8,78.3,97.8,70.2,82.1,75.3,93.0,67.7,80.4,73.3,89.4,66.6,79.2,72.0,-5.17,4.95,0.09,0.01,0.00,136.20,138.56,128.01,128.02,13.4,28.7,1.8938584952419228,151.60282027618393,53.655154914868945,72.0203421523334,86.42441126562865
2.550,111.8,44.053661873468698,-78.681684551639734,-52.1,96.0,195.1,-104.2,9075.1,9075,162.2,0,1,1,0,1,1,0,0,0,100,1,1.186,26.0,0.0,-0.54,59.817,66.0,0.0,26.0,26.0,26.0,26.0,1.68,0.01,0.08,377.2,-2.46,-1.96,-1.11,-1.10,-709.28,583.09,5.9,0.00,0.00,0.00,0.00,0.07,-7.49,-7.49,-0.16,1.74,0.54,-6.00,45.02,1.75,-0.47,-29.58,100.0,0,0,128.80,0,0,0.0,0,0,0,0,6870,0,30.00,4,162.2,1,0,0.0,0.0,0.0,0.0,1,0,2.563,2.563,95.237,21.595,1,110.00,435.8,8750,0.0,0.0,110.0,110.0,433.0,0.00,0,0,1,166.7,68.5,68.5,56.5,56.5,34.0,0.00,-24.34,18.3,141.3,5,-478.433,-112.5,100.0,12.3,37.7,29.6,49.3,0,1,34.9,0.00,0.00,0.00,0.00,0,7347,1727,7449,324.8,304.4,350.2,335.7,25.51,22.64,26.08,25.37,325.0,325.0,355.0,355.0,99.77,99.94,99.83,99.88,0.00,7.46,3.10,3.13,0.0,-0.5,2.7,0.8,85.5,67.5,82.8,78.3,97.7,70.5,82.1,75.4,92.9,67.9,80.4,73.4,89.3,66.9,79.2,72.1,-6.53,6.16,0.08,0.02,0.00,135.85,137.58,128.80,128.80,13.4,28.7,1.681933411285952,154.8437356844194,57.97637547815037,-25.207119525707355,50.41423962043808
2.600,114.0,44.053642627986328,-78.681677177202559,-4.8,-100.2,-33.5,60.9,9077.3,9077,162.0,0,1,1,0,1,1,0,0,0,100,1,1.186,26.0,0.0,-0.56,59.817,66.0,0.0,26.0,26.0,26.0,26.0,1.73,-0.22,0.18,378.4,-1.82,-2.38,-0.85,-1.88,-708.46,580.95,5.9,0.00,0.00,0.00,0.00,0.07,-7.49,-7.49,-0.10,-1.12,0.02,-10.17,44.95,2.03,-0.43,-24.23,100.0,0,0,125.89,0,0,0.0,0,0,0,0,6715,0,30.00,4,162.0,0,0,0.0,0.0,0.0,0.0,1,0,2.617,2.617,95.237,21.595,0,110.00,435.8,8750,0.0,0.0,110.0,110.0,433.0,0.00,0,0,1,166.7,71.6,71.6,60.8,60.8,34.0,-1.39,-19.54,36.3,112.8,5,-478.489,-134.3,100.0,12.1,32.7,27.9,52.4,0,1,0.0,0.00,0.00,0.00,0.00,840,6087,2638,6770,322.9,307.7,347.8,337.4,25.52,22.64,26.08,25.37,325.0,325.0,355.0,355.0,99.77,99.94,99.83,99.88,9.80,9.28,3.33,3.41,0.3,-0.5,0.2,-0.4,85.5,67.5,82.7,78.3,97.7,70.9,82.1,75.5,92.9,68.3,80.4,73.5,89.3,67.2,79.2,72.2,-7.92,7.39,0.09,0.02,0.00,135.33,136.43,125.25,126.54,13.4,28.7,1.7531970796233949,149.0821083236132,58.69657887691275,-25.2071198102189,50.41423905141443
2.650,116.3,44.053624641554208,-78.681669892697556,85.8,-121.2,-9.3,-85.5,9079.6,9080,161.4,0,1,1,0,1,1,0,0,0,100,1,1.186,26.0,0.0,-0.57,59.817,66.0,0.0,26.0,26.0,26.0,26.0,1.69,-0.35,0.03,379.9,-1.81,-2.05,-2.07,-0.58,-707.65,578.95,6.0,0.00,0.00,0.00,0.00,0.07,-7.49,-7.49,-0.28,-4.28,-0.26,1.41,44.78,2.09,-0.55,-21.40,100.0,0,0,125.11,0,0,0.0,0,0,0,0,6673,0,30.00,4,161.4,1,0,0.0,0.0,0.0,0.0,1,0,2.663,2.663,95.237,21.595,1,110.00,435.8,8750,0.0,0.0,110.0,110.0,433.0,0.00,0,0,1,166.7,69.2,69.2,71.1,71.1,34.0,-5.90,-22.05,21.1,101.1,5,-478.533,-150.0,100.0,16.4,26.6,27.4,48.1,0,1,0.0,0.00,0.00,0.00,0.00,2638,6895,1789,6063,318.4,306.3,350.4,339.6,25.52,22.64,26.08,25.37,325.0,325.0,355.0,355.0,99.77,99.94,99.83,99.88,10.92,10.40,3.26,3.35,0.0,-0.7,-0.3,-0.6,85.5,67.5,82.7,78.3,97.7,71.2,82.1,75.6,92.9,68.5,80.4,73.6,89.3,67.5,79.2,72.3,-8.93,8.32,0.09,0.02,0.00,134.07,135.10,124.46,125.75,13.4,28.7,1.7261228229763952,152.32302370339752,63.017799383291816,14.40406797524787,64.81830816470975
2.700,118.5,44.053604586682397,-78.681661439074460,-16.6,42.3,-156.6,-149.3,9081.8,9082,160.7,0,1,1,0,1,1,0,0,0,100,1,1.186,26.0,0.0,-0.59,59.817,66.0,0.0,26.0,26.0,26.0,26.0,1.43,-0.27,-0.13,385.0,-1.20,-2.49,-2.10,0.02,-706.71,576.72,6.0,0.00,0.00,0.00,0.00,0.07,-7.49,-7.49,-0.41,-1.42,-0.07,4.13,44.56,2.27,-0.58,-22.25,100.0,0,0,124.59,0,0,0.0,0,0,0,0,6646,0,30.00,4,160.7,0,0,0.0,0.0,0.0,0.0,1,0,2.717,2.717,95.237,21.595,0,110.00,435.8,8750,0.0,0.0,110.0,110.0,433.0,0.00,0,0,1,166.7,74.5,74.5,73.2,73.2,34.0,0.00,-17.36,30.7,116.9,5,-478.589,-160.2,100.0,15.5,28.7,19.6,40.6,0,1,0.0,0.00,0.00,0.00,0.00,0,5717,2488,7152,325.0,309.6,348.8,337.2,25.52,22.64,26.08,25.37,325.0,325.0,355.0,355.0,99.77,99.94,99.83,99.88,0.00,11.16,3.46,3.60,0.0,-0.6,-0.4,-0.6,85.5,67.5,82.7,78.3,97.7,71.6,82.0,75.7,92.9,68.9,80.4,73.7,89.3,67.8,79.2,72.4,-9.65,8.90,0.09,0.05,0.00,133.12,134.31,123.83,125.35,13.4,28.7,1.461061258127119,150.52251512113799,65.17840969338373,-126.03559905109563,3.6010175628356222
2.750,120.7,44.053587049911087,-78.681653614976483,-55.8,-52.3,-15.3,57.2,9084.0,9084,160.1,0,1,1,0,1,1,0,0,0,100,1,1.186,26.0,0.0,-0.61,59.817,66.0,0.0,26.0,26.0,26.0,26.0,1.43,-0.30,-0.14,385.9,-2.11,-2.63,-1.93,-0.66,-705.84,574.77,6.0,0.00,0.00,0.00,0.00,0.07,-7.49,-7.49,-0.59,-4.93,-0.06,-1.06,44.39,2.30,-0.65,-17.70,100.0,0,0,123.92,0,0,0.0,0,0,0,0,6610,0,30.00,4,160.1,1,0,0.0,0.0,0.0,0.0,1,0,2.767,2.767,95.237,21.595,1,110.00,435.8,8750,0.0,0.0,110.0,110.0,433.0,0.00,0,0,1,333.3,73.7,73.7,79.4,79.4,34.0,-4.17,-18.20,14.8,73.3,5,-478.633,-169.7,100.0,12.7,26.1,18.8,43.5,0,1,0.0,0.00,0.00,0.00,0.00,2088,5986,1378,4931,320.0,309.1,351.4,341.9,25.52,22.64,26.07,25.37,325.0,325.0,355.0,355.0,99.77,99.94,99.83,99.88,12.62,11.95,3.43,3.56,0.3,-0.6,-0.3,-0.7,85.5,67.5,82.7,78.3,97.7,71.9,82.0,75.8,92.9,69.2,80.3,73.8,89.3,68.1,79.1,72.5,-10.23,9.40,0.10,0.03,0.00,132.60,133.08,123.42,124.41,13.4,28.7,1.4678215150351215,139.71946379828796,63.37790113957538,-79.22237613995748,21.60610196287152
