Time,Distance,GPS Latitude,GPS Longitude,Damper Velocity (Calc) FL,Damper Velocity (Calc) FR,Damper Velocity (Calc) RL,Damper Velocity (Calc) RR,Corr Dist,Corr Dist (Unstretched),Corr Speed,ABS Active,ABS Enabled,AID Allow Tire Blankets,AID Auto Blip,AID Auto Clutch,AID Auto Shift,AID Fuel Rate,AID Ideal Line,AID Mech Damage,AID Stability,AID Tire Wear Rate,Air Density,Air Temp,Ballast,Best Lap Delta,Best Lap Time,Brake Bias,Brake Pos,Brake Temp FL,Brake Temp FR,Brake Temp RL,Brake Temp RR,CG Accel Lateral,CG Accel Longitudinal,CG Accel Vertical,CG Height,Camber FL,Camber FR,Camber RL,Camber RR,Car Coord X,Car Coord Y,Car Coord Z,Car Damage Front,Car Damage Left,Car Damage Rear,Car Damage Right,Car Pos Norm,Caster FL,Caster FR,Chassis Pitch Angle,Chassis Pitch Rate,Chassis Roll Angle,Chassis Roll Rate,Chassis Velocity X,Chassis Velocity Y,Chassis Velocity Z,Chassis Yaw Rate,Clutch Pos,DRS Active,DRS Available,Drive Train Speed,ERS Heat Charging,ERS Is Charging,ERS Max Energy,ERS Power Level,ERS Recovery Level,Engine Brake Setting,Engine Limiter,Engine RPM,Flags,Fuel Level,Gear,Ground Speed,HR Sample Clock,In Pit,KERS Charge,KERS Deployed Energy,KERS Input,KERS Max Energy,LR Sample Clock,Lap Invalidated,Lap Time,Lap Time2,Last Lap Time,Last Sector Time,MR Sample Clock,Max Fuel,Max Power,Max RPM,Max Sus Travel FL,Max Sus Travel FR,Max Sus Travel RL,Max Sus Travel RR,Max Torque,Max Turbo Boost,Num Tires Off Track,Penalties Enabled,Position,Raw Data Sample Rate,Ride Height FL,Ride Height FR,Ride Height RL,Ride Height RR,Road Temp,Self Align Torque FL,Self Align Torque FR,Self Align Torque RL,Self Align Torque RR,Session Lap Count,Session Time Left,Steering Angle,Surface Grip,Suspension Travel FL,Suspension Travel FR,Suspension Travel RL,Suspension Travel RR,TC Active,TC Enabled,Throttle Pos,Tire Dirt Level FL,Tire Dirt Level FR,Tire Dirt Level RL,Tire Dirt Level RR,Tire Load FL,Tire Load FR,Tire Load RL,Tire Load RR,Tire Loaded Radius FL,Tire Loaded Radius FR,Tire Loaded Radius RL,Tire Loaded Radius RR,Tire Pressure FL,Tire Pressure FR,Tire Pressure RL,Tire Pressure RR,Tire Radius FL,Tire Radius FR,Tire Radius RL,Tire Radius RR,Tire Rubber Grip FL,Tire Rubber Grip FR,Tire Rubber Grip RL,Tire Rubber Grip RR,Tire Slip Angle FL,Tire Slip Angle FR,Tire Slip Angle RL,Tire Slip Angle RR,Tire Slip Ratio FL,Tire Slip Ratio FR,Tire Slip Ratio RL,Tire Slip Ratio RR,Tire Temp Core FL,Tire Temp Core FR,Tire Temp Core RL,Tire Temp Core RR,Tire Temp Inner FL,Tire Temp Inner FR,Tire Temp Inner RL,Tire Temp Inner RR,Tire Temp Middle FL,Tire Temp Middle FR,Tire Temp Middle RL,Tire Temp Middle RR,Tire Temp Outer FL,Tire Temp Outer FR,Tire Temp Outer RL,Tire Temp Outer RR,Toe In FL,Toe In FR,Toe In RL,Toe In RR,Turbo Boost,Wheel Angular Speed FL,Wheel Angular Speed FR,Wheel Angular Speed RL,Wheel Angular Speed RR,Wind Direction,Wind Speed,CG Distance,Lateral Velocity,Longitudinal Velocity,Lateral Acceleration,Longitudinal Acceleration
s,m,deg,deg,mm/s,mm/s,mm/s,mm/s,m,m,km/h,,,,,,,,,%,%,,kg/m3,C,kg,s,s,%,%,C,C,C,C,G,G,G,mm,deg,deg,deg,deg,m,m,m,,,,,,deg,deg,deg,deg/s,deg,deg/s,m/s,m/s,m/s,deg/s,%,,,rad/s,,,MJ,,,,,rpm,,l,,km/h,,,%,kJ,%,MJ,,,s,s,s,s,,l,hp,rpm,mm,mm,mm,mm,N.m,,,,,Hz,mm,mm,mm,mm,C,N.m,N.m,N.m,N.m,,s,deg,%,mm,mm,mm,mm,,,%,,,,,N,N,N,N,mm,mm,mm,mm,psi,psi,psi,psi,mm,mm,mm,mm,%,%,%,%,deg,deg,deg,deg,%,%,%,%,C,C,C,C,C,C,C,C,C,C,C,C,C,C,C,C,deg,deg,deg,deg,,rad/s,rad/s,rad/s,rad/s,deg,km/h,G,Km/h,Km/h,Km/h^2,Km/h^2
0.000,0.0,44.054639885715133,-78.681927368473325,-29.8,-4.8,25.6,119.3,6836.1,6836,101.4,0,1,1,0,1,1,0,0,0,100,1,1.186,26.0,0.0,0.006,66.767,66.0,0.0,26.0,26.0,26.0,26.0,-0.58,-0.26,0.19,382.2,-0.96,-3.70,-1.47,-1.72,-736.28,691.84,5.7,0.00,0.00,0.00,0.00,0.00,-7.49,-7.49,-0.58,0.37,-0.41,-5.63,27.99,-3.08,-0.32,-38.95,100.0,0,0,77.93,0,0,0.0,0,0,0,0,5224,0,30.00,3,101.4,1,0,0.0,0.0,0.0,0.0,1,0,0.021,0.021,71.271,22.789,1,110.00,435.8,8750,0.0,0.0,110.0,110.0,433.0,0.00,0,0,1,333.3,70.7,70.7,71.9,71.9,34.0,56.47,46.56,-35.3,-35.6,4,-300.240,-157.1,100.0,24.0,18.9,32.3,27.6,0,1,0.0,0.00,0.00,0.00,0.00,4990,3423,5625,3970,312.1,315.7,340.5,344.4,24.08,22.79,25.00,24.22,325.0,325.0,355.0,355.0,99.95,100.00,99.92,99.96,1.11,0.93,-4.88,-4.49,0.0,-0.1,-0.6,-1.5,76.5,68.4,76.0,71.1,89.1,74.1,88.6,81.0,85.2,71.1,86.4,78.6,82.5,69.6,85.3,77.6,-9.49,8.88,0.08,0.06,0.00,85.29,88.47,76.67,79.19,356.7,7.7,0.6634003316248794
0.050,1.4,44.054628284466418,-78.681923861119060,98.7,-0.0,36.5,22.0,6837.5,6838,101.0,0,1,1,0,1,1,0,0,0,100,1,1.186,26.0,0.0,0.006,66.767,66.0,0.0,26.0,26.0,26.0,26.0,0.20,-0.24,-0.01,383.0,-1.01,-3.55,-1.63,-2.07,-735.89,690.55,5.7,0.00,0.00,0.00,0.00,0.00,-7.49,-7.49,-0.60,0.77,-0.48,5.75,27.98,-1.74,-0.41,-63.52,100.0,0,0,78.41,0,0,0.0,0,0,0,0,5256,0,30.00,3,101.0,0,0,0.0,0.0,0.0,0.0,1,0,0.069,0.069,71.271,22.789,0,110.00,435.8,8750,0.0,0.0,110.0,110.0,433.0,0.00,0,0,1,166.7,68.7,68.7,79.4,79.4,34.0,78.62,46.26,-50.9,-17.6,4,-300.290,-150.1,100.0,28.9,18.9,34.1,28.7,0,1,0.0,0.00,0.00,0.00,0.00,5003,2998,3444,2777,311.7,317.2,346.0,347.9,24.09,22.79,25.00,24.22,325.0,325.0,355.0,355.0,99.95,100.00,99.92,99.96,1.82,1.88,-1.18,-0.93,0.0,-0.2,-0.2,-0.8,76.5,68.4,76.0,71.1,89.1,74.1,88.6,81.0,85.2,71.1,86.4,78.6,82.5,69.6,85.3,77.6,-9.05,8.53,0.07,0.07,0.00,83.81,89.28,75.97,80.85,356.7,7.7,0.3125699921617557,95.78705507967429,28.80813686093341
0.100,2.8,44.054615963760419,-78.681920173900480,-133.7,52.2,-216.9,66.7,6838.9,6839,100.6,0,1,1,0,1,1,0,0,0,100,1,1.186,26.0,0.0,0.021,66.767,66.0,0.0,26.0,26.0,26.0,26.0,1.39,-0.27,0.07,383.8,-1.09,-3.27,-2.29,-1.19,-735.48,689.18,5.7,0.00,0.00,0.00,0.00,0.00,-7.49,-7.49,-0.52,1.62,0.33,22.16,27.94,-0.45,-0.33,-72.74,100.0,0,0,78.40,0,0,0.0,0,0,0,0,5256,0,30.00,3,100.6,1,0,0.0,0.0,0.0,0.0,1,0,0.120,0.120,71.271,22.789,1,110.00,435.8,8750,0.0,0.0,110.0,110.0,433.0,0.00,0,0,1,166.7,70.2,70.2,78.8,78.8,34.0,34.75,79.97,43.6,107.2,4,-300.340,-143.9,100.0,22.2,21.5,23.2,32.0,0,1,0.0,0.00,0.00,0.00,0.00,2772,5542,3258,5585,317.6,310.1,346.6,340.5,24.09,22.79,25.00,24.22,325.0,325.0,355.0,355.0,99.95,100.00,99.92,99.96,3.46,3.37,1.91,1.98,-0.1,-0.1,-0.0,-0.5,76.6,68.4,76.0,71.1,89.1,74.1,88.6,81.0,85.1,71.1,86.3,78.6,82.5,69.6,85.2,77.6,-8.68,8.13,0.09,0.06,0.00,82.81,89.27,75.57,81.23,356.7,7.7,1.417709420156331,100.8284790417181,31.688950512885324,-21.60610224738349,32.4091540823548
0.150,4.2,44.054603103461453,-78.681915947088939,-251.7,140.3,-118.8,239.8,6840.3,6840,100.2,0,1,1,0,1,1,0,0,0,100,1,1.186,26.0,0.0,0.030,66.767,66.0,0.0,26.0,26.0,26.0,26.0,1.44,-0.22,-0.05,386.2,-3.60,-2.22,-2.84,0.04,-735.01,687.75,5.7,0.00,0.00,0.00,0.00,0.00,-7.49,-7.49,-0.46,-1.66,1.54,12.35,27.81,0.67,-0.37,-70.72,100.0,0,0,77.79,0,0,0.0,0,0,0,0,5215,0,30.00,3,100.2,0,0,0.0,0.0,0.0,0.0,0,0,0.174,0.174,71.271,22.789,0,110.00,435.8,8750,0.0,0.0,110.0,110.0,433.0,0.00,0,0,1,166.7,77.5,77.5,74.8,74.8,34.0,0.00,19.08,1.5,97.7,4,-300.390,-140.0,100.0,9.7,28.5,17.3,44.0,0,1,0.0,0.00,0.00,0.00,0.00,0,6485,337,7727,325.0,307.0,354.1,334.3,24.09,22.79,25.01,24.22,325.0,325.0,355.0,355.0,99.95,100.00,99.92,99.96,0.00,5.48,4.56,4.30,0.0,-0.2,-0.5,-0.6,76.6,68.5,76.0,71.2,89.0,74.2,88.5,81.1,85.1,71.2,86.3,78.6,82.4,69.6,85.2,77.6,-8.50,7.88,0.12,0.04,0.00,82.49,88.03,74.98,80.60,356.7,7.7,1.4575664650368434,93.62644485493594,32.04905226916889,-111.63153022231214,14.404069113295073
0.200,5.6,44.054592581398659,-78.681912169938187,-23.2,-83.4,-134.4,31.5,6841.7,6842,99.8,0,1,1,0,1,1,0,0,0,100,1,1.186,26.0,0.0,0.036,66.767,66.0,0.0,26.0,26.0,26.0,26.0,1.31,-0.17,-0.16,392.4,-3.73,-1.29,-2.32,0.04,-734.59,686.58,5.7,0.00,0.00,0.00,0.00,0.00,-7.49,-7.49,-0.51,-4.58,1.65,-6.29,27.67,1.59,-0.36,-64.65,100.0,0,0,77.09,0,0,0.0,0,0,0,0,5168,0,30.00,3,99.8,1,0,0.0,0.0,0.0,0.0,0,0,0.219,0.219,71.271,22.789,1,110.00,435.8,8750,0.0,0.0,110.0,110.0,433.0,0.00,0,0,1,333.3,87.5,87.5,79.1,79.1,34.0,0.00,-14.99,-0.1,-1.9,4,-300.440,-130.1,100.0,8.5,24.3,10.6,45.6,0,1,0.0,0.00,0.00,0.00,0.00,0,4960,917,7305,325.0,311.3,352.9,335.7,24.09,22.79,25.01,24.23,325.0,325.0,355.0,355.0,99.95,100.00,99.92,99.96,0.00,7.44,6.51,6.29,0.0,-0.3,-0.6,-0.9,76.6,68.5,76.0,71.2,89.0,74.3,88.5,81.1,85.0,71.3,86.2,78.7,82.4,69.7,85.1,77.7,-7.98,7.45,0.11,0.04,0.00,82.49,86.75,74.59,79.59,356.7,7.7,1.3306389442670015,89.66532601948688,33.12935742421483,7.202033703111823,46.8132220576026
0.250,7.0,44.054580710353463,-78.681907673330159,-21.9,-13.8,57.7,-102.7,6843.1,6843,99.3,0,1,1,0,1,1,0,0,0,100,1,1.186,26.0,0.0,0.045,66.767,66.0,0.0,26.0,26.0,26.0,26.0,1.05,-0.14,-0.36,393.4,-2.44,-1.54,-2.57,-0.52,-734.09,685.26,5.7,0.00,0.00,0.00,0.00,0.01,-7.49,-7.49,-0.75,-6.77,1.09,-16.27,27.47,2.44,-0.42,-57.78,100.0,0,0,76.30,0,0,0.0,0,0,0,0,5115,0,30.00,3,99.3,0,0,0.0,0.0,0.0,0.0,0,0,0.270,0.270,71.271,22.789,0,110.00,435.8,8750,0.0,0.0,110.0,110.0,433.0,0.00,0,0,1,333.3,83.6,83.6,81.1,81.1,34.0,0.00,-14.34,-1.8,-10.2,4,-300.490,-95.0,100.0,7.4,23.7,13.5,40.4,0,1,0.0,0.00,0.00,0.00,0.00,0,4759,1027,3528,325.0,311.8,352.4,345.3,24.10,22.80,25.01,24.23,325.0,325.0,355.0,355.0,99.95,100.00,99.92,99.96,0.00,8.08,8.18,7.84,0.0,-0.4,-0.6,-1.5,76.6,68.5,76.1,71.2,88.9,74.4,88.4,81.3,85.0,71.4,86.2,78.8,82.3,69.9,85.1,77.8,-6.08,5.76,0.11,0.05,0.00,82.49,85.61,74.24,78.35,356.7,7.7,1.1187939935484101,94.34664822524712,36.73037447492915,7.202033987623793,43.212205063790634
0.300,8.3,44.054569019172590,-78.681902996857815,135.5,-68.8,-5.0,-299.6,6844.4,6844,98.9,0,1,1,0,1,1,0,0,0,100,1,1.186,26.0,0.0,0.045,66.767,66.0,0.0,26.0,26.0,26.0,26.0,1.35,-0.15,-0.16,392.7,-2.00,-2.46,-1.29,-0.40,-733.57,683.96,5.7,0.00,0.00,0.00,0.00,0.01,-7.49,-7.49,-0.97,-3.10,0.53,-2.03,27.25,3.29,-0.33,-59.04,100.0,0,0,75.52,0,0,0.0,0,0,0,0,5063,0,30.00,3,98.9,1,0,0.0,0.0,0.0,0.0,0,0,0.321,0.321,71.271,22.789,1,110.00,435.8,8750,0.0,0.0,110.0,110.0,433.0,0.00,0,0,1,333.3,74.8,74.8,91.1,91.1,34.0,-2.94,-11.57,-2.7,-8.8,4,-300.540,-42.3,100.0,14.2,20.2,13.2,25.5,0,1,0.0,0.00,0.00,0.00,0.00,2842,5242,1311,3251,317.9,310.8,351.3,346.5,24.10,22.80,25.01,24.23,325.0,325.0,355.0,355.0,99.95,100.00,99.92,99.96,6.79,6.66,9.89,9.50,-0.1,-0.5,-0.6,-2.0,76.6,68.5,76.1,71.2,88.9,74.5,88.4,81.3,85.0,71.5,86.2,78.9,82.3,70.0,85.1,77.9,-2.86,2.79,0.12,0.09,0.00,80.32,85.58,73.69,77.36,356.7,7.7,1.3676987972503303,90.38552941824926,37.450577930593894,-28.808136519518968,46.81322319564991
0.350,9.7,44.054558137381157,-78.681898320385457,63.7,136.6,-19.2,145.6,6845.8,6846,98.3,0,1,1,0,1,1,0,0,0,100,1,1.186,26.0,0.0,0.054,66.767,66.0,0.0,26.0,26.0,26.0,26.0,1.77,-0.15,0.16,384.8,-3.89,-1.36,-2.52,-1.34,-733.05,682.75,5.7,0.00,0.00,0.00,0.00,0.01,-7.49,-7.49,-0.95,1.48,0.79,9.28,26.99,3.93,-0.36,-60.72,100.0,0,0,74.93,0,0,0.0,0,0,0,0,5023,0,30.00,3,98.3,0,0,0.0,0.0,0.0,0.0,0,0,0.369,0.369,71.271,22.789,0,110.00,435.8,8750,0.0,0.0,110.0,110.0,433.0,0.00,0,0,1,333.3,66.4,66.4,83.9,83.9,34.0,15.26,48.10,-5.8,-16.1,4,-300.590,4.9,100.0,17.4,27.0,12.3,32.7,0,1,0.0,0.00,0.00,0.00,0.00,2842,7844,2575,5106,317.7,304.1,348.5,341.5,24.10,22.80,25.02,24.24,325.0,325.0,355.0,355.0,99.95,100.00,99.92,99.96,5.19,5.08,11.22,10.82,-0.2,-0.4,-0.7,-1.9,76.6,68.5,76.1,71.2,88.9,74.6,88.4,81.5,85.0,71.6,86.2,79.1,82.3,70.0,85.1,78.0,-0.07,0.09,0.12,0.06,0.00,80.03,85.58,72.99,76.86,356.7,7.7,1.7835358140502815,91.46583457329523,41.41169679449414,-7.202033987623793,61.217290601874055
0.400,11.0,44.054546176403797,-78.681892654659336,-48.2,177.6,78.5,177.6,6847.2,6847,97.5,0,1,1,0,1,1,0,0,0,100,1,1.186,26.0,0.0,0.066,66.767,66.0,0.0,26.0,26.0,26.0,26.0,1.56,-0.07,0.16,380.9,-4.82,-1.00,-2.97,0.31,-732.42,681.42,5.7,0.00,0.00,0.00,0.00,0.01,-7.49,-7.49,-0.72,3.67,1.45,6.17,26.70,4.53,-0.44,-56.92,100.0,0,0,74.20,0,0,0.0,0,0,0,0,4974,0,30.00,3,97.5,1,0,0.0,0.0,0.0,0.0,0,0,0.423,0.423,71.271,22.789,1,110.00,435.8,8750,0.0,0.0,110.0,110.0,433.0,0.00,0,0,1,166.7,65.6,65.6,76.5,76.5,34.0,10.64,128.41,-1.3,-24.0,4,-300.640,59.2,100.0,15.0,35.9,16.2,41.6,0,1,0.0,0.00,0.00,0.00,0.00,1253,7740,852,7191,322.0,303.9,352.8,336.0,24.10,22.80,25.02,24.24,325.0,325.0,355.0,355.0,99.95,100.00,99.92,99.96,3.62,3.45,12.51,12.00,-0.1,-0.1,-1.0,-1.8,76.6,68.5,76.1,71.2,88.9,74.7,88.5,81.7,84.9,71.7,86.2,79.3,82.3,70.1,85.1,78.3,3.04,-3.03,0.12,0.05,0.00,79.82,85.09,72.31,76.10,356.7,7.7,1.569745202254175,89.66532601948688,43.5723069907813,-90.02542769041696,10.803050412412105
0.450,12.4,44.054535744273167,-78.681887438594032,-83.0,-26.9,30.3,132.4,6848.5,6849,97.0,0,1,1,0,1,1,0,0,0,100,1,1.186,26.0,0.0,0.075,66.767,66.0,0.0,26.0,26.0,26.0,26.0,1.50,-0.06,0.15,381.9,-4.37,-0.95,-2.27,-0.89,-731.84,680.26,5.7,0.00,0.00,0.00,0.00,0.01,-7.49,-7.49,-0.51,1.47,1.30,-10.78,26.46,4.96,-0.41,-44.00,100.0,0,0,73.47,0,0,0.0,0,0,0,0,4925,0,30.00,3,97.0,0,0,0.0,0.0,0.0,0.0,0,0,0.471,0.471,71.271,22.789,0,110.00,435.8,8750,0.0,0.0,110.0,110.0,433.0,0.00,0,0,1,333.3,74.4,74.4,69.2,69.2,34.0,0.00,104.79,-5.9,-26.9,4,-300.690,102.7,100.0,10.8,34.6,17.7,48.2,0,1,0.0,0.00,0.00,0.00,0.00,0,5698,2598,7611,325.0,308.8,348.4,334.4,24.10,22.80,25.02,24.24,325.0,325.0,355.0,355.0,99.95,100.00,99.92,99.96,0.00,2.59,13.14,12.71,0.0,-0.0,-0.9,-1.7,76.7,68.5,76.1,71.3,88.8,74.7,88.5,82.0,84.9,71.7,86.2,79.6,82.2,70.2,85.2,78.6,5.55,-5.68,0.10,0.03,0.00,79.83,84.14,71.99,74.94,356.7,7.7,1.508674915281619,82.46329180425353,42.49200183573535,-61.21729088638588,21.606103100919043
0.500,13.7,44.054525581939018,-78.681882042664398,-42.6,-158.8,147.3,-109.9,6849.8,6850,96.5,0,1,1,0,1,1,0,0,0,100,1,1.186,26.0,0.0,0.087,66.767,66.0,0.0,26.0,26.0,26.0,26.0,1.22,-0.05,-0.07,385.7,-3.67,-0.21,-1.10,-0.80,-731.24,679.13,5.7,0.00,0.00,0.00,0.00,0.01,-7.49,-7.49,-0.56,-3.57,0.61,-15.01,26.29,5.16,-0.36,-27.36,100.0,0,0,72.68,0,0,0.0,0,0,0,0,4872,0,30.00,3,96.5,1,0,0.0,0.0,0.0,0.0,0,0,0.519,0.519,71.271,22.789,1,110.00,435.8,8750,0.0,0.0,110.0,110.0,433.0,0.00,0,0,1,333.3,80.4,80.4,65.8,65.8,34.0,0.00,70.30,-9.6,-14.0,4,-300.740,135.3,100.0,8.7,26.6,25.1,42.7,0,1,0.0,0.00,0.00,0.00,0.00,0,4217,3471,4681,325.0,312.6,345.0,342.8,24.11,22.80,25.02,24.25,325.0,325.0,355.0,355.0,99.95,100.00,99.92,99.96,0.00,1.90,12.84,12.57,0.0,0.0,-0.9,-2.1,76.7,68.5,76.2,71.3,88.7,74.8,88.6,82.2,84.8,71.7,86.3,79.8,82.2,70.2,85.2,78.8,7.50,-7.85,0.08,0.05,0.00,79.83,83.08,71.84,73.52,356.7,7.7,1.2230290266383703,83.5435969308483,45.732917300873204,54.01525632973815,75.62136028419289
0.550,15.1,44.054514880011908,-78.681876017209632,103.2,-72.0,23.3,-190.7,6851.2,6851,96.0,0,1,1,0,1,1,0,0,0,100,1,1.186,26.0,0.0,0.087,66.767,66.0,0.0,26.0,26.0,26.0,26.0,1.01,-0.03,-0.04,387.2,-3.33,-1.40,-1.86,-1.34,-730.57,677.94,5.7,0.00,0.00,0.00,0.00,0.01,-7.49,-7.49,-0.82,-4.77,0.13,-1.70,26.17,5.08,-0.37,-12.99,100.0,0,0,72.06,0,0,0.0,0,0,0,0,4831,0,30.00,3,96.0,0,0,0.0,0.0,0.0,0.0,0,0,0.570,0.570,71.271,22.789,0,110.00,435.8,8750,0.0,0.0,110.0,110.0,433.0,0.00,0,0,1,333.3,74.9,74.9,75.9,75.9,34.0,24.74,65.02,-6.8,-6.7,4,-300.790,156.5,100.0,13.8,23.0,26.2,33.2,0,1,0.0,0.00,0.00,0.00,0.00,2504,4722,2831,2579,318.2,312.1,347.7,347.9,24.11,22.81,25.03,24.25,325.0,325.0,355.0,355.0,99.95,100.00,99.92,99.96,1.56,1.08,11.76,11.71,-0.1,-0.0,-1.3,-2.5,76.7,68.5,76.2,71.3,88.7,74.7,88.7,82.3,84.8,71.7,86.4,79.9,82.1,70.2,85.3,78.9,8.73,-9.30,0.09,0.05,0.00,80.92,82.18,72.00,72.13,356.7,7.7,1.011236866416568,87.86481743722734,50.05413786415464,-18.005085822595106,25.207119525707142
0.600,16.4,44.054503638491838,-78.681869542094063,67.1,98.2,-121.1,-89.4,6852.5,6853,95.6,0,1,1,0,1,1,0,0,0,100,1,1.186,26.0,0.0,0.099,66.767,66.0,0.0,26.0,26.0,26.0,26.0,1.01,-0.13,0.08,385.1,-4.13,-0.79,-2.51,-0.56,-729.85,676.69,5.7,0.00,0.00,0.00,0.00,0.01,-7.49,-7.49,-0.92,1.04,0.38,5.69,26.11,4.73,-0.41,2.41,100.0,0,0,71.91,0,0,0.0,0,0,0,0,4820,0,30.00,3,95.6,1,0,0.0,0.0,0.0,0.0,0,0,0.624,0.624,71.271,22.789,1,110.00,435.8,8750,0.0,0.0,110.0,110.0,433.0,0.00,0,0,1,166.7,68.8,68.8,81.2,81.2,34.0,13.60,49.85,-4.5,-18.6,4,-300.840,163.0,100.0,17.2,27.9,20.2,28.7,0,1,0.0,0.00,0.00,0.00,0.00,2921,5851,2100,5825,317.3,309.0,349.5,340.1,24.11,22.81,25.03,24.25,325.0,325.0,355.0,355.0,99.95,100.00,99.92,99.96,0.95,0.54,10.11,10.36,-0.1,0.0,-2.3,-2.0,76.7,68.5,76.2,71.3,88.6,74.7,88.7,82.5,84.7,71.7,86.4,80.0,82.1,70.2,85.3,79.0,9.19,-9.80,0.11,0.07,0.00,81.60,81.50,71.91,71.91,356.7,7.7,1.0214695296483394,81.74308834858878,48.25362925344392,-100.82847895636448,-21.60610366994277
0.650,17.7,44.054494465411459,-78.681863966300114,-17.1,70.6,6.6,68.2,6853.8,6854,95.1,0,1,1,0,1,1,0,0,0,100,1,1.186,26.0,0.0,0.114,66.767,66.0,0.0,26.0,26.0,26.0,26.0,1.06,-0.13,0.17,383.8,-3.83,-1.95,-2.67,-0.10,-729.23,675.67,5.7,0.00,0.00,0.00,0.00,0.01,-7.49,-7.49,-0.81,3.20,0.52,0.73,26.10,4.10,-0.41,17.98,100.0,0,0,72.13,0,0,0.0,0,0,0,0,4835,0,30.00,3,95.1,0,0,0.0,0.0,0.0,0.0,1,0,0.669,0.669,71.271,22.789,0,110.00,435.8,8750,0.0,0.0,110.0,110.0,433.0,0.00,0,0,1,166.7,69.1,69.1,74.3,74.3,34.0,1.70,48.42,-5.9,-18.4,4,-300.890,161.0,100.0,16.3,31.5,20.5,32.1,0,1,0.0,0.00,0.00,0.00,0.00,1275,6035,2576,5613,321.5,307.5,348.2,339.8,24.11,22.81,25.03,24.25,325.0,325.0,355.0,355.0,99.95,100.00,99.92,99.96,0.59,0.32,8.00,8.39,-0.1,0.0,-2.6,-1.2,76.7,68.6,76.2,71.3,88.6,74.7,88.7,82.6,84.7,71.7,86.4,80.1,82.0,70.2,85.3,79.1,9.10,-9.69,0.10,0.06,0.00,82.20,80.75,72.29,71.97,356.7,7.7,1.081387996974259,77.7819695415909,47.89352749716036,-3.601016709300211,32.409154082354874
0.700,19.0,44.054484213145152,-78.681857581116716,-40.3,-63.6,25.4,61.6,6855.1,6855,94.7,0,1,1,0,1,1,0,0,0,100,1,1.186,26.0,0.0,0.129,66.767,66.0,0.0,26.0,26.0,26.0,26.0,0.70,-0.19,0.08,384.7,-2.95,-1.24,-1.83,-0.92,-728.52,674.53,5.7,0.00,0.00,0.00,0.00,0.01,-7.49,-7.49,-0.70,1.18,0.32,-5.89,26.12,3.04,-0.33,39.19,100.0,0,0,72.61,0,0,0.0,0,0,0,0,4867,0,30.00,3,94.7,1,0,0.0,0.0,0.0,0.0,1,0,0.720,0.720,71.271,22.789,1,110.00,435.8,8750,0.0,0.0,110.0,110.0,433.0,0.00,0,0,1,333.3,72.5,72.5,77.0,77.0,34.0,-21.03,-15.55,19.9,20.7,4,-300.940,159.1,100.0,14.3,28.3,21.8,35.2,0,1,0.0,0.00,0.00,0.00,0.00,2641,4373,3174,5020,318.0,313.0,347.0,341.6,24.11,22.81,25.04,24.26,325.0,325.0,355.0,355.0,99.95,100.00,99.92,99.96,-0.35,-0.42,4.84,5.24,-0.1,0.1,-1.8,-0.8,76.7,68.6,76.2,71.4,88.5,74.7,88.7,82.7,84.6,71.7,86.4,80.2,82.0,70.1,85.3,79.2,8.98,-9.59,0.11,0.06,0.00,82.93,79.47,73.86,71.36,356.7,7.7,0.7297259759663212,81.38298667765876,51.494544661679406,7.202034556647732,21.60610366994277
0.750,20.3,44.054474140743160,-78.681851106001147,50.1,-67.0,83.6,-47.9,6856.4,6856,94.3,0,1,1,0,1,1,0,0,0,100,1,1.186,26.0,0.0,0.129,66.767,66.0,0.0,26.0,26.0,26.0,26.0,-0.18,-0.23,0.03,384.7,-3.57,-0.83,-1.48,-2.50,-727.80,673.41,5.7,0.00,0.00,0.00,0.00,0.01,-7.49,-7.49,-0.72,-0.71,0.02,-6.71,26.12,1.69,-0.32,62.13,100.0,0,0,73.22,0,0,0.0,0,0,0,0,4908,0,30.00,3,94.3,0,0,0.0,0.0,0.0,0.0,1,0,0.771,0.771,71.271,22.789,0,110.00,435.8,8750,0.0,0.0,110.0,110.0,433.0,0.00,0,0,1,333.3,71.2,71.2,79.7,79.7,34.0,-77.74,-56.10,24.6,61.0,4,-300.990,157.1,100.0,16.8,24.9,26.0,32.8,0,1,0.0,0.00,0.00,0.00,0.00,4367,3788,2951,3700,313.3,314.7,347.4,345.0,24.12,22.81,25.04,24.26,325.0,325.0,355.0,355.0,99.95,100.00,99.92,99.96,-1.92,-1.89,1.00,1.29,-0.2,0.1,-0.6,-0.2,76.7,68.6,76.2,71.4,88.5,74.7,88.7,82.7,84.6,71.6,86.4,80.2,81.9,70.1,85.3,79.2,8.88,-9.50,0.09,0.06,0.00,83.53,78.08,75.62,70.81,356.7,7.7,0.293598365118064,78.50217299725567,50.05413786415464,3.601016709300211,-25.20712009473087
0.800,21.6,44.054464607934136,-78.681845080546381,75.7,-108.0,76.3,-118.0,6857.8,6858,94.0,0,1,1,0,1,1,0,0,0,100,1,1.186,26.0,0.0,0.144,66.767,66.0,0.0,26.0,26.0,26.0,26.0,-1.13,-0.22,-0.07,386.6,-3.03,-1.67,-0.21,-2.25,-727.13,672.35,5.7,0.00,0.00,0.00,0.00,0.01,-7.49,-7.49,-0.73,-1.38,-0.69,-19.62,26.09,0.56,-0.32,71.71,100.0,0,0,73.12,0,0,0.0,0,0,0,0,4901,0,30.00,3,94.0,1,0,0.0,0.0,0.0,0.0,1,0,0.819,0.819,71.271,22.789,1,110.00,435.8,8750,0.0,0.0,110.0,110.0,433.0,0.00,0,0,1,333.3,74.3,74.3,79.1,79.1,34.0,-67.65,-21.10,-87.0,-23.4,4,-301.040,152.7,100.0,20.6,19.5,29.8,26.9,0,1,0.0,0.00,0.00,0.00,0.00,4833,1897,4921,2030,312.5,319.7,342.4,349.6,24.12,22.81,25.04,24.26,325.0,325.0,355.0,355.0,99.95,100.00,99.92,99.96,-3.35,-3.54,-1.84,-1.88,-0.1,0.0,-0.4,-0.1,76.7,68.6,76.3,71.4,88.5,74.7,88.7,82.6,84.6,71.6,86.4,80.2,81.9,70.1,85.3,79.2,8.64,-9.28,0.08,0.08,0.00,83.47,77.13,75.85,70.38,356.7,7.7,1.153342967204465,81.74308834858878,48.97383265220632,39.61118778546677,-82.82339427181675
0.850,22.9,44.054453726142711,-78.681838875227314,38.1,-205.8,202.1,-235.4,6859.0,6859,90.3,0,1,1,0,1,1,0,0,0,100,1,1.186,26.0,0.0,0.159,66.767,66.0,0.0,26.0,26.0,26.0,26.0,-6.34,-2.60,-0.19,390.8,-2.07,-2.21,0.11,-2.64,-726.44,671.14,5.7,0.00,0.00,0.00,0.00,0.01,-7.49,-7.49,-0.62,0.05,-1.61,-12.77,25.00,0.98,-0.39,138.52,100.0,0,0,71.77,0,0,0.0,0,0,0,0,4811,0,30.00,3,90.3,0,0,0.0,0.0,0.0,0.0,1,0,0.873,0.873,71.271,22.789,0,110.00,435.8,8750,0.0,0.0,110.0,110.0,433.0,0.00,0,0,1,166.7,84.1,84.1,73.4,73.4,34.0,-10.87,0.00,-95.3,-2.7,4,-301.090,148.4,100.0,22.5,9.2,39.9,15.2,0,1,0.0,0.00,0.00,0.00,0.00,4618,0,7761,881,312.7,325.0,335.4,352.6,24.12,22.81,25.05,24.27,325.0,325.0,355.0,355.0,99.95,100.00,99.92,99.96,0.08,0.00,-4.37,-4.97,0.0,0.0,-0.2,4.3,76.8,68.6,76.3,71.4,88.5,74.6,88.7,82.6,84.6,71.6,86.4,80.1,81.9,70.1,85.3,79.1,8.36,-9.04,0.06,0.11,0.00,84.27,76.30,75.82,67.73,356.7,7.7,6.855049233958863,82.46329177580235,41.771798436972965,-36.010170791655156,-165.64678626753866
0.900,24.1,44.054444013469364,-78.681834648415759,-26.7,-24.7,39.1,-128.9,6860.2,6860,88.3,0,1,1,0,1,1,0,0,0,100,1,1.186,26.0,0.0,0.177,66.767,66.0,0.0,26.0,26.0,26.0,26.0,-1.67,-0.41,-0.49,399.1,-1.69,-2.03,0.02,-2.95,-725.97,670.06,5.7,0.00,0.00,0.00,0.00,0.02,-7.49,-7.49,-0.59,-7.13,-1.95,1.89,24.49,-0.79,-0.31,168.87,100.0,0,0,70.61,0,0,0.0,0,0,0,0,4734,0,30.00,3,88.3,1,0,0.0,0.0,0.0,0.0,1,0,0.921,0.921,71.271,22.789,1,110.00,435.8,8750,0.0,0.0,110.0,110.0,433.0,0.00,0,0,1,333.3,93.8,93.8,82.9,82.9,34.0,-29.57,0.00,17.7,0.0,4,-301.140,152.3,100.0,21.2,8.0,41.8,8.7,0,1,0.0,0.00,0.00,0.00,0.00,3517,0,5549,0,315.8,325.0,340.6,355.0,24.13,22.81,25.05,24.27,325.0,325.0,355.0,355.0,99.95,100.00,99.92,99.96,-0.48,0.00,-9.80,0.00,0.1,0.0,-1.4,0.0,76.8,68.6,76.3,71.4,88.5,74.6,88.8,82.5,84.5,71.5,86.5,80.1,81.9,70.0,85.4,79.1,8.53,-9.23,0.05,0.11,0.00,83.33,76.30,74.61,66.62,356.7,7.7,1.788043623628909,78.14207126942327,32.40915402545245,-10.803051265947659,-158.4447522799148
0.950,25.3,44.054434210863860,-78.681830781332849,-96.2,-9.5,-151.9,31.7,6861.4,6861,86.8,0,1,1,0,1,1,0,0,0,100,1,1.186,26.0,0.0,0.177,66.767,66.0,0.0,26.0,26.0,26.0,26.0,-11.61,-2.07,-2.45,398.6,-2.04,-1.36,-0.18,-2.15,-725.54,668.97,5.7,0.00,0.00,0.00,0.00,0.02,-7.49,-7.49,-0.61,7.13,-1.39,47.74,23.92,-2.37,0.07,104.70,100.0,0,0,69.42,0,0,0.0,0,0,0,0,4654,0,30.00,3,86.8,0,0,0.0,0.0,0.0,0.0,1,0,0.969,0.969,71.271,22.789,0,110.00,435.8,8750,0.0,0.0,110.0,110.0,433.0,0.00,0,0,1,333.3,93.1,93.1,85.4,85.4,34.0,10.58,0.00,14.8,2.4,4,-301.190,156.2,100.0,16.4,7.5,34.2,10.3,0,1,0.0,0.00,0.00,0.00,0.00,3600,0,4701,1428,315.5,325.0,343.0,351.9,24.13,22.81,25.05,24.27,325.0,325.0,355.0,355.0,99.95,100.00,99.92,99.96,-8.08,0.00,-12.77,-14.71,2.4,0.0,0.5,6.4,76.8,68.6,76.3,71.4,88.5,74.5,89.0,82.5,84.6,71.5,86.7,80.0,81.9,70.0,85.6,79.0,8.82,-9.51,0.08,0.10,0.00,79.60,76.30,72.97,65.87,356.7,7.7,12.044895184267897,81.38298664920758,25.927323208981484,64.81830788019792,-133.23763389225493
1.000,26.5,44.054423688801073,-78.681828173300190,-197.9,495.2,-55.9,1280.5,6862.6,6863,84.8,0,1,1,0,1,1,0,0,0,100,1,1.186,26.0,0.0,0.195,66.767,66.0,0.0,26.0,26.0,26.0,26.0,-1.52,-0.22,1.11,370.6,-5.67,0.88,-3.75,1.15,-725.25,667.80,5.7,0.00,0.00,0.00,0.00,0.02,-7.49,-7.49,0.22,9.25,2.12,25.45,23.53,0.11,0.55,-17.72,100.0,0,0,66.59,0,0,0.0,0,0,0,0,4902,0,30.00,0,84.8,1,0,0.0,0.0,0.0,0.0,1,0,1.020,1.020,71.271,22.789,1,110.00,435.8,8750,0.0,0.0,110.0,110.0,433.0,0.00,0,0,1,333.3,85.2,85.2,37.3,37.3,34.0,0.00,26.03,-38.9,-286.3,4,-301.240,150.5,100.0,6.5,32.3,31.4,74.3,0,1,50.0,0.00,0.00,0.00,0.00,0,7926,3639,14680,325.0,303.6,345.8,317.0,24.13,22.81,25.06,24.27,325.0,325.0,355.0,355.0,99.95,100.00,99.92,99.96,0.00,-10.64,-0.27,-1.04,0.0,-0.9,0.1,-0.1,76.8,68.6,76.3,71.5,88.4,74.6,89.0,82.5,84.5,71.6,86.7,80.1,81.9,70.1,85.6,79.1,8.67,-9.07,0.08,-0.03,0.00,76.99,71.71,65.85,67.33,356.7,7.7,1.8949670181826386,84.62390205744306,19.085390636226958,32.4091540823548,-82.82339427181668
1.050,27.7,44.054413076806121,-78.681826014928347,50.0,-65.9,315.2,-21.9,6863.8,6864,84.5,0,1,1,0,1,1,0,0,0,100,1,1.186,26.0,0.0,0.213,66.767,66.0,0.0,26.0,26.0,26.0,26.0,0.41,-0.08,0.56,368.6,-3.85,-0.02,-2.95,-0.15,-725.01,666.62,5.7,0.00,0.00,0.00,0.00,0.02,-7.49,-7.49,0.12,-13.09,0.86,-51.60,23.47,0.35,0.06,3.86,100.0,0,0,65.61,0,0,0.0,0,0,0,0,6025,0,30.00,0,84.5,0,0,0.0,0.0,0.0,0.0,1,0,1.071,1.071,71.271,22.789,0,110.00,435.8,8750,0.0,0.0,110.0,110.0,433.0,0.00,0,0,1,333.3,82.4,82.4,36.1,36.1,34.0,0.00,-1.18,84.6,186.0,4,-301.290,126.3,100.0,9.0,29.0,47.2,73.2,0,1,30.0,0.00,0.00,0.00,0.00,0,3224,6170,9417,325.0,315.8,339.3,329.1,24.13,22.81,25.06,24.28,325.0,325.0,355.0,355.0,99.95,100.00,99.92,99.96,0.00,-6.16,1.64,1.46,0.0,-0.0,-0.1,-0.0,76.8,68.6,76.4,71.5,88.4,74.8,88.9,82.6,84.5,71.7,86.7,80.1,81.8,70.3,85.6,79.1,7.42,-7.76,0.04,-0.02,0.00,76.99,70.90,65.58,65.63,356.7,7.7,0.6986415389883427,84.62390205744306,17.644983781799816,-28.808136804030937,-25.20711895668356
1.100,28.9,44.054402554743334,-78.681823766624333,474.0,-221.7,120.7,-777.6,6865.0,6865,84.3,0,1,1,0,1,1,0,0,0,100,1,1.186,26.0,0.0,0.213,66.767,66.0,0.0,26.0,26.0,26.0,26.0,-0.72,-0.12,0.23,376.6,-1.92,-2.91,-0.26,-2.57,-724.76,665.45,5.7,0.00,0.00,0.00,0.00,0.02,-7.49,-7.49,-0.83,-19.62,-1.92,-42.02,23.41,0.18,-0.54,28.95,100.0,0,0,65.45,0,0,0.0,0,0,0,0,6171,0,30.00,0,84.3,1,0,0.0,0.0,0.0,0.0,1,0,1.121,1.121,71.271,22.789,1,110.00,435.8,8750,0.0,0.0,110.0,110.0,433.0,0.00,0,0,1,166.7,68.4,68.4,68.6,68.6,34.0,-168.11,0.00,-9.0,0.0,4,-301.340,82.4,100.0,32.7,17.9,53.2,34.3,0,1,0.0,0.00,0.00,0.00,0.00,8540,0,7388,0,302.6,325.0,336.0,355.0,24.13,22.82,25.06,24.28,325.0,325.0,355.0,355.0,99.95,100.00,99.92,99.96,-2.79,0.00,-0.03,0.00,-0.2,0.0,-0.1,0.0,76.8,68.6,76.4,71.5,88.4,74.8,88.9,82.5,84.5,71.8,86.6,80.1,81.9,70.3,85.5,79.1,5.04,-5.30,0.04,0.06,0.00,72.72,70.04,66.36,64.54,356.7,7.7,0.7653103945458992,81.74308837703997,16.564678740558602,-28.808136804030937,-25.207118956683576
1.150,30.0,44.054392662205665,-78.681821878048950,209.7,-138.1,-234.5,-441.4,6866.1,6866,84.2,0,1,1,0,1,1,0,0,0,100,1,1.186,26.0,0.0,0.234,66.767,66.0,0.0,26.0,26.0,26.0,26.0,-0.74,-0.03,-0.07,393.7,-0.86,-5.10,1.19,-3.44,-724.55,664.35,5.7,0.00,0.00,0.00,0.00,0.02,-7.49,-7.49,-1.55,-12.07,-2.54,10.36,23.37,-0.07,-0.88,35.92,100.0,0,0,67.36,0,0,0.0,0,0,0,0,5789,0,30.00,2,84.2,0,0,0.0,0.0,0.0,0.0,0,0,1.170,1.170,71.271,22.789,0,110.00,435.8,8750,0.0,0.0,110.0,110.0,433.0,0.00,0,0,1,166.7,67.9,67.9,101.1,101.1,34.0,-153.50,0.00,-57.9,0.0,4,-301.390,38.1,100.0,43.2,11.0,41.5,12.3,0,1,0.0,0.00,0.00,0.00,0.00,9425,0,3634,0,300.5,325.0,345.4,355.0,24.14,22.82,25.07,24.28,325.0,325.0,355.0,355.0,99.95,100.00,99.92,99.96,-1.16,0.00,-2.12,0.00,-0.0,0.0,-0.2,0.0,76.9,68.6,76.4,71.5,88.4,74.7,88.9,82.5,84.5,71.7,86.6,80.0,81.9,70.2,85.5,79.0,2.56,-2.63,0.07,0.10,0.00,73.00,70.04,66.55,68.17,356.7,7.7,0.7439085965358916,81.74308837703997,15.124271886131458,3.601016993811754,-21.606103100918972
1.200,31.2,44.054382140142877,-78.681819989473581,-199.0,9.7,-589.0,-78.1,6867.3,6867,84.1,0,1,1,0,1,1,0,0,0,100,1,1.186,26.0,0.0,0.258,66.767,66.0,0.0,26.0,26.0,26.0,26.0,-0.07,-0.02,-0.60,403.8,-2.33,-3.06,0.09,-2.19,-724.34,663.18,5.7,0.00,0.00,0.00,0.00,0.02,-7.49,-7.49,-1.75,1.19,-1.14,39.91,23.33,-0.66,-0.81,36.73,100.0,0,0,65.95,0,0,0.0,0,0,0,0,5668,0,30.00,2,84.1,1,0,0.0,0.0,0.0,0.0,0,0,1.221,1.221,71.271,22.789,1,110.00,435.8,8750,0.0,0.0,110.0,110.0,433.0,0.00,0,0,1,333.3,72.2,72.2,120.8,120.8,34.0,-29.62,8.92,0.0,0.0,4,-301.440,-5.5,100.0,33.2,11.5,12.1,8.4,0,1,0.0,0.00,0.00,0.00,0.00,4930,2061,0,0,312.1,319.9,355.0,355.0,24.14,22.82,25.07,24.29,325.0,325.0,355.0,355.0,99.95,100.00,99.92,99.96,-0.16,0.05,0.00,0.00,-0.1,-0.1,0.0,0.0,76.9,68.6,76.4,71.5,88.4,74.7,88.8,82.4,84.5,71.7,86.6,80.0,81.8,70.2,85.5,79.0,0.05,-0.04,0.11,0.10,0.00,73.16,69.89,65.95,65.95,356.7,7.7,0.604400529450463,82.10319007642114,14.404068430466705,3.601016993811754,-7.202034556647536
1.250,32.4,44.054372157673050,-78.681818280762528,-461.9,83.6,-168.0,-30.2,6868.5,6868,84.0,0,1,1,0,1,1,0,0,0,100,1,1.186,26.0,0.0,0.258,66.767,66.0,0.0,26.0,26.0,26.0,26.0,-0.24,-0.01,-0.70,409.1,-3.03,-2.15,-2.61,-0.04,-724.15,662.07,5.7,0.00,0.00,0.00,0.00,0.02,-7.49,-7.49,-1.41,10.48,0.66,31.37,23.30,-1.38,-0.31,32.99,100.0,0,0,64.31,0,0,0.0,0,0,0,0,5527,0,30.00,2,84.0,0,0,0.0,0.0,0.0,0.0,0,0,1.269,1.269,71.271,22.789,0,110.00,435.8,8750,0.0,0.0,110.0,110.0,433.0,0.00,0,0,1,166.7,86.5,86.5,114.8,114.8,34.0,0.00,41.54,0.0,-13.5,4,-301.490,-50.5,100.0,10.1,15.7,3.7,6.9,0,1,0.0,0.00,0.00,0.00,0.00,0,4049,0,4101,325.0,314.2,355.0,344.9,24.14,22.82,25.07,24.29,325.0,325.0,355.0,355.0,99.95,100.00,99.92,99.96,0.00,0.62,0.00,-5.51,0.0,-0.1,0.0,0.2,76.9,68.6,76.5,71.6,88.3,74.6,88.8,82.4,84.4,71.6,86.5,80.0,81.8,70.1,85.4,78.9,-2.59,2.54,0.13,0.11,0.00,73.51,70.35,64.31,64.31,356.7,7.7,0.7400675644831355,82.10319007642114,14.404068430466705,21.606102531895317,0.0
1.300,33.5,44.054361635610263,-78.681816392187159,-62.9,6.2,77.5,509.1,6869.6,6870,83.8,0,1,1,0,1,1,0,0,0,100,1,1.186,26.0,0.0,0.279,66.767,66.0,0.0,26.0,26.0,26.0,26.0,-0.72,-0.31,-0.26,396.4,-2.99,-1.24,-2.39,0.00,-723.94,660.90,5.7,0.00,0.00,0.00,0.00,0.02,-7.49,-7.49,-0.89,8.47,0.95,-16.80,23.20,-1.75,0.11,16.15,100.0,0,0,63.98,0,0,0.0,0,0,0,0,5499,0,30.00,2,83.8,1,0,0.0,0.0,0.0,0.0,0,0,1.320,1.320,71.271,22.789,1,110.00,435.8,8750,0.0,0.0,110.0,110.0,433.0,0.00,0,0,1,333.3,90.8,90.8,85.5,85.5,34.0,0.00,41.21,-1.2,-27.6,4,-301.540,-97.0,100.0,7.0,16.0,7.6,32.3,0,1,0.0,0.00,0.00,0.00,0.00,0,2765,3448,5483,325.0,317.7,346.1,340.3,24.14,22.82,25.07,24.29,325.0,325.0,355.0,355.0,99.95,100.00,99.92,99.96,0.00,2.03,-5.26,-5.13,0.0,-0.1,-3.3,-1.7,76.9,68.6,76.5,71.6,88.2,74.6,88.7,82.4,84.4,71.6,86.5,80.0,81.7,70.1,85.4,79.0,-5.46,5.21,0.12,0.05,0.00,73.51,70.64,64.10,63.85,356.7,7.7,0.8258934555982387,84.26380032961067,14.404068430466705,-7.202033987623793,-14.404068544271471
1.350,34.7,44.054351113547476,-78.681814683476105,243.4,-124.8,598.7,90.6,6870.8,6871,83.3,0,1,1,0,1,1,0,0,0,100,1,1.186,26.0,0.0,0.297,66.767,66.0,0.0,26.0,26.0,26.0,26.0,-0.44,-0.18,0.15,382.4,-1.40,-3.11,-1.44,-1.89,-723.75,659.73,5.7,0.00,0.00,0.00,0.00,0.02,-7.49,-7.49,-0.80,-3.54,-0.72,-33.77,23.09,-1.50,0.12,-12.92,100.0,0,0,64.42,0,0,0.0,0,0,0,0,5537,0,30.00,2,83.3,0,0,0.0,0.0,0.0,0.0,0,0,1.371,1.371,71.271,22.789,0,110.00,435.8,8750,0.0,0.0,110.0,110.0,433.0,0.00,0,0,1,166.7,80.8,80.8,68.3,68.3,34.0,78.46,8.10,-139.3,-42.8,4,-301.590,-113.3,100.0,19.1,9.8,37.5,36.8,0,1,0.0,0.00,0.00,0.00,0.00,4856,842,7321,2942,312.6,323.1,336.4,346.9,24.15,22.82,25.08,24.29,325.0,325.0,355.0,355.0,99.95,100.00,99.92,99.96,2.69,2.64,-3.06,-2.71,0.1,-0.4,-0.1,-1.0,76.9,68.6,76.5,71.6,88.2,74.6,88.7,82.4,84.3,71.6,86.5,80.0,81.7,70.1,85.4,79.0,-6.69,6.43,0.06,0.05,0.00,70.85,71.08,64.09,64.75,356.7,7.7,0.4984977432245807,81.38298667765876,12.963661576039557,-32.40915379784283,-18.005085538083385
1.400,35.8,44.054341310941965,-78.681813154629381,379.7,60.2,306.0,-133.4,6871.9,6872,83.0,0,1,1,0,1,1,0,0,0,100,1,1.186,26.0,0.0,0.297,66.767,66.0,0.0,26.0,26.0,26.0,26.0,0.20,-0.24,0.71,371.0,-1.92,-4.49,-1.32,-3.29,-723.58,658.64,5.6,0.00,0.00,0.00,0.00,0.02,-7.49,-7.49,-1.12,-6.98,-1.11,17.75,23.02,-0.95,-0.19,-38.30,100.0,0,0,64.25,0,0,0.0,0,0,0,0,5522,0,30.00,2,83.0,1,0,0.0,0.0,0.0,0.0,0,0,1.419,1.419,71.271,22.789,1,110.00,435.8,8750,0.0,0.0,110.0,110.0,433.0,0.00,0,0,1,166.7,61.1,61.1,64.3,64.3,34.0,131.40,51.02,-118.0,-5.3,4,-301.640,-105.5,100.0,38.1,12.8,52.8,30.2,0,1,0.0,0.00,0.00,0.00,0.00,8591,3251,7130,2859,302.5,316.5,336.4,347.4,24.15,22.82,25.08,24.30,325.0,325.0,355.0,355.0,99.95,100.00,99.92,99.96,1.57,1.65,-1.02,-0.67,-0.0,-0.2,-0.2,-0.6,76.9,68.6,76.5,71.6,88.2,74.6,88.7,82.4,84.3,71.6,86.5,80.0,81.7,70.1,85.4,79.0,-6.26,6.10,0.03,0.07,0.00,69.14,72.54,62.84,65.66,356.7,7.7,0.7756932383358772,81.02288494982639,12.603559876658366,18.00508525357145,10.803051550459504
1.450,37.0,44.054330878811342,-78.681811535850485,-148.8,367.4,-407.1,133.0,6873.1,6873,82.7,0,1,1,0,1,1,0,0,0,100,1,1.186,26.0,0.0,0.333,66.767,66.0,0.0,26.0,26.0,26.0,26.0,0.74,-0.12,0.26,375.1,-2.30,-2.91,-1.30,-0.75,-723.40,657.48,5.6,0.00,0.00,0.00,0.00,0.02,-7.49,-7.49,-1.34,-2.01,0.70,36.97,22.95,-0.33,-0.49,-46.39,100.0,0,0,64.27,0,0,0.0,0,0,0,0,5524,0,30.00,2,82.7,0,0,0.0,0.0,0.0,0.0,0,0,1.470,1.470,71.271,22.789,0,110.00,435.8,8750,0.0,0.0,110.0,110.0,433.0,0.00,0,0,1,166.7,58.1,58.1,73.9,73.9,34.0,20.24,106.88,9.9,81.8,4,-301.690,-87.8,100.0,30.7,31.1,32.4,36.8,0,1,0.0,0.00,0.00,0.00,0.00,3226,6846,1362,5722,316.2,306.5,351.4,340.0,24.15,22.82,25.08,24.30,325.0,325.0,355.0,355.0,99.95,100.00,99.92,99.96,0.83,0.96,1.04,1.01,-0.0,-0.0,-0.3,-0.5,77.0,68.6,76.5,71.6,88.2,74.5,88.7,82.3,84.3,71.5,86.4,79.9,81.7,70.1,85.3,78.9,-5.29,5.10,0.09,0.06,0.00,68.36,72.81,62.63,65.91,356.7,7.7,0.7934733769950949,83.18349520301591,14.043966731085508,-7.202034272135762,28.808137088542853
1.500,38.1,44.054320536612870,-78.681809647275117,-296.8,144.1,-428.6,78.2,6874.2,6874,82.4,0,1,1,0,1,1,0,0,0,100,1,1.186,26.0,0.0,0.354,66.767,66.0,0.0,26.0,26.0,26.0,26.0,1.01,-0.09,-0.08,384.3,-3.96,-2.22,-3.24,-0.16,-723.19,656.33,5.6,0.00,0.00,0.00,0.00,0.02,-7.49,-7.49,-1.24,3.26,1.71,1.08,22.89,0.13,-0.52,-46.49,100.0,0,0,64.87,0,0,0.0,0,0,0,0,5575,0,30.00,2,82.4,1,0,0.0,0.0,0.0,0.0,0,0,1.521,1.521,71.271,22.789,1,110.00,435.8,8750,0.0,0.0,110.0,110.0,433.0,0.00,0,0,1,166.7,67.0,67.0,81.1,81.1,34.0,0.00,135.12,2.3,114.9,4,-301.740,-84.3,100.0,15.9,38.3,11.0,40.7,0,1,13.1,0.00,0.00,0.00,0.00,0,6844,394,6021,325.0,305.9,354.2,339.1,24.15,22.82,25.09,24.30,325.0,325.0,355.0,355.0,99.95,100.00,99.92,99.96,0.00,2.01,2.03,2.75,0.0,-0.1,0.5,-0.4,77.0,68.6,76.5,71.6,88.1,74.6,88.6,82.3,84.2,71.6,86.4,79.9,81.6,70.1,85.3,78.9,-5.01,4.77,0.12,0.05,0.00,68.42,72.51,63.91,65.83,356.7,7.7,1.017152889196113,80.30268152261282,15.484373585512651,-32.40915379784283,32.40915408235484
1.550,39.3,44.054310823939531,-78.681807668767576,-100.0,-127.1,49.6,-30.1,6875.4,6875,82.5,0,1,1,0,1,1,0,0,0,100,1,1.186,26.0,0.0,0.354,66.767,66.0,0.0,26.0,26.0,26.0,26.0,1.13,0.23,-0.06,388.0,-2.51,-1.39,-2.92,-0.48,-722.97,655.25,5.6,0.00,0.00,0.00,0.00,0.02,-7.49,-7.49,-1.01,3.83,1.28,-15.92,22.91,0.41,-0.43,-41.43,100.0,0,0,67.72,0,0,0.0,0,0,0,0,5820,0,30.00,2,82.5,0,0,0.0,0.0,0.0,0.0,0,0,1.569,1.569,71.271,22.789,0,110.00,435.8,8750,0.0,0.0,110.0,110.0,433.0,0.00,0,0,1,166.7,75.4,75.4,77.3,77.3,34.0,0.00,74.14,4.9,60.8,4,-301.790,-87.6,100.0,10.8,32.0,13.5,39.2,0,1,42.1,0.00,0.00,0.00,0.00,0,5133,1904,4470,325.0,310.5,350.0,342.9,24.16,22.82,25.09,24.30,325.0,325.0,355.0,355.0,99.95,100.00,99.92,99.96,0.00,3.54,3.69,3.63,0.0,-0.1,7.5,1.5,77.0,68.6,76.6,71.7,88.1,74.6,88.6,82.4,84.2,71.6,86.3,80.0,81.6,70.1,85.2,79.0,-5.17,4.93,0.12,0.05,0.00,68.42,72.00,67.72,67.72,356.7,7.7,1.154729405531876,79.94257982323163,17.28488213932099,21.606102816407144,43.212205063790684
1.600,40.4,44.054300571673217,-78.681805330531404,-19.9,-356.6,60.5,-166.7,6876.5,6877,83.1,0,1,1,0,1,1,0,0,0,100,1,1.186,26.0,0.0,0.354,66.767,66.0,0.0,26.0,26.0,26.0,26.0,1.06,0.46,-0.27,394.1,-1.70,-2.67,-2.66,-1.50,-722.71,654.11,5.6,0.00,0.00,0.00,0.00,0.02,-7.49,-7.49,-0.80,2.55,0.66,-5.25,23.07,0.73,-0.20,-37.83,100.0,0,0,69.33,0,0,0.0,0,0,0,0,5958,0,30.00,2,83.1,1,0,0.0,0.0,0.0,0.0,0,0,1.620,1.620,71.271,22.789,1,110.00,435.8,8750,0.0,0.0,110.0,110.0,433.0,0.00,0,0,1,333.3,87.0,87.0,85.3,85.3,34.0,6.83,12.43,1.7,32.9,4,-301.840,-86.5,100.0,9.9,14.2,16.5,30.9,0,1,56.3,0.00,0.00,0.00,0.00,1172,2022,3602,4600,321.5,319.2,346.0,343.0,24.16,22.82,25.09,24.31,325.0,325.0,355.0,355.0,99.95,100.00,99.92,99.96,4.70,4.48,4.09,4.12,-0.3,-0.3,9.5,4.2,77.0,68.6,76.6,71.7,88.0,74.6,88.6,82.4,84.1,71.6,86.3,80.0,81.5,70.1,85.2,79.0,-5.18,4.97,0.11,0.07,0.00,68.82,72.16,69.33,69.33,356.7,7.7,1.1866338946785568,82.46329180425353,19.80559409189172,3.6010169938118963,39.61118806997867
1.650,41.6,44.054290229474752,-78.681802722498745,-87.7,-16.4,86.0,53.8,6877.7,6878,83.9,0,1,1,0,1,1,0,0,0,100,1,1.186,26.0,0.0,0.396,66.767,66.0,0.0,26.0,26.0,26.0,26.0,1.18,0.51,-0.13,392.1,-2.46,-1.70,-1.82,-1.15,-722.42,652.96,5.6,0.00,0.00,0.00,0.00,0.03,-7.49,-7.49,-0.80,-2.63,0.73,2.89,23.29,0.91,-0.09,-29.97,100.0,0,0,69.02,0,0,0.0,0,0,0,0,5931,0,30.00,2,83.9,0,0,0.0,0.0,0.0,0.0,1,0,1.671,1.671,71.271,22.789,0,110.00,435.8,8750,0.0,0.0,110.0,110.0,433.0,0.00,0,0,1,333.3,88.8,88.8,76.9,76.9,34.0,0.28,20.72,5.7,58.6,4,-301.890,-75.5,100.0,5.5,13.3,20.8,33.6,0,1,44.8,0.00,0.00,0.00,0.00,103,3714,2969,6589,324.9,314.8,347.6,337.5,24.16,22.82,25.10,24.31,325.0,325.0,355.0,355.0,99.95,100.00,99.92,99.96,2.49,4.88,3.96,4.06,-0.6,-0.3,8.0,4.1,77.0,68.7,76.6,71.7,87.9,74.6,88.6,82.4,84.1,71.6,86.3,80.0,81.5,70.1,85.2,79.0,-4.60,4.43,0.10,0.06,0.00,68.90,72.38,69.02,69.02,356.7,7.7,1.2920526305069773,80.30268152261282,21.24600094631886,0.0,39.61118806997863
1.700,42.8,44.054280516801406,-78.681800024533928,9.9,59.9,24.2,71.9,6878.9,6879,84.4,0,1,1,0,1,1,0,0,0,100,1,1.186,26.0,0.0,0.396,66.767,66.0,0.0,26.0,26.0,26.0,26.0,1.07,0.28,-0.16,391.3,-3.05,-1.99,-1.63,-1.09,-722.12,651.88,5.6,0.00,0.00,0.00,0.00,0.03,-7.49,-7.49,-1.03,-6.28,0.96,6.37,23.44,0.86,-0.16,-24.69,100.0,0,0,68.02,0,0,0.0,0,0,0,0,5846,0,30.00,2,84.4,1,0,0.0,0.0,0.0,0.0,1,0,1.719,1.719,71.271,22.789,1,110.00,435.8,8750,0.0,0.0,110.0,110.0,433.0,0.00,0,0,1,333.3,86.3,86.3,75.2,75.2,34.0,0.00,49.46,16.3,59.4,4,-301.940,-52.1,100.0,6.0,16.3,22.0,37.2,0,1,27.4,0.00,0.00,0.00,0.00,0,4347,2538,4444,325.0,313.4,348.6,343.3,24.16,22.82,25.10,24.31,325.0,325.0,355.0,355.0,99.95,100.00,99.92,99.96,0.00,3.88,3.42,3.49,0.0,-0.2,5.3,2.0,77.0,68.7,76.6,71.7,87.9,74.6,88.6,82.5,84.0,71.6,86.3,80.0,81.4,70.1,85.2,79.0,-3.29,3.20,0.10,0.06,0.00,70.06,72.68,68.02,68.02,356.7,7.7,1.1175419455215094,82.46329180425353,23.766712898889583,21.606102531895317,46.81322205760253
1.750,43.9,44.054269635009973,-78.681796786976150,15.2,164.1,-105.1,-11.0,6880.0,6880,84.7,0,1,1,0,1,1,0,0,0,100,1,1.186,26.0,0.0,0.420,66.767,66.0,0.0,26.0,26.0,26.0,26.0,1.30,0.19,0.03,387.3,-2.34,-2.10,-2.83,0.31,-721.76,650.67,5.6,0.00,0.00,0.00,0.00,0.03,-7.49,-7.49,-1.34,-5.35,1.24,-2.10,23.53,0.74,-0.26,-22.00,100.0,0,0,67.61,0,0,0.0,0,0,0,0,5810,0,30.00,2,84.7,0,0,0.0,0.0,0.0,0.0,1,0,1.773,1.773,71.271,22.789,0,110.00,435.8,8750,0.0,0.0,110.0,110.0,433.0,0.00,0,0,1,166.7,76.8,76.8,79.6,79.6,34.0,10.06,128.43,3.6,139.3,4,-301.990,-17.6,100.0,6.7,24.5,16.8,36.6,0,1,11.1,0.00,0.00,0.00,0.00,1079,6622,598,7636,322.2,306.9,353.3,335.3,24.16,22.83,25.10,24.32,325.0,325.0,355.0,355.0,99.95,100.00,99.92,99.96,1.77,2.11,3.14,3.19,-0.4,-0.2,3.9,1.4,77.0,68.7,76.6,71.7,87.8,74.7,88.6,82.5,84.0,71.7,86.3,80.1,81.4,70.2,85.2,79.1,-1.27,1.25,0.10,0.06,0.00,70.95,73.11,68.07,67.15,356.7,7.7,1.314153720079961,82.46329177580235,25.92732315207911,-54.01525689876195,25.207120094730975
1.800,45.1,44.054259922336634,-78.681793549418373,152.5,47.1,-14.6,-8.3,6881.2,6881,84.8,0,1,1,0,1,1,0,0,0,100,1,1.186,26.0,0.0,0.441,66.767,66.0,0.0,26.0,26.0,26.0,26.0,0.82,-0.11,0.06,385.4,-3.88,-2.86,-1.62,-0.84,-721.40,649.59,5.6,0.00,0.00,0.00,0.00,0.03,-7.49,-7.49,-1.50,-1.86,0.86,-10.55,23.53,0.65,-0.35,-15.49,100.0,0,0,65.66,0,0,0.0,0,0,0,0,5643,0,30.00,2,84.8,1,0,0.0,0.0,0.0,0.0,1,0,1.821,1.821,71.271,22.789,1,110.00,435.8,8750,0.0,0.0,110.0,110.0,433.0,0.00,0,0,1,333.3,70.5,70.5,82.2,82.2,34.0,-7.71,57.68,42.6,60.9,4,-302.040,14.5,100.0,14.3,26.9,16.0,36.2,0,1,0.0,0.00,0.00,0.00,0.00,3441,5343,2889,3729,316.4,310.1,347.6,345.0,24.16,22.83,25.10,24.32,325.0,325.0,355.0,355.0,99.95,100.00,99.92,99.96,0.28,0.49,2.65,2.78,-0.0,-0.0,-0.4,-0.8,77.0,68.7,76.6,71.7,87.8,74.7,88.5,82.5,83.9,71.7,86.3,80.1,81.3,70.2,85.2,79.1,0.60,-0.59,0.12,0.06,0.00,71.51,73.08,65.06,66.27,356.7,7.7,0.8295179322956194,77.06176611437733,26.28742490836268,-36.01017079165487,18.00508610710711
1.850,46.3,44.054250389527610,-78.681790221928424,113.5,8.3,68.0,-147.8,6882.4,6882,84.5,0,1,1,0,1,1,0,0,0,100,1,1.186,26.0,0.0,0.465,66.767,66.0,0.0,26.0,26.0,26.0,26.0,0.24,-0.15,0.04,385.4,-3.28,-3.17,-1.68,-1.52,-721.03,648.53,5.6,0.00,0.00,0.00,0.00,0.03,-7.49,-7.49,-1.45,3.46,0.46,-9.46,23.46,0.63,-0.34,-1.72,100.0,0,0,65.70,0,0,0.0,0,0,0,0,5647,0,30.00,2,84.5,0,0,0.0,0.0,0.0,0.0,1,0,1.869,1.869,71.271,22.789,0,110.00,435.8,8750,0.0,0.0,110.0,110.0,433.0,0.00,0,0,1,333.3,67.5,67.5,84.0,84.0,34.0,-39.27,-10.01,25.7,62.9,4,-302.090,41.5,100.0,20.0,27.3,19.4,28.8,0,1,0.0,0.00,0.00,0.00,0.00,3405,5251,2113,3695,315.9,310.6,349.6,345.3,24.17,22.83,25.11,24.32,325.0,325.0,355.0,355.0,99.95,100.00,99.92,99.96,-0.64,-0.52,1.86,2.04,-0.1,-0.0,-0.5,-0.9,77.0,68.7,76.7,71.8,87.7,74.6,88.5,82.5,83.9,71.6,86.2,80.0,81.3,70.1,85.1,79.0,2.22,-2.23,0.10,0.08,0.00,72.02,72.44,65.71,65.71,356.7,7.7,0.28583211855912904,78.86227469663686,27.727831762789823,64.8183081647096,28.80813651951918
1.900,47.5,44.054240227193461,-78.681786624642001,23.3,-95.9,184.7,-39.4,6883.6,6884,84.3,0,1,1,0,1,1,0,0,0,100,1,1.186,26.0,0.0,0.465,66.767,66.0,0.0,26.0,26.0,26.0,26.0,-0.15,-0.12,-0.01,385.2,-2.63,-2.44,-1.29,-1.94,-720.63,647.40,5.6,0.00,0.00,0.00,0.00,0.03,-7.49,-7.49,-1.19,5.10,-0.05,-6.88,23.39,0.46,-0.25,13.34,100.0,0,0,65.73,0,0,0.0,0,0,0,0,5649,0,30.00,2,84.3,1,0,0.0,0.0,0.0,0.0,1,0,1.920,1.920,71.271,22.789,1,110.00,435.8,8750,0.0,0.0,110.0,110.0,433.0,0.00,0,0,1,333.3,72.3,72.3,77.8,77.8,34.0,-66.78,-23.60,21.7,32.6,4,-302.140,60.3,100.0,21.2,22.5,28.7,26.8,0,1,0.0,0.00,0.00,0.00,0.00,4238,2610,4143,2807,313.9,318.2,344.4,347.5,24.17,22.83,25.11,24.32,325.0,325.0,355.0,355.0,99.95,100.00,99.92,99.96,-1.29,-1.31,0.60,0.77,-0.1,0.1,-0.5,-0.2,77.0,68.7,76.7,71.8,87.7,74.6,88.4,82.4,83.8,71.6,86.2,80.0,81.2,70.1,85.1,79.0,3.33,-3.41,0.07,0.08,0.00,72.60,71.42,66.17,65.30,356.7,7.7,0.19235384061671346,83.5435969308483,29.1682385603146,-2.8451182743083336e-07,-14.404068544271418
1.950,48.6,44.054229525266351,-78.681782937423421,59.5,-27.5,184.9,8.6,6884.7,6885,84.0,0,1,1,0,1,1,0,0,0,100,1,1.186,26.0,0.0,0.489,66.767,66.0,0.0,26.0,26.0,26.0,26.0,-0.73,-0.17,0.27,380.5,-2.78,-1.96,-1.05,-1.34,-720.22,646.21,5.5,0.00,0.00,0.00,0.00,0.03,-7.49,-7.49,-0.94,3.67,-0.28,-4.20,23.32,0.31,-0.25,24.28,100.0,0,0,65.48,0,0,0.0,0,0,0,0,5628,0,30.00,2,84.0,0,0,0.0,0.0,0.0,0.0,1,0,1.974,1.974,71.271,22.789,0,110.00,435.8,8750,0.0,0.0,110.0,110.0,433.0,0.00,0,0,1,166.7,69.7,69.7,70.0,70.0,34.0,-93.17,-37.44,-45.6,-7.7,4,-302.190,69.5,100.0,24.2,21.1,37.9,27.3,0,1,0.0,0.00,0.00,0.00,0.00,5134,3095,4858,4003,311.5,316.9,342.6,344.7,24.17,22.83,25.11,24.33,325.0,325.0,355.0,355.0,99.95,100.00,99.92,99.96,-1.74,-1.71,-0.53,-0.35,-0.1,0.0,-0.5,-0.1,77.1,68.7,76.7,71.8,87.7,74.6,88.4,82.4,83.8,71.6,86.1,80.0,81.2,70.1,85.0,79.0,3.92,-4.06,0.06,0.08,0.00,72.83,70.71,66.38,64.59,356.7,7.7,0.7966806135459805,78.86227466818568,26.28742490836268,-68.41932515852136,-46.813222057602566
2.000,49.8,44.054220532050294,-78.681780059594274,-6.6,-152.4,-6.8,30.9,6885.9,6886,83.8,0,1,1,0,1,1,0,0,0,100,1,1.186,26.0,0.0,0.510,66.767,66.0,0.0,26.0,26.0,26.0,26.0,-0.70,-0.13,-0.13,385.4,-2.27,-2.69,-0.66,-3.18,-719.90,645.21,5.5,0.00,0.00,0.00,0.00,0.03,-7.49,-7.49,-0.84,-0.28,-0.54,-4.38,23.26,0.14,-0.23,27.27,100.0,0,0,65.23,0,0,0.0,0,0,0,0,5606,0,30.00,2,83.8,1,0,0.0,0.0,0.0,0.0,1,0,2.019,2.019,71.271,22.789,1,110.00,435.8,8750,0.0,0.0,110.0,110.0,433.0,0.00,0,0,1,166.7,78.5,78.5,76.6,76.6,34.0,-64.72,-5.38,-66.9,-15.5,4,-302.240,71.2,100.0,23.8,13.5,37.6,28.8,0,1,0.0,0.00,0.00,0.00,0.00,3756,650,4791,2890,314.6,323.4,342.9,347.2,24.17,22.83,25.11,24.33,325.0,325.0,355.0,355.0,99.95,100.00,99.92,99.96,-1.94,-2.14,-1.08,-0.98,-0.0,0.1,-0.5,-0.2,77.1,68.7,76.7,71.8,87.7,74.6,88.4,82.3,83.8,71.6,86.1,79.9,81.2,70.1,85.0,78.9,4.05,-4.23,0.07,0.07,0.00,72.60,70.24,66.24,64.22,356.7,7.7,0.7237402849088891,76.70166441499616,24.486916354554342,25.20711981021904,-18.005086107107076
2.050,51.0,44.054210369716145,-78.681776822036497,-63.5,-29.4,29.6,-106.0,6887.1,6887,83.5,0,1,1,0,1,1,0,0,0,100,1,1.186,26.0,0.0,0.510,66.767,66.0,0.0,26.0,26.0,26.0,26.0,-1.09,-0.15,0.10,385.2,-2.04,-2.16,-0.30,-1.53,-719.54,644.08,5.5,0.00,0.00,0.00,0.00,0.03,-7.49,-7.49,-0.97,-4.95,-0.68,-2.18,23.19,0.04,-0.24,27.35,100.0,0,0,64.86,0,0,0.0,0,0,0,0,5574,0,30.00,2,83.5,0,0,0.0,0.0,0.0,0.0,1,0,2.070,2.070,71.271,22.789,0,110.00,435.8,8750,0.0,0.0,110.0,110.0,433.0,0.00,0,0,1,333.3,77.9,77.9,72.1,72.1,34.0,-84.95,-22.72,-93.8,-43.9,4,-302.290,73.7,100.0,20.7,12.0,39.1,23.5,0,1,0.0,0.00,0.00,0.00,0.00,4806,1890,5407,3738,312.4,320.1,340.8,345.6,24.17,22.83,25.12,24.33,325.0,325.0,355.0,355.0,99.95,100.00,99.92,99.96,-2.45,-2.49,-1.54,-1.38,-0.1,-0.0,-0.5,-0.2,77.1,68.7,76.7,71.8,87.6,74.5,88.3,82.3,83.8,71.5,86.1,79.9,81.2,70.0,85.0,78.9,4.19,-4.36,0.07,0.08,0.00,72.23,69.83,65.82,63.89,356.7,7.7,1.1048076755707303,81.38298664920758,24.486916297651973,25.20711981021904,-28.80813708854287
2.100,52.1,44.054200207382003,-78.681773944207364,170.8,56.4,-6.0,-69.1,6888.2,6888,83.2,0,1,1,0,1,1,0,0,0,100,1,1.186,26.0,0.0,0.534,66.767,66.0,0.0,26.0,26.0,26.0,26.0,-1.13,-0.18,-0.02,384.3,-2.34,-2.57,-0.63,-2.45,-719.22,642.95,5.5,0.00,0.00,0.00,0.00,0.03,-7.49,-7.49,-1.20,-3.35,-0.85,0.33,23.10,0.02,-0.40,31.97,100.0,0,0,64.52,0,0,0.0,0,0,0,0,5545,0,30.00,2,83.2,1,0,0.0,0.0,0.0,0.0,1,0,2.121,2.121,71.271,22.789,1,110.00,435.8,8750,0.0,0.0,110.0,110.0,433.0,0.00,0,0,1,333.3,68.8,68.8,79.7,79.7,34.0,-131.61,-31.35,-81.1,-5.7,4,-302.340,76.0,100.0,29.2,14.9,38.8,20.1,0,1,0.0,0.00,0.00,0.00,0.00,6825,2491,4641,704,307.2,318.6,343.2,353.0,24.18,22.83,25.12,24.33,325.0,325.0,355.0,355.0,99.95,100.00,99.92,99.96,-2.45,-2.44,-1.79,-1.76,-0.2,-0.0,-0.6,-0.5,77.1,68.7,76.8,71.8,87.6,74.5,88.3,82.3,83.8,71.5,86.1,79.8,81.2,70.0,85.0,78.9,4.31,-4.50,0.06,0.08,0.00,72.17,69.42,65.76,63.28,356.7,7.7,1.1444212511134175,79.22237639601806,21.606102645700055,-18.005085253571593,-46.81322205760253
2.150,53.3,44.054190584640814,-78.681771426106863,12.7,57.7,-160.8,-135.0,6889.4,6889,82.9,0,1,1,0,1,1,0,0,0,100,1,1.186,26.0,0.0,0.555,66.767,66.0,0.0,26.0,26.0,26.0,26.0,-1.14,-0.21,-0.05,387.6,-2.63,-2.97,-0.17,-1.98,-718.94,641.88,5.5,0.00,0.00,0.00,0.00,0.03,-7.49,-7.49,-1.14,3.80,-0.79,1.35,23.01,-0.14,-0.36,37.85,100.0,0,0,64.45,0,0,0.0,0,0,0,0,5539,0,30.00,2,82.9,0,0,0.0,0.0,0.0,0.0,0,0,2.169,2.169,71.271,22.789,0,110.00,435.8,8750,0.0,0.0,110.0,110.0,433.0,0.00,0,0,1,333.3,68.7,68.7,87.4,87.4,34.0,-108.06,-24.32,-60.3,-25.5,4,-302.390,75.2,100.0,29.8,17.8,30.7,13.3,0,1,0.0,0.00,0.00,0.00,0.00,5792,2008,3746,2026,309.6,319.4,345.7,349.9,24.18,22.83,25.12,24.33,325.0,325.0,355.0,355.0,99.95,100.00,99.92,99.96,-2.45,-2.46,-2.50,-2.45,-0.1,-0.0,-1.0,-0.6,77.1,68.7,76.8,71.8,87.7,74.5,88.3,82.2,83.8,71.5,86.0,79.8,81.2,70.0,84.9,78.8,4.30,-4.48,0.08,0.10,0.00,72.43,69.14,65.88,63.01,356.7,7.7,1.1602585918664856,79.58247812385042,19.80559409189172,32.40915379784283,-32.409154082354874
2.200,54.4,44.054180332374507,-78.681768997938534,-151.8,-147.2,100.1,65.4,6890.5,6891,82.6,0,1,1,0,1,1,0,0,0,100,1,1.186,26.0,0.0,0.555,66.767,66.0,0.0,26.0,26.0,26.0,26.0,-1.14,-0.04,-0.11,390.3,-2.45,-2.34,-0.68,-2.47,-718.67,640.74,5.5,0.00,0.00,0.00,0.00,0.03,-7.49,-7.49,-0.94,0.66,-0.91,-2.37,22.93,-0.31,-0.22,33.06,100.0,0,0,64.89,0,0,0.0,0,0,0,0,5577,0,30.00,2,82.6,1,0,0.0,0.0,0.0,0.0,0,0,2.220,2.220,71.271,22.789,1,110.00,435.8,8750,0.0,0.0,110.0,110.0,433.0,0.00,0,0,1,333.3,81.8,81.8,77.9,77.9,34.0,-69.56,0.00,-108.3,-26.9,4,-302.440,72.1,100.0,22.2,10.4,35.7,16.6,0,1,9.1,0.00,0.00,0.00,0.00,4308,0,5695,2088,313.8,325.0,339.8,349.4,24.18,22.83,25.13,24.34,325.0,325.0,355.0,355.0,99.95,100.00,99.92,99.96,-2.80,0.00,-2.83,-2.66,-0.1,0.0,-0.1,0.5,77.1,68.7,76.8,71.9,87.6,74.5,88.3,82.2,83.8,71.5,86.0,79.8,81.2,70.0,84.9,78.8,4.14,-4.32,0.07,0.10,0.00,71.86,68.96,65.48,64.29,356.7,7.7,1.145993019175946,82.46329177580235,18.365187237464568,10.803050981435831,-39.61118806997875
2.250,55.6,44.054169990176042,-78.681766839566677,-76.7,-64.4,62.7,80.2,6891.7,6892,82.8,0,1,1,0,1,1,0,0,0,100,1,1.186,26.0,0.0,0.579,66.767,66.0,0.0,26.0,26.0,26.0,26.0,-1.08,0.25,-0.11,389.8,-2.42,-3.23,-0.56,-2.22,-718.43,639.59,5.5,0.00,0.00,0.00,0.00,0.03,-7.49,-7.49,-1.05,-5.63,-0.88,0.60,23.00,-0.34,-0.21,24.84,100.0,0,0,65.99,0,0,0.0,0,0,0,0,5672,0,30.00,2,82.8,0,0,0.0,0.0,0.0,0.0,0,0,2.271,2.271,71.271,22.789,0,110.00,435.8,8750,0.0,0.0,110.0,110.0,433.0,0.00,0,0,1,333.3,85.0,85.0,72.7,72.7,34.0,-47.27,-6.06,-112.0,-27.5,4,-302.490,69.9,100.0,18.4,7.2,38.9,20.6,0,1,31.3,0.00,0.00,0.00,0.00,3693,686,5890,2844,316.0,323.1,340.0,347.9,24.18,22.83,25.13,24.34,325.0,325.0,355.0,355.0,99.95,100.00,99.92,99.96,-3.37,-3.06,-2.50,-2.35,-0.1,-0.3,1.0,3.5,77.1,68.7,76.8,71.9,87.6,74.4,88.3,82.2,83.8,71.4,86.0,79.8,81.2,69.9,85.0,78.8,4.02,-4.18,0.07,0.08,0.00,71.23,69.04,67.04,64.94,356.7,7.7,1.1140017953306898,80.662783221994,15.844475284893845,-10.803050981435831,-46.81322205760251
2.300,56.7,44.054160187570538,-78.681765040923466,124.0,143.6,-24.5,-21.8,6892.8,6893,83.2,0,1,1,0,1,1,0,0,0,100,1,1.186,26.0,0.0,0.603,66.767,66.0,0.0,26.0,26.0,26.0,26.0,-1.23,0.22,0.10,385.5,-1.84,-2.63,-0.56,-2.72,-718.23,638.50,5.5,0.00,0.00,0.00,0.00,0.03,-7.49,-7.49,-1.31,-3.67,-0.99,-3.61,23.10,-0.24,-0.36,28.32,100.0,0,0,67.70,0,0,0.0,0,0,0,0,5818,0,30.00,2,83.2,1,0,0.0,0.0,0.0,0.0,0,0,2.319,2.319,71.271,22.789,1,110.00,435.8,8750,0.0,0.0,110.0,110.0,433.0,0.00,0,0,1,333.3,71.1,71.1,80.0,80.0,34.0,-119.90,-32.33,-58.1,-7.6,4,-302.540,67.3,100.0,24.6,14.4,37.6,19.5,0,1,47.2,0.00,0.00,0.00,0.00,6772,2426,3763,1684,307.5,317.9,345.1,350.6,24.18,22.83,25.13,24.34,325.0,325.0,355.0,355.0,99.95,100.00,99.92,99.96,-2.97,-2.83,-2.19,-2.11,-0.2,-0.2,2.0,5.7,77.2,68.7,76.8,71.9,87.6,74.4,88.3,82.1,83.8,71.4,86.0,79.7,81.2,69.9,84.9,78.7,3.87,-4.02,0.06,0.09,0.00,71.98,69.59,67.70,67.70,356.7,7.7,1.2535150577476124,81.38298667765876,13.683865031704316,39.611188354490565,-39.61118806997868
2.350,57.9,44.054149665507744,-78.681763422144570,193.3,57.9,-78.5,-174.1,6894.0,6894,83.6,0,1,1,0,1,1,0,0,0,100,1,1.186,26.0,0.0,0.603,66.767,66.0,0.0,26.0,26.0,26.0,26.0,-1.20,0.30,0.10,384.8,-2.00,-2.94,0.03,-2.60,-718.05,637.33,5.5,0.00,0.00,0.00,0.00,0.03,-7.49,-7.49,-1.16,7.69,-1.04,7.21,23.22,-0.34,-0.35,39.39,100.0,0,0,70.64,0,0,0.0,0,0,0,0,6071,0,30.00,2,83.6,0,0,0.0,0.0,0.0,0.0,0,0,2.370,2.370,71.271,22.789,0,110.00,435.8,8750,0.0,0.0,110.0,110.0,433.0,0.00,0,0,1,333.3,63.8,63.8,84.5,84.5,34.0,-157.25,-32.70,-49.6,-0.1,4,-302.590,59.5,100.0,34.3,17.2,33.7,10.8,0,1,54.3,0.00,0.00,0.00,0.00,7785,2752,5057,505,304.7,318.1,341.7,353.9,24.19,22.83,25.14,24.34,325.0,325.0,355.0,355.0,99.95,100.00,99.92,99.96,-2.22,-2.08,-3.09,-3.15,-0.1,-0.1,4.8,10.1,77.2,68.7,76.8,71.9,87.7,74.4,88.3,82.1,83.8,71.4,86.0,79.7,81.2,69.9,84.9,78.7,3.46,-3.58,0.07,0.10,0.00,73.25,69.77,70.64,70.64,356.7,7.7,1.2409673645990857,84.62390205744306,11.883356477895976,14.404068259759697,-43.21220563281434
2.400,59.0,44.054139053512799,-78.681762073162162,21.3,-53.8,-12.6,237.3,6895.1,6895,84.3,0,1,1,0,1,1,0,0,0,100,1,1.186,26.0,0.0,0.621,66.767,66.0,0.0,26.0,26.0,26.0,26.0,-1.40,0.54,0.22,381.4,-2.63,-3.46,-0.25,-2.24,-717.90,636.15,5.5,0.00,0.00,0.00,0.00,0.04,-7.49,-7.49,-0.49,14.31,-0.62,8.66,23.42,-0.52,-0.18,37.70,100.0,0,0,69.27,0,0,0.0,0,0,0,0,5953,0,30.00,2,84.3,1,0,0.0,0.0,0.0,0.0,0,0,2.421,2.421,71.271,22.789,1,110.00,435.8,8750,0.0,0.0,110.0,110.0,433.0,0.00,0,0,1,333.3,69.4,69.4,82.8,82.8,34.0,-113.54,-7.90,-88.3,-18.8,4,-302.640,46.3,100.0,35.3,14.6,33.1,22.7,0,1,59.0,0.00,0.00,0.00,0.00,5934,995,6485,4161,309.3,322.7,338.2,344.0,24.19,22.83,25.14,24.35,325.0,325.0,355.0,355.0,99.95,100.00,99.92,99.96,-1.96,-1.92,-3.68,-3.58,-0.1,-0.3,2.6,6.8,77.2,68.7,76.9,71.9,87.7,74.3,88.3,82.1,83.8,71.3,86.0,79.7,81.2,69.9,85.0,78.7,2.76,-2.84,0.07,0.08,0.00,74.02,70.47,69.27,69.27,356.7,7.7,1.51657508881031,82.82339350363473,9.362644468422882,-7.20203427213562,-43.21220563281431
2.450,60.2,44.054128981110807,-78.681761083908398,-183.0,-111.4,209.3,267.1,6896.3,6896,85.1,0,1,1,0,1,1,0,0,0,100,1,1.186,26.0,0.0,0.645,66.767,66.0,0.0,26.0,26.0,26.0,26.0,-1.30,0.55,0.20,380.6,-2.98,-2.48,-0.96,-1.85,-717.79,635.03,5.5,0.00,0.00,0.00,0.00,0.04,-7.49,-7.49,0.09,8.17,-0.44,0.17,23.66,-0.51,-0.05,24.28,100.0,0,0,68.91,0,0,0.0,0,0,0,0,5922,0,30.00,2,85.1,0,0,0.0,0.0,0.0,0.0,0,0,2.469,2.469,71.271,22.789,0,110.00,435.8,8750,0.0,0.0,110.0,110.0,433.0,0.00,0,0,1,333.3,81.7,81.7,68.6,68.6,34.0,-71.12,0.00,-138.6,-47.1,4,-302.690,33.9,100.0,26.2,9.0,43.5,36.0,0,1,62.1,0.00,0.00,0.00,0.00,4100,0,7456,5168,314.1,325.0,335.9,341.4,24.19,22.83,25.14,24.35,325.0,325.0,355.0,355.0,99.95,100.00,99.92,99.96,-1.81,0.00,-2.92,-2.83,-0.1,0.0,1.8,5.1,77.2,68.7,76.9,71.9,87.7,74.3,88.3,82.1,83.8,71.3,86.1,79.7,81.2,69.8,85.0,78.7,2.05,-2.11,0.04,0.05,0.00,73.91,70.85,68.91,68.91,356.7,7.7,1.4256577429383253,83.9036986302295,7.562135914614545,50.41423933592611,-36.01017107616675
2.500,61.4,44.054118099319382,-78.681760184586793,-153.2,-35.8,188.7,-9.3,6897.5,6898,86.1,0,1,1,0,1,1,0,0,0,100,1,1.186,26.0,0.0,0.645,66.767,66.0,0.0,26.0,26.0,26.0,26.0,-0.97,0.48,0.13,381.9,-1.94,-2.12,-1.46,-2.52,-717.69,633.82,5.5,0.00,0.00,0.00,0.00,0.04,-7.49,-7.49,0.22,-2.88,-0.48,1.51,23.92,-0.32,-0.07,11.30,100.0,0,0,69.20,0,0,0.0,0,0,0,0,5948,0,30.00,2,86.1,1,0,0.0,0.0,0.0,0.0,0,0,2.520,2.520,71.271,22.789,1,110.00,435.8,8750,0.0,0.0,110.0,110.0,433.0,0.00,0,0,1,333.3,86.8,86.8,55.8,55.8,34.0,-69.05,0.00,-155.5,-25.8,4,-302.740,21.7,100.0,18.5,7.2,53.0,35.5,0,1,72.7,0.00,0.00,0.00,0.00,4258,0,8202,3432,314.1,325.0,334.0,346.2,24.19,22.83,25.15,24.35,325.0,325.0,355.0,355.0,99.95,100.00,99.92,99.96,-1.54,0.00,-1.72,-1.57,-0.1,0.0,2.0,3.5,77.2,68.7,76.9,71.9,87.6,74.2,88.3,82.1,83.8,71.3,86.1,79.7,81.2,69.8,85.0,78.7,1.35,-1.37,0.04,0.06,0.00,73.87,70.85,69.20,69.20,356.7,7.7,1.0900458705944442,87.86481743722734,5.761627360806207,21.606102816407002,-32.40915351333111
2.550,62.6,44.054107037663627,-78.681759644993832,-91.5,3.5,-119.3,-109.9,6898.7,6899,87.0,0,1,1,0,1,1,0,0,0,100,1,1.186,26.0,0.0,0.666,66.767,66.0,0.0,26.0,26.0,26.0,26.0,-0.50,0.47,-0.22,388.1,-1.74,-2.00,-2.36,-1.86,-717.63,632.59,5.5,0.00,0.00,0.00,0.00,0.04,-7.49,-7.49,-0.15,-10.16,-0.03,11.32,24.19,-0.17,-0.18,7.22,100.0,0,0,70.68,0,0,0.0,0,0,0,0,6075,0,30.00,2,87.0,0,0,0.0,0.0,0.0,0.0,0,0,2.571,2.571,71.271,22.789,0,110.00,435.8,8750,0.0,0.0,110.0,110.0,433.0,0.00,0,0,1,333.3,87.6,87.6,61.1,61.1,34.0,-17.33,-13.82,-52.6,-10.7,4,-302.790,11.4,100.0,14.0,7.4,47.0,30.1,0,1,91.8,0.00,0.00,0.00,0.00,1680,2114,4592,2664,320.5,319.5,343.2,348.0,24.20,22.83,25.15,24.35,325.0,325.0,355.0,355.0,99.95,100.00,99.92,99.96,-0.94,-0.95,-1.07,-1.02,-0.1,-0.1,3.3,4.4,77.2,68.7,76.9,72.0,87.6,74.2,88.3,82.1,83.7,71.2,86.1,79.7,81.1,69.7,85.0,78.7,0.74,-0.75,0.05,0.07,0.00,74.08,74.09,70.68,70.68,356.7,7.7,0.7206247289678588,86.0643089118702,4.321220563281433,-7.2020339876236505,-18.005084969059666
2.600,63.8,44.054096605532997,-78.681759105400857,-9.0,136.6,-303.3,-77.8,6900.0,6900,88.0,0,1,1,0,1,1,0,0,0,100,1,1.186,26.0,0.0,0.687,66.767,66.0,0.0,26.0,26.0,26.0,26.0,-0.25,0.57,-0.12,389.8,-2.28,-1.41,-1.79,-1.73,-717.57,631.43,5.5,0.00,0.00,0.00,0.00,0.04,-7.49,-7.49,-0.59,-7.71,0.32,3.16,24.47,-0.15,-0.29,6.51,100.0,0,0,73.08,0,0,0.0,0,0,0,0,6280,0,30.00,2,88.0,1,0,0.0,0.0,0.0,0.0,0,0,2.619,2.619,71.271,22.789,1,110.00,435.8,8750,0.0,0.0,110.0,110.0,433.0,0.00,0,0,1,333.3,79.7,79.7,76.6,76.6,34.0,-23.46,-5.30,-10.1,-4.9,4,-302.840,2.3,100.0,13.5,14.2,31.8,26.2,0,1,100.0,0.00,0.00,0.00,0.00,3135,4102,2329,3396,317.0,314.2,349.0,345.7,24.20,22.83,25.15,24.35,325.0,325.0,355.0,355.0,99.95,100.00,99.92,99.96,-0.36,-0.26,-0.81,-0.71,-0.1,-0.1,5.6,6.7,77.2,68.7,76.9,72.0,87.5,74.2,88.3,82.1,83.7,71.2,86.1,79.7,81.1,69.7,85.0,78.7,0.21,-0.21,0.07,0.08,0.00,75.15,74.56,73.08,73.08,356.7,7.7,0.6338769596696192,87.14461403846498,3.96111886390024,50.41423933592654,-7.202034556647567
2.650,65.1,44.054085274080762,-78.681758655740055,74.7,79.8,-130.5,-49.8,6901.2,6901,89.1,0,1,1,0,1,1,0,0,0,100,1,1.186,26.0,0.0,0.687,66.767,66.0,0.0,26.0,26.0,26.0,26.0,-0.06,0.58,-0.08,390.0,-1.91,-2.21,-1.29,-1.15,-717.52,630.17,5.5,0.00,0.00,0.00,0.00,0.04,-7.49,-7.49,-0.80,-0.77,0.24,-3.09,24.77,-0.19,-0.34,4.56,100.0,0,0,75.31,0,0,0.0,0,0,0,0,6472,0,30.00,2,89.1,0,0,0.0,0.0,0.0,0.0,1,0,2.670,2.670,71.271,22.789,0,110.00,435.8,8750,0.0,0.0,110.0,110.0,433.0,0.00,0,0,1,333.3,75.3,75.3,81.8,81.8,34.0,-11.04,19.16,-6.6,-1.8,4,-302.890,-4.9,100.0,17.2,18.2,25.3,23.7,0,1,100.0,0.00,0.00,0.00,0.00,3667,3849,2965,2623,315.3,314.6,347.4,348.6,24.20,22.83,25.15,24.36,325.0,325.0,355.0,355.0,99.95,100.00,99.92,99.96,0.00,0.12,-0.71,-0.55,-0.1,-0.1,7.5,8.1,77.2,68.7,77.0,72.0,87.5,74.1,88.3,82.1,83.6,71.1,86.1,79.7,81.1,69.7,85.0,78.7,-0.23,0.22,0.08,0.09,0.00,76.32,75.83,75.31,75.31,356.7,7.7,0.5885575587824864,91.10573284546285,3.6010171076166766,25.207119525707213,-3.6010175628356356
2.700,66.3,44.054073852696369,-78.681758206079252,71.9,19.7,-14.5,2.0,6902.4,6902,90.4,0,1,1,0,1,1,0,0,0,100,1,1.186,26.0,0.0,0.705,66.767,66.0,0.0,26.0,26.0,26.0,26.0,-0.05,0.79,0.07,386.9,-2.68,-3.33,-0.98,-1.33,-717.47,628.90,5.5,0.00,0.00,0.00,0.00,0.04,-7.49,-7.49,-0.62,6.66,0.07,-1.83,25.13,-0.22,-0.27,1.23,100.0,0,0,75.83,0,0,0.0,0,0,0,0,6517,0,30.00,2,90.4,1,0,0.0,0.0,0.0,0.0,1,0,2.721,2.721,71.271,22.789,1,110.00,435.8,8750,0.0,0.0,110.0,110.0,433.0,0.00,0,0,1,166.7,72.7,72.7,79.0,79.0,34.0,-10.48,30.91,-12.7,-2.3,4,-302.940,-12.2,100.0,20.8,19.2,24.6,23.8,0,1,100.0,0.00,0.00,0.00,0.00,4388,3855,4919,3086,314.0,314.6,342.6,346.8,24.20,22.83,25.16,24.36,325.0,325.0,355.0,355.0,99.95,100.00,99.92,99.96,0.14,0.26,-0.69,-0.48,-0.1,-0.1,7.3,7.3,77.3,68.7,77.0,72.0,87.4,74.1,88.3,82.1,83.6,71.1,86.1,79.7,81.0,69.6,85.0,78.7,-0.64,0.63,0.10,0.08,0.00,77.47,77.28,75.82,75.82,356.7,7.7,0.794669742723353,89.6653259910357,3.6010171076166766,0.0,0.0
2.750,67.6,44.054062880972779,-78.681757756418449,54.4,-13.2,112.8,114.4,6903.7,6904,91.8,0,1,1,0,1,1,0,0,0,100,1,1.186,26.0,0.0,0.723,66.767,66.0,0.0,26.0,26.0,26.0,26.0,0.01,0.75,0.10,383.8,-1.69,-2.83,-0.97,-0.77,-717.42,627.68,5.5,0.00,0.00,0.00,0.00,0.04,-7.49,-7.49,-0.18,10.00,0.19,6.38,25.51,-0.18,-0.17,-3.34,100.0,0,0,74.84,0,0,0.0,0,0,0,0,6432,0,30.00,2,91.8,0,0,0.0,0.0,0.0,0.0,1,0,2.769,2.769,71.271,22.789,0,110.00,435.8,8750,0.0,0.0,110.0,110.0,433.0,0.00,0,0,1,333.3,74.3,74.3,74.9,74.9,34.0,9.28,22.64,-23.6,-6.8,4,-302.990,-21.2,100.0,23.6,18.5,30.2,29.5,0,1,100.0,0.00,0.00,0.00,0.00,3324,2533,5136,4943,316.1,317.9,342.1,342.5,24.20,22.83,25.16,24.36,325.0,325.0,355.0,355.0,99.95,100.00,99.92,99.96,0.42,0.48,-0.46,-0.29,-0.1,-0.2,4.2,3.9,77.3,68.7,77.0,72.0,87.4,74.1,88.3,82.1,83.6,71.1,86.1,79.7,81.0,69.6,85.0,78.7,-1.17,1.15,0.08,0.08,0.00,78.54,78.76,74.84,74.84,356.7,7.7,0.7567033764957045,91.10573284546285,3.6010171076166766,50.41423990495005,3.6010169938119274
2.800,68.9,44.054051099859741,-78.681757306757646,-34.1,58.9,62.5,222.8,6905.0,6905,93.1,0,1,1,0,1,1,0,0,0,100,1,1.186,26.0,0.0,0.741,66.767,66.0,0.0,26.0,26.0,26.0,26.0,0.25,0.69,0.44,378.3,-2.63,-2.63,-1.75,-1.79,-717.37,626.37,5.5,0.00,0.00,0.00,0.00,0.04,-7.49,-7.49,0.30,9.10,0.61,6.95,25.88,-0.11,-0.10,-9.22,100.0,0,0,75.22,0,0,0.0,0,0,0,0,6464,0,30.00,2,93.1,1,0,0.0,0.0,0.0,0.0,1,0,2.820,2.820,71.271,22.789,1,110.00,435.8,8750,0.0,0.0,110.0,110.0,433.0,0.00,0,0,1,333.3,71.7,71.7,66.5,66.5,34.0,11.96,51.73,-14.3,27.0,4,-303.040,-27.8,100.0,21.8,21.5,33.4,40.6,0,1,100.0,0.00,0.00,0.00,0.00,2963,4231,4943,6141,317.0,313.3,342.3,338.7,24.20,22.83,25.16,24.36,325.0,325.0,355.0,355.0,99.95,100.00,99.92,99.96,0.67,0.74,-0.04,0.10,-0.0,-0.1,3.3,2.5,77.3,68.7,77.0,72.0,87.3,74.0,88.3,82.1,83.5,71.1,86.0,79.7,80.9,69.6,85.0,78.7,-1.56,1.55,0.07,0.04,0.00,79.41,80.19,75.22,75.22,356.7,7.7,0.8556868586112562,94.7067499815307,3.9611188069978693,21.606102816407002,10.8030509814358
