Time,Distance,GPS Latitude,GPS Longitude,Damper Velocity (Calc) FL,Damper Velocity (Calc) FR,Damper Velocity (Calc) RL,Damper Velocity (Calc) RR,Corr Dist,Corr Dist (Unstretched),Corr Speed,ABS Active,ABS Enabled,AID Allow Tire Blankets,AID Auto Blip,AID Auto Clutch,AID Auto Shift,AID Fuel Rate,AID Ideal Line,AID Mech Damage,AID Stability,AID Tire Wear Rate,Air Density,Air Temp,Ballast,Best Lap Delta,Best Lap Time,Brake Bias,Brake Pos,Brake Temp FL,Brake Temp FR,Brake Temp RL,Brake Temp RR,CG Accel Lateral,CG Accel Longitudinal,CG Accel Vertical,CG Height,Camber FL,Camber FR,Camber RL,Camber RR,Car Coord X,Car Coord Y,Car Coord Z,Car Damage Front,Car Damage Left,Car Damage Rear,Car Damage Right,Car Pos Norm,Caster FL,Caster FR,Chassis Pitch Angle,Chassis Pitch Rate,Chassis Roll Angle,Chassis Roll Rate,Chassis Velocity X,Chassis Velocity Y,Chassis Velocity Z,Chassis Yaw Rate,Clutch Pos,DRS Active,DRS Available,Drive Train Speed,ERS Heat Charging,ERS Is Charging,ERS Max Energy,ERS Power Level,ERS Recovery Level,Engine Brake Setting,Engine Limiter,Engine RPM,Flags,Fuel Level,Gear,Ground Speed,HR Sample Clock,In Pit,KERS Charge,KERS Deployed Energy,KERS Input,KERS Max Energy,LR Sample Clock,Lap Invalidated,Lap Time,Lap Time2,Last Lap Time,Last Sector Time,MR Sample Clock,Max Fuel,Max Power,Max RPM,Max Sus Travel FL,Max Sus Travel FR,Max Sus Travel RL,Max Sus Travel RR,Max Torque,Max Turbo Boost,Num Tires Off Track,Penalties Enabled,Position,Raw Data Sample Rate,Ride Height FL,Ride Height FR,Ride Height RL,Ride Height RR,Road Temp,Self Align Torque FL,Self Align Torque FR,Self Align Torque RL,Self Align Torque RR,Session Lap Count,Session Time Left,Steering Angle,Surface Grip,Suspension Travel FL,Suspension Travel FR,Suspension Travel RL,Suspension Travel RR,TC Active,TC Enabled,Throttle Pos,Tire Dirt Level FL,Tire Dirt Level FR,Tire Dirt Level RL,Tire Dirt Level RR,Tire Load FL,Tire Load FR,Tire Load RL,Tire Load RR,Tire Loaded Radius FL,Tire Loaded Radius FR,Tire Loaded Radius RL,Tire Loaded Radius RR,Tire Pressure FL,Tire Pressure FR,Tire Pressure RL,Tire Pressure RR,Tire Radius FL,Tire Radius FR,Tire Radius RL,Tire Radius RR,Tire Rubber Grip FL,Tire Rubber Grip FR,Tire Rubber Grip RL,Tire Rubber Grip RR,Tire Slip Angle FL,Tire Slip Angle FR,Tire Slip Angle RL,Tire Slip Angle RR,Tire Slip Ratio FL,Tire Slip Ratio FR,Tire Slip Ratio RL,Tire Slip Ratio RR,Tire Temp Core FL,Tire Temp Core FR,Tire Temp Core RL,Tire Temp Core RR,Tire Temp Inner FL,Tire Temp Inner FR,Tire Temp Inner RL,Tire Temp Inner RR,Tire Temp Middle FL,Tire Temp Middle FR,Tire Temp Middle RL,Tire Temp Middle RR,Tire Temp Outer FL,Tire Temp Outer FR,Tire Temp Outer RL,Tire Temp Outer RR,Toe In FL,Toe In FR,Toe In RL,Toe In RR,Turbo Boost,Wheel Angular Speed FL,Wheel Angular Speed FR,Wheel Angular Speed RL,Wheel Angular Speed RR,Wind Direction,Wind Speed,CG Distance,Lateral Velocity,Longitudinal Velocity,Lateral Acceleration,Longitudinal Acceleration
s,m,deg,deg,mm/s,mm/s,mm/s,mm/s,m,m,km/h,,,,,,,,,%,%,,kg/m3,C,kg,s,s,%,%,C,C,C,C,G,G,G,mm,deg,deg,deg,deg,m,m,m,,,,,,deg,deg,deg,deg/s,deg,deg/s,m/s,m/s,m/s,deg/s,%,,,rad/s,,,MJ,,,,,rpm,,l,,km/h,,,%,kJ,%,MJ,,,s,s,s,s,,l,hp,rpm,mm,mm,mm,mm,N.m,,,,,Hz,mm,mm,mm,mm,C,N.m,N.m,N.m,N.m,,s,deg,%,mm,mm,mm,mm,,,%,,,,,N,N,N,N,mm,mm,mm,mm,psi,psi,psi,psi,mm,mm,mm,mm,%,%,%,%,deg,deg,deg,deg,%,%,%,%,C,C,C,C,C,C,C,C,C,C,C,C,C,C,C,C,deg,deg,deg,deg,,rad/s,rad/s,rad/s,rad/s,deg,km/h,G,Km/h,Km/h,Km/h^2,Km/h^2
0.000,0.0,44.054617312742828,-78.681965679573736,62.0,-16.6,-129.1,0.9,3517.0,3517,133.7,0,1,1,0,1,1,0,0,0,100,1,1.186,26.0,0.0,-0.02,59.817,66.0,0.0,26.0,26.0,26.0,26.0,-0.05,0.24,0.13,383.0,-2.60,-2.72,-0.99,-1.62,-740.54,689.33,5.7,0.00,0.00,0.00,0.00,0.00,-7.49,-7.49,-0.30,-0.25,-0.11,-5.84,37.14,-0.04,-0.34,1.53,100.0,0,0,105.63,0,0,0.0,0,0,0,0,7081,0,30.00,3,133.7,0,0,0.0,0.0,0.0,0.0,1,0,0.043,0.043,59.817,21.487,0,110.00,435.8,8750,0.0,0.0,110.0,110.0,433.0,0.00,0,0,1,333.3,73.2,73.2,72.2,72.2,34.0,-28.42,10.49,-18.3,14.3,2,-234.389,2.0,100.0,19.4,19.9,32.5,32.7,0,1,40.1,0.00,0.00,0.00,0.00,4712,2996,4894,3973,313.2,316.2,342.7,344.2,26.84,22.64,25.41,23.74,325.0,325.0,355.0,355.0,100.00,99.81,100.00,99.93,-0.13,-0.04,-0.13,0.04,-0.1,-0.0,1.2,1.3,93.7,67.5,78.6,68.1,104.5,70.3,81.1,69.4,99.5,67.4,79.1,67.1,95.7,66.5,78.7,66.5,0.12,-0.12,0.08,0.06,0.00,114.10,113.86,105.63,105.63,13.4,28.7,0.27748873851023215
0.050,1.9,44.054601124953919,-78.681960283644102,-51.1,-132.5,3.4,-13.1,3518.9,3519,134.1,0,1,1,0,1,1,0,0,0,100,1,1.186,26.0,0.0,-0.03,59.817,66.0,0.0,26.0,26.0,26.0,26.0,-0.11,0.28,-0.29,388.1,-2.72,-2.23,-1.43,-1.02,-739.94,687.53,5.7,0.00,0.00,0.00,0.00,0.00,-7.49,-7.49,-0.37,-3.37,-0.20,-0.25,37.26,-0.04,-0.31,1.54,100.0,0,0,105.97,0,0,0.0,0,0,0,0,7104,0,30.00,3,134.1,1,0,0.0,0.0,0.0,0.0,1,0,0.093,0.093,59.817,21.487,1,110.00,435.8,8750,0.0,0.0,110.0,110.0,433.0,0.00,0,0,1,333.3,83.5,83.5,73.4,73.4,34.0,-9.09,2.53,-27.6,5.2,2,-234.444,2.0,100.0,16.8,13.3,32.7,32.1,0,1,40.1,0.00,0.00,0.00,0.00,2061,1739,4786,4171,320.1,320.1,343.0,343.9,26.84,22.64,25.42,23.74,325.0,325.0,355.0,355.0,100.00,99.81,100.00,99.93,-0.08,-0.13,-0.23,-0.05,-0.0,-0.1,1.3,1.4,93.8,67.5,78.6,68.1,104.4,70.3,81.0,69.4,99.5,67.3,79.1,67.1,95.7,66.4,78.7,66.5,0.11,-0.13,0.07,0.06,0.00,114.13,114.05,105.98,105.98,13.4,28.7,0.41785164831552357,126.03559882348601,42.131900136354155
0.100,3.7,44.054585836486616,-78.681955157510956,4.7,0.4,28.2,-33.1,3520.7,3521,134.5,0,1,1,0,1,1,0,0,0,100,1,1.186,26.0,0.0,-0.03,59.817,66.0,0.0,26.0,26.0,26.0,26.0,-0.18,0.23,-0.15,387.4,-2.07,-2.52,-1.81,-2.25,-739.37,685.83,5.7,0.00,0.00,0.00,0.00,0.00,-7.49,-7.49,-0.63,-6.10,-0.13,4.67,37.37,-0.03,-0.42,1.56,100.0,0,0,106.37,0,0,0.0,0,0,0,0,7131,0,30.00,3,134.5,0,0,0.0,0.0,0.0,0.0,1,0,0.140,0.140,59.817,21.487,0,110.00,435.8,8750,0.0,0.0,110.0,110.0,433.0,0.00,0,0,1,333.3,79.5,79.5,77.4,77.4,34.0,-30.41,4.45,-22.3,9.3,2,-234.489,2.0,100.0,17.1,13.3,34.1,30.4,0,1,40.1,0.00,0.00,0.00,0.00,4704,2284,3662,3095,313.9,318.9,345.5,346.1,26.84,22.64,25.42,23.74,325.0,325.0,355.0,355.0,100.00,99.81,100.00,99.93,-0.24,-0.13,-0.23,-0.09,-0.1,-0.1,1.3,1.5,93.8,67.5,78.6,68.1,104.3,70.2,81.0,69.4,99.4,67.3,79.1,67.1,95.6,66.4,78.7,66.5,0.13,-0.12,0.06,0.07,0.00,114.62,114.36,106.37,106.37,13.4,28.7,0.3283291031876401,126.39570052286722,42.131900136354155,82.8233934182812,21.606103100918972
0.150,5.6,44.054569558765550,-78.681949761581322,84.3,305.7,-217.5,-76.1,3522.6,3523,134.9,0,1,1,0,1,1,0,0,0,100,1,1.186,26.0,0.0,-0.04,59.817,66.0,0.0,26.0,26.0,26.0,26.0,-0.06,0.26,0.14,384.6,-1.61,-2.31,-1.83,-0.92,-738.77,684.02,5.7,0.00,0.00,0.00,0.00,0.01,-7.49,-7.49,-0.72,2.55,0.12,-3.07,37.48,-0.04,-0.44,1.30,100.0,0,0,107.05,0,0,0.0,0,0,0,0,7176,0,30.00,3,134.9,1,0,0.0,0.0,0.0,0.0,1,0,0.193,0.193,59.817,21.487,1,110.00,435.8,8750,0.0,0.0,110.0,110.0,433.0,0.00,0,0,1,166.7,67.0,67.0,74.8,74.8,34.0,-6.50,24.24,-15.4,5.7,2,-234.533,2.0,100.0,21.3,28.6,23.2,26.6,0,1,40.1,0.00,0.00,0.00,0.00,1864,5814,2867,4141,320.0,307.9,347.8,343.9,26.84,22.64,25.41,23.74,325.0,325.0,355.0,355.0,100.00,99.81,100.00,99.93,-0.11,0.00,-0.23,-0.03,-0.0,-0.1,1.6,1.7,93.8,67.5,78.6,68.1,104.2,70.2,81.0,69.4,99.3,67.3,79.0,67.1,95.5,66.4,78.6,66.4,0.12,-0.11,0.10,0.07,0.00,115.03,115.52,107.05,107.05,13.4,28.7,0.3013303834663873,134.31793816531413,44.29251044644605,7.202034272135478,5.690237259159403e-07
0.200,7.5,44.054552291790714,-78.681944095855201,-67.4,-146.7,298.9,-0.8,3524.5,3524,135.4,0,1,1,0,1,1,0,0,0,100,1,1.186,26.0,0.0,-0.04,59.817,66.0,0.0,26.0,26.0,26.0,26.0,-0.11,0.25,0.07,383.0,-2.88,-2.09,-1.10,-1.54,-738.14,682.10,5.7,0.00,0.00,0.00,0.00,0.01,-7.49,-7.49,-0.55,1.70,-0.27,-4.10,37.62,-0.05,-0.31,1.60,100.0,0,0,106.93,0,0,0.0,0,0,0,0,7168,0,30.00,3,135.4,0,0,0.0,0.0,0.0,0.0,1,0,0.247,0.247,59.817,21.487,0,110.00,435.8,8750,0.0,0.0,110.0,110.0,433.0,0.00,0,0,1,166.7,75.2,75.2,62.4,62.4,34.0,-19.17,7.93,-22.8,15.9,2,-234.589,2.0,100.0,17.9,21.3,38.1,26.6,0,1,40.1,0.00,0.00,0.00,0.00,3382,3449,4883,4500,317.0,315.3,342.4,343.0,26.84,22.64,25.42,23.74,325.0,325.0,355.0,355.0,100.00,99.81,100.00,99.93,-0.12,-0.07,-0.17,0.03,-0.0,-0.1,1.1,1.1,93.8,67.5,78.6,68.1,104.1,70.2,80.9,69.3,99.2,67.2,79.0,67.0,95.4,66.3,78.6,66.4,0.12,-0.13,0.06,0.07,0.00,115.55,115.38,106.93,106.93,13.4,28.7,0.2819574435974337,127.11590395008076,42.13190019325653,-104.42949623468834,-32.4091540823548
0.250,9.4,44.054537812712859,-78.681939239518528,44.6,-24.4,-48.2,237.1,3526.4,3526,135.8,0,1,1,0,1,1,0,0,0,100,1,1.186,26.0,0.0,-0.04,59.817,66.0,0.0,26.0,26.0,26.0,26.0,-0.12,0.22,0.01,381.3,-3.00,-2.17,-1.12,-1.75,-737.60,680.49,5.7,0.00,0.00,0.00,0.00,0.01,-7.49,-7.49,-0.55,-0.10,-0.56,-8.45,37.71,-0.07,-0.35,2.05,100.0,0,0,107.55,0,0,0.0,0,0,0,0,7209,0,30.00,3,135.8,1,0,0.0,0.0,0.0,0.0,1,0,0.290,0.290,59.817,21.487,1,110.00,435.8,8750,0.0,0.0,110.0,110.0,433.0,0.00,0,0,1,333.3,73.6,73.6,69.5,69.5,34.0,-27.50,7.60,-19.9,7.0,2,-234.644,2.0,100.0,20.1,20.0,35.7,38.4,0,1,40.1,0.00,0.00,0.00,0.00,4410,3113,4614,3031,314.5,316.4,343.4,346.4,26.85,22.64,25.42,23.74,325.0,325.0,355.0,355.0,100.00,99.81,100.00,99.93,-0.12,-0.06,-0.16,-0.07,-0.1,-0.0,1.3,1.4,93.8,67.5,78.6,68.1,104.1,70.2,80.9,69.3,99.2,67.2,79.0,67.0,95.4,66.3,78.6,66.4,0.12,-0.13,0.06,0.05,0.00,115.86,115.62,107.55,107.54,13.4,28.7,0.25079872407968906,123.8749885418453,41.05159503821057,50.41423933592654,7.202033987623864
0.300,11.3,44.054521355127470,-78.681933843588894,34.7,-68.6,14.5,-151.1,3528.3,3528,136.2,0,1,1,0,1,1,0,0,0,100,1,1.186,26.0,0.0,-0.05,59.817,66.0,0.0,26.0,26.0,26.0,26.0,-0.17,0.20,-0.10,383.9,-2.20,-3.19,-1.57,-1.55,-737.00,678.66,5.7,0.00,0.00,0.00,0.00,0.01,-7.49,-7.49,-0.51,0.14,-0.67,3.73,37.84,-0.07,-0.31,1.86,100.0,0,0,107.69,0,0,0.0,0,0,0,0,7219,0,30.00,3,136.2,0,0,0.0,0.0,0.0,0.0,1,0,0.343,0.343,59.817,21.487,0,110.00,435.8,8750,0.0,0.0,110.0,110.0,433.0,0.00,0,0,1,333.3,76.8,76.8,71.7,71.7,34.0,-25.28,3.80,-38.3,4.7,2,-234.689,1.8,100.0,21.9,16.6,36.5,30.9,0,1,40.1,0.00,0.00,0.00,0.00,4136,1758,5387,3788,315.3,320.2,342.0,345.2,26.85,22.64,25.42,23.74,325.0,325.0,355.0,355.0,100.00,99.81,100.00,99.93,-0.21,-0.17,-0.29,-0.13,-0.1,-0.1,1.2,1.3,93.8,67.5,78.6,68.1,104.0,70.1,80.9,69.3,99.1,67.2,78.9,67.0,95.3,66.3,78.6,66.4,0.10,-0.10,0.07,0.06,0.00,116.16,115.94,107.69,107.69,13.4,28.7,0.2808914381037628,132.15732788367342,42.85210359201891,50.41423933592611,7.20203455664759
0.350,13.2,44.054504807609923,-78.681928537591418,25.6,37.6,-16.7,78.5,3530.2,3530,136.6,0,1,1,0,1,1,0,0,0,100,1,1.186,26.0,0.0,-0.05,59.817,66.0,0.0,26.0,26.0,26.0,26.0,-0.14,0.22,0.18,380.3,-2.67,-2.67,-1.39,-1.55,-736.41,676.82,5.7,0.00,0.00,0.00,0.00,0.01,-7.49,-7.49,-0.56,-0.90,-0.45,3.42,37.95,-0.04,-0.39,1.54,100.0,0,0,107.86,0,0,0.0,0,0,0,0,7231,0,30.00,3,136.6,1,0,0.0,0.0,0.0,0.0,1,0,0.393,0.393,59.817,21.487,1,110.00,435.8,8750,0.0,0.0,110.0,110.0,433.0,0.00,0,0,1,166.7,71.4,71.4,71.8,71.8,34.0,-37.70,7.96,-31.9,7.5,2,-234.744,1.1,100.0,23.2,18.5,35.6,34.8,0,1,40.1,0.00,0.00,0.00,0.00,5318,3090,5186,4157,312.3,315.9,342.2,343.5,26.85,22.64,25.42,23.74,325.0,325.0,355.0,355.0,100.00,99.81,100.00,99.93,-0.20,-0.12,-0.25,-0.10,-0.1,-0.1,1.1,1.2,93.8,67.5,78.6,68.1,103.9,70.1,80.8,69.3,99.0,67.1,78.9,67.0,95.2,66.2,78.5,66.4,0.08,-0.07,0.07,0.05,0.00,116.58,116.34,107.86,107.86,13.4,28.7,0.3168595903550972,128.9164124754379,41.77179849387533,-28.808136804030653,-10.803051550459486
0.400,15.1,44.054489159413983,-78.681923411458257,8.9,4.7,-89.6,-23.8,3532.1,3532,137.0,0,1,1,0,1,1,0,0,0,100,1,1.186,26.0,0.0,-0.06,59.817,66.0,0.0,26.0,26.0,26.0,26.0,-0.11,0.26,0.04,381.6,-2.72,-2.90,-1.73,-0.79,-735.84,675.08,5.7,0.00,0.00,0.00,0.00,0.01,-7.49,-7.49,-0.56,0.91,-0.11,6.29,38.06,-0.03,-0.36,1.11,100.0,0,0,108.28,0,0,0.0,0,0,0,0,7259,0,30.00,3,137.0,0,0,0.0,0.0,0.0,0.0,0,0,0.440,0.440,59.817,21.487,0,110.00,435.8,8750,0.0,0.0,110.0,110.0,433.0,0.00,0,0,1,333.3,71.1,71.1,77.8,77.8,34.0,-26.78,14.67,-21.0,2.1,2,-234.789,0.8,100.0,23.6,18.7,31.1,33.6,0,1,40.1,0.00,0.00,0.00,0.00,4230,4070,3410,5767,315.2,313.6,346.8,339.2,26.85,22.64,25.42,23.74,325.0,325.0,355.0,355.0,100.00,99.81,100.00,99.93,-0.17,-0.07,-0.27,-0.09,-0.1,-0.1,1.2,1.4,93.8,67.5,78.6,68.1,103.8,70.0,80.8,69.3,99.0,67.1,78.9,67.0,95.2,66.2,78.5,66.4,0.06,-0.07,0.08,0.06,0.00,116.84,116.86,108.28,108.28,13.4,28.7,0.2851315485876651,129.27651420327035,41.771798436972965,46.81322262662661,10.803050981435831
0.450,17.0,44.054472521964271,-78.681918105460795,-34.3,100.3,56.8,-17.4,3534.0,3534,137.4,0,1,1,0,1,1,0,0,0,100,1,1.186,26.0,0.0,-0.07,59.817,66.0,0.0,26.0,26.0,26.0,26.0,-0.06,0.17,0.06,381.3,-3.10,-2.11,-1.50,-1.76,-735.25,673.23,5.7,0.00,0.00,0.00,0.00,0.01,-7.49,-7.49,-0.48,2.65,-0.04,-0.22,38.17,-0.01,-0.37,0.69,100.0,0,0,108.90,0,0,0.0,0,0,0,0,7300,0,30.00,3,137.4,1,0,0.0,0.0,0.0,0.0,0,0,0.493,0.493,59.817,21.487,1,110.00,435.8,8750,0.0,0.0,110.0,110.0,433.0,0.00,0,0,1,333.3,68.6,68.6,68.7,68.7,34.0,-31.08,15.95,-19.7,6.8,2,-234.844,0.5,100.0,21.9,23.7,34.0,32.7,0,1,40.1,0.00,0.00,0.00,0.00,5018,4266,4558,2230,313.6,312.9,343.6,348.5,26.85,22.64,25.42,23.74,325.0,325.0,355.0,355.0,100.00,99.81,100.00,99.93,-0.10,0.03,-0.10,0.01,-0.1,-0.0,1.3,1.3,93.8,67.5,78.6,68.1,103.7,70.0,80.8,69.3,98.9,67.1,78.8,67.0,95.1,66.2,78.5,66.4,0.04,-0.02,0.07,0.07,0.00,117.21,117.17,108.90,108.90,13.4,28.7,0.19000000000000003,133.59773473810057,42.85210359201891,46.81322234211393,14.404069113295108
0.500,18.9,44.054455794582402,-78.681912709531147,-151.0,-93.6,36.5,95.6,3535.9,3536,137.9,0,1,1,0,1,1,0,0,0,100,1,1.186,26.0,0.0,-0.08,59.817,66.0,0.0,26.0,26.0,26.0,26.0,-0.01,0.21,-0.19,385.1,-2.29,-2.95,-2.13,-1.22,-734.65,671.37,5.7,0.00,0.00,0.00,0.00,0.01,-7.49,-7.49,-0.40,-1.86,-0.06,-4.59,38.30,-0.01,-0.31,0.04,100.0,0,0,108.84,0,0,0.0,0,0,0,0,7296,0,30.00,3,137.9,0,0,0.0,0.0,0.0,0.0,0,0,0.543,0.543,59.817,21.487,0,110.00,435.8,8750,0.0,0.0,110.0,110.0,433.0,0.00,0,0,1,333.3,82.8,82.8,66.6,66.6,34.0,-3.52,5.35,-22.1,17.7,2,-234.889,0.1,100.0,14.3,19.1,35.8,37.5,0,1,40.1,0.00,0.00,0.00,0.00,1486,1560,4320,4814,321.5,320.0,344.4,341.6,26.85,22.64,25.42,23.74,325.0,325.0,355.0,355.0,100.00,99.81,100.00,99.93,0.04,-0.04,-0.07,0.08,-0.1,-0.0,1.1,1.1,93.8,67.5,78.6,68.1,103.7,70.0,80.7,69.2,98.8,67.0,78.8,67.0,95.0,66.1,78.4,66.3,0.01,-0.01,0.08,0.04,0.00,117.36,117.34,108.84,108.83,13.4,28.7,0.2833725463060951,133.95783643748175,43.212205348302476,-32.4091540823548,-10.803051550459486
0.550,20.8,44.054439067200533,-78.681907313601513,36.2,-48.7,15.4,-83.1,3537.8,3538,138.3,0,1,1,0,1,1,0,0,0,100,1,1.186,26.0,0.0,-0.09,59.817,66.0,0.0,26.0,26.0,26.0,26.0,-0.00,0.22,-0.14,387.0,-1.98,-2.34,-1.24,-1.33,-734.05,669.51,5.7,0.00,0.00,0.00,0.00,0.01,-7.49,-7.49,-0.61,-5.13,-0.38,-3.54,38.41,-0.00,-0.41,0.06,100.0,0,0,109.36,0,0,0.0,0,0,0,0,7331,0,30.00,3,138.3,1,0,0.0,0.0,0.0,0.0,0,0,0.593,0.593,59.817,21.487,1,110.00,435.8,8750,0.0,0.0,110.0,110.0,433.0,0.00,0,0,1,166.7,81.2,81.2,71.0,71.0,34.0,-7.56,6.50,-9.0,9.6,2,-234.944,0.3,100.0,16.2,16.6,36.6,33.4,0,1,40.1,0.00,0.00,0.00,0.00,2596,1916,3398,2872,318.5,319.6,345.6,347.3,26.85,22.64,25.42,23.74,325.0,325.0,355.0,355.0,100.00,99.81,100.00,99.93,-0.00,0.03,-0.02,0.09,0.0,-0.1,1.4,1.3,93.8,67.5,78.6,68.1,103.6,69.9,80.7,69.2,98.7,67.0,78.8,66.9,95.0,66.1,78.4,66.3,0.02,-0.03,0.08,0.07,0.00,117.69,117.60,109.36,109.36,13.4,28.7,0.260768096208106,130.3568193298651,41.771798436972965,-32.409153797842976,-14.404069113295108
0.600,22.7,44.054423239140270,-78.681902277400525,29.7,-37.7,-172.8,-128.6,3539.7,3540,138.6,0,1,1,0,1,1,0,0,0,100,1,1.186,26.0,0.0,-0.09,59.817,66.0,0.0,26.0,26.0,26.0,26.0,0.02,0.24,-0.09,387.6,-2.60,-3.02,-0.97,-1.73,-733.49,667.75,5.7,0.00,0.00,0.00,0.00,0.02,-7.49,-7.49,-0.85,-3.70,-0.43,0.84,38.52,-0.01,-0.40,0.57,100.0,0,0,109.63,0,0,0.0,0,0,0,0,7349,0,30.00,3,138.6,0,0,0.0,0.0,0.0,0.0,0,0,0.643,0.643,59.817,21.487,0,110.00,435.8,8750,0.0,0.0,110.0,110.0,433.0,0.00,0,0,1,333.3,76.0,76.0,82.2,82.2,34.0,-24.69,22.62,-9.0,17.4,2,-234.989,0.3,100.0,17.6,14.7,27.9,26.9,0,1,40.1,0.00,0.00,0.00,0.00,4697,4252,3137,4176,314.1,314.3,347.7,343.6,26.85,22.64,25.42,23.74,325.0,325.0,355.0,355.0,100.00,99.81,100.00,99.93,-0.08,0.06,-0.11,0.07,-0.0,-0.1,1.4,1.5,93.8,67.5,78.6,68.1,103.5,69.9,80.7,69.2,98.6,66.9,78.7,66.9,94.9,66.1,78.3,66.3,0.01,-0.02,0.08,0.08,0.00,118.12,117.98,109.63,109.63,13.4,28.7,0.2570992026436488,130.71692105769745,41.771798436972965,7.202034272135904,3.6010175628356222
0.650,24.7,44.054406421826236,-78.681896881470891,75.4,43.1,-49.1,-1.0,3541.7,3542,139.0,0,1,1,0,1,1,0,0,0,100,1,1.186,26.0,0.0,-0.10,59.817,66.0,0.0,26.0,26.0,26.0,26.0,-0.04,0.26,-0.28,388.3,-1.83,-2.29,-1.52,0.28,-732.89,665.88,5.7,0.00,0.00,0.00,0.00,0.02,-7.49,-7.49,-0.92,-0.22,-0.23,4.87,38.63,-0.00,-0.40,0.55,100.0,0,0,110.28,0,0,0.0,0,0,0,0,7393,0,30.00,3,139.0,1,0,0.0,0.0,0.0,0.0,0,0,0.693,0.693,59.817,21.487,1,110.00,435.8,8750,0.0,0.0,110.0,110.0,433.0,0.00,0,0,1,333.3,76.3,76.3,83.5,83.5,34.0,-9.37,9.90,-15.3,-1.8,2,-235.044,0.1,100.0,21.4,16.9,25.5,26.9,0,1,40.1,0.00,0.00,0.00,0.00,2899,2967,3352,3889,318.2,316.9,346.7,345.0,26.86,22.64,25.42,23.74,325.0,325.0,355.0,355.0,100.00,99.81,100.00,99.93,-0.05,0.00,-0.18,0.00,-0.0,-0.1,1.6,1.7,93.9,67.5,78.6,68.1,103.4,69.9,80.6,69.2,98.6,66.9,78.7,66.9,94.8,66.0,78.3,66.3,0.01,-0.01,0.09,0.07,0.00,118.43,118.47,110.28,110.28,13.4,28.7,0.38418745424597095,131.07702275707868,42.13190019325653,7.202033987624077,3.6010175628356222
0.700,26.6,44.054390503833815,-78.681891755337730,-1.4,24.1,141.9,104.6,3543.6,3544,139.5,0,1,1,0,1,1,0,0,0,100,1,1.186,26.0,0.0,-0.10,59.817,66.0,0.0,26.0,26.0,26.0,26.0,-0.05,0.15,0.14,384.4,-1.84,-2.62,-1.57,-0.94,-732.32,664.11,5.7,0.00,0.00,0.00,0.00,0.02,-7.49,-7.49,-0.92,-0.61,-0.04,4.97,38.74,0.02,-0.41,-0.05,100.0,0,0,110.21,0,0,0.0,0,0,0,0,7388,0,30.00,3,139.5,0,0,0.0,0.0,0.0,0.0,0,0,0.740,0.740,59.817,21.487,0,110.00,435.8,8750,0.0,0.0,110.0,110.0,433.0,0.00,0,0,1,333.3,75.0,75.0,76.0,76.0,34.0,-12.46,11.88,-17.0,7.7,2,-235.089,0.1,100.0,21.3,18.1,32.6,32.1,0,1,40.1,0.00,0.00,0.00,0.00,3397,3051,3615,3215,316.1,316.9,345.7,346.0,26.86,22.64,25.42,23.74,325.0,325.0,355.0,355.0,100.00,99.81,100.00,99.93,-0.05,0.01,-0.13,0.05,-0.0,-0.0,1.1,1.1,93.9,67.5,78.6,68.1,103.3,69.8,80.6,69.2,98.5,66.9,78.7,66.9,94.7,66.0,78.3,66.3,0.01,-0.01,0.08,0.07,0.00,118.94,118.82,110.21,110.21,13.4,28.7,0.21118712081942875,131.43712445645986,42.13190019325653,50.41423962043808,10.803050981435831
0.750,28.5,44.054373596587624,-78.681886359408097,34.6,39.4,-37.8,21.8,3545.5,3546,139.9,0,1,1,0,1,1,0,0,0,100,1,1.186,26.0,0.0,-0.11,59.817,66.0,0.0,26.0,26.0,26.0,26.0,-0.03,0.19,0.14,382.1,-2.10,-2.33,-1.07,-0.83,-731.72,662.23,5.7,0.00,0.00,0.00,0.00,0.02,-7.49,-7.49,-0.88,1.66,0.14,3.23,38.85,0.03,-0.39,-0.02,100.0,0,0,110.56,0,0,0.0,0,0,0,0,7411,0,30.00,3,139.9,1,0,0.0,0.0,0.0,0.0,0,0,0.793,0.793,59.817,21.487,1,110.00,435.8,8750,0.0,0.0,110.0,110.0,433.0,0.00,0,0,1,333.3,70.7,70.7,79.5,79.5,34.0,-21.20,11.06,-9.4,12.7,2,-235.133,0.1,100.0,23.1,20.1,30.7,33.2,0,1,40.1,0.00,0.00,0.00,0.00,4965,3087,3227,4467,313.0,315.7,346.9,342.9,26.86,22.64,25.42,23.74,325.0,325.0,355.0,355.0,100.00,99.81,100.00,99.93,-0.05,0.00,-0.08,0.09,-0.1,-0.0,1.1,1.1,93.9,67.5,78.6,68.1,103.3,69.8,80.6,69.2,98.4,66.8,78.6,66.9,94.7,66.0,78.2,66.3,0.01,-0.01,0.08,0.07,0.00,119.33,119.28,110.56,110.56,13.4,28.7,0.23790754506740638,136.1184467191225,43.21220529140011,50.41423990494991,10.803050981435831
0.800,30.5,44.054356509477110,-78.681880963478463,-19.9,-56.5,-0.7,65.4,3547.5,3547,140.3,0,1,1,0,1,1,0,0,0,100,1,1.186,26.0,0.0,-0.11,59.817,66.0,0.0,26.0,26.0,26.0,26.0,-0.05,0.24,-0.03,383.2,-2.38,-1.87,-1.61,-0.92,-731.12,660.33,5.7,0.00,0.00,0.00,0.00,0.02,-7.49,-7.49,-0.81,-0.07,0.44,5.98,38.97,0.05,-0.33,0.10,100.0,0,0,110.71,0,0,0.0,0,0,0,0,7422,0,30.00,3,140.3,0,0,0.0,0.0,0.0,0.0,0,0,0.843,0.843,59.817,21.487,0,110.00,435.8,8750,0.0,0.0,110.0,110.0,433.0,0.00,0,0,1,166.7,77.2,77.2,75.1,75.1,34.0,-7.03,8.25,-21.7,14.2,2,-235.189,-0.1,100.0,22.1,17.2,30.6,36.5,0,1,40.1,0.00,0.00,0.00,0.00,2219,2744,4723,4925,319.2,318.1,343.1,341.8,26.86,22.64,25.42,23.74,325.0,325.0,355.0,355.0,100.00,99.81,100.00,99.93,0.02,0.04,-0.09,0.07,0.0,-0.1,1.1,1.1,93.9,67.5,78.6,68.1,103.2,69.7,80.5,69.1,98.3,66.8,78.6,66.9,94.6,65.9,78.2,66.3,0.00,-0.01,0.07,0.05,0.00,119.54,119.55,110.71,110.71,13.4,28.7,0.2469817807045694,136.47854844695485,43.21220529140011,3.601016993811754,3.6010169938118963
0.850,32.4,44.054339512298753,-78.681875567548829,-139.1,64.8,72.1,-54.6,3549.4,3549,140.7,0,1,1,0,1,1,0,0,0,100,1,1.186,26.0,0.0,-0.13,59.817,66.0,0.0,26.0,26.0,26.0,26.0,0.03,0.18,-0.09,383.9,-2.85,-1.93,-1.77,-1.54,-730.52,658.44,5.7,0.00,0.00,0.00,0.00,0.02,-7.49,-7.49,-0.92,-2.79,0.55,-1.15,39.08,0.05,-0.38,-0.54,100.0,0,0,111.30,0,0,0.0,0,0,0,0,7461,0,30.00,3,140.7,1,0,0.0,0.0,0.0,0.0,0,0,0.893,0.893,59.817,21.487,1,110.00,435.8,8750,0.0,0.0,110.0,110.0,433.0,0.00,0,0,1,166.7,76.4,76.4,66.6,66.6,34.0,-8.76,19.25,-12.7,17.2,2,-235.244,0.1,100.0,15.1,20.5,34.2,33.8,0,1,40.9,0.00,0.00,0.00,0.00,2409,4346,3889,3619,318.8,312.5,345.7,345.3,26.86,22.64,25.42,23.74,325.0,325.0,355.0,355.0,100.00,99.81,100.00,99.93,0.04,0.10,0.00,0.16,-0.1,-0.1,1.3,1.3,93.9,67.5,78.6,68.1,103.1,69.7,80.5,69.1,98.3,66.8,78.6,66.9,94.5,65.9,78.2,66.2,0.01,-0.02,0.07,0.06,0.00,119.75,119.81,111.30,111.30,13.4,28.7,0.20346989949375802,136.47854841850366,43.5723069907813,-32.40915436686663,-7.202033987623935
0.900,34.4,44.054322425188246,-78.681870081687038,27.3,-11.2,-82.7,-39.8,3551.4,3551,141.1,0,1,1,0,1,1,0,0,0,100,1,1.186,26.0,0.0,-0.13,59.817,66.0,0.0,26.0,26.0,26.0,26.0,0.05,0.25,-0.10,385.3,-2.11,-2.42,-1.26,-1.57,-729.91,656.54,5.7,0.00,0.00,0.00,0.00,0.02,-7.49,-7.49,-1.02,-1.55,0.37,-5.70,39.20,0.03,-0.39,-0.26,100.0,0,0,111.58,0,0,0.0,0,0,0,0,7480,0,30.00,3,141.1,0,0,0.0,0.0,0.0,0.0,1,0,0.943,0.943,59.817,21.487,0,110.00,435.8,8750,0.0,0.0,110.0,110.0,433.0,0.00,0,0,1,166.7,76.9,76.9,75.4,75.4,34.0,-9.54,13.29,-5.4,25.0,2,-235.289,0.1,100.0,16.5,19.9,30.1,31.8,0,1,40.9,0.00,0.00,0.00,0.00,3457,2916,3197,4419,316.9,316.7,346.5,342.8,26.86,22.64,25.42,23.74,325.0,325.0,355.0,355.0,100.00,99.81,100.00,99.93,0.03,0.09,0.05,0.20,-0.1,-0.1,1.3,1.3,93.9,67.5,78.6,68.1,103.0,69.7,80.5,69.1,98.2,66.8,78.5,66.8,94.4,65.9,78.1,66.2,0.01,-0.02,0.09,0.06,0.00,120.24,120.18,111.58,111.58,13.4,28.7,0.2738612787525831,133.23763301026818,42.49200189263772,-68.41932487400953,-21.60610196287159
0.950,36.4,44.054306237399338,-78.681864955553877,66.3,-68.6,12.5,8.8,3553.4,3553,141.5,0,1,1,0,1,1,0,0,0,100,1,1.186,26.0,0.0,-0.13,59.817,66.0,0.0,26.0,26.0,26.0,26.0,0.02,0.23,-0.10,386.3,-3.00,-2.63,-0.61,-2.40,-729.34,654.74,5.6,0.00,0.00,0.00,0.00,0.02,-7.49,-7.49,-1.10,-2.32,0.16,-0.47,39.31,0.02,-0.40,0.53,100.0,0,0,111.76,0,0,0.0,0,0,0,0,7492,0,30.00,3,141.5,1,0,0.0,0.0,0.0,0.0,1,0,0.993,0.993,59.817,21.487,1,110.00,435.8,8750,0.0,0.0,110.0,110.0,433.0,0.00,0,0,1,333.3,79.0,79.0,78.6,78.6,34.0,-11.20,7.15,-7.1,19.2,2,-235.344,0.1,100.0,19.8,16.5,30.7,32.2,0,1,40.9,0.00,0.00,0.00,0.00,2967,1857,3605,3400,317.7,320.2,345.2,345.3,26.86,22.64,25.42,23.74,325.0,325.0,355.0,355.0,100.00,99.81,100.00,99.93,0.05,0.06,-0.06,0.09,-0.0,-0.0,1.2,1.2,93.9,67.5,78.6,68.1,102.9,69.6,80.4,69.1,98.1,66.7,78.5,66.8,94.4,65.8,78.1,66.2,0.00,-0.00,0.07,0.07,0.00,120.55,120.48,111.76,111.76,13.4,28.7,0.2515949125081825,129.6366159311027,41.41169679449414,7.20203427213562,3.6010169938119674
1.000,38.3,44.054290049610429,-78.681859739488559,-58.9,4.9,-7.5,-59.8,3555.3,3555,141.9,0,1,1,0,1,1,0,0,0,100,1,1.186,26.0,0.0,-0.13,59.817,66.0,0.0,26.0,26.0,26.0,26.0,0.02,0.22,-0.20,385.7,-2.76,-1.98,-1.77,-1.65,-728.76,652.94,5.6,0.00,0.00,0.00,0.00,0.02,-7.49,-7.49,-1.24,-3.49,0.23,1.50,39.42,0.00,-0.39,0.31,100.0,0,0,112.16,0,0,0.0,0,0,0,0,7519,0,30.00,3,141.9,0,0,0.0,0.0,0.0,0.0,1,0,1.040,1.040,59.817,21.487,0,110.00,435.8,8750,0.0,0.0,110.0,110.0,433.0,0.00,0,0,1,333.3,77.4,77.4,69.6,69.6,34.0,-8.43,25.43,-25.7,12.4,2,-235.389,0.1,100.0,16.9,16.7,30.4,29.2,0,1,40.1,0.00,0.00,0.00,0.00,2209,5681,4809,3398,320.1,311.3,343.1,346.2,26.86,22.64,25.42,23.74,325.0,325.0,355.0,355.0,100.00,99.81,100.00,99.93,-0.02,0.10,-0.15,0.06,-0.0,-0.1,1.4,1.4,93.9,67.5,78.6,68.1,102.8,69.6,80.4,69.1,98.0,66.7,78.5,66.8,94.3,65.8,78.1,66.2,0.00,-0.01,0.09,0.07,0.00,120.77,120.83,112.16,112.16,13.4,28.7,0.2979932885150268,133.95783643748175,42.85210359201891,126.03559848207169,39.61118750095501
1.050,40.3,44.054272782635600,-78.681854253626767,256.6,188.8,-28.4,-23.0,3557.3,3557,142.3,0,1,1,0,1,1,0,0,0,100,1,1.186,26.0,0.0,-0.14,59.817,66.0,0.0,26.0,26.0,26.0,26.0,-0.05,0.22,0.19,380.3,-2.14,-2.09,-1.68,-1.70,-728.15,651.02,5.6,0.00,0.00,0.00,0.00,0.03,-7.49,-7.49,-1.22,4.74,0.25,1.25,39.52,0.01,-0.46,0.32,100.0,0,0,112.81,0,0,0.0,0,0,0,0,7562,0,30.00,3,142.3,1,0,0.0,0.0,0.0,0.0,1,0,1.093,1.093,59.817,21.487,1,110.00,435.8,8750,0.0,0.0,110.0,110.0,433.0,0.00,0,0,1,333.3,63.6,63.6,79.7,79.7,34.0,-22.82,13.02,-14.2,14.2,2,-235.444,0.3,100.0,29.7,26.2,28.9,28.1,0,1,40.9,0.00,0.00,0.00,0.00,4678,3660,3489,3510,313.3,314.4,346.2,345.6,26.86,22.64,25.42,23.74,325.0,325.0,355.0,355.0,100.00,99.81,100.00,99.93,-0.09,0.02,-0.08,0.08,0.0,-0.1,1.4,1.4,93.9,67.5,78.6,68.1,102.7,69.6,80.4,69.0,97.9,66.7,78.4,66.8,94.2,65.8,78.0,66.2,0.04,-0.01,0.07,0.07,0.00,121.60,121.37,112.81,112.81,13.4,28.7,0.2949576240750525,142.24017577930988,45.37281554458964,46.81322262662633,14.404068544271382
1.100,42.3,44.054254526407000,-78.681848408036331,-129.0,-73.1,132.7,260.9,3559.3,3559,142.8,0,1,1,0,1,1,0,0,0,100,1,1.186,26.0,0.0,-0.14,59.817,66.0,0.0,26.0,26.0,26.0,26.0,-0.04,0.22,0.31,374.8,-2.32,-2.78,-1.06,-1.36,-727.50,648.99,5.6,0.00,0.00,0.00,0.00,0.03,-7.49,-7.49,-0.95,3.47,0.26,-2.31,39.66,-0.01,-0.30,0.34,100.0,0,0,112.42,0,0,0.0,0,0,0,0,7537,0,30.00,3,142.8,0,0,0.0,0.0,0.0,0.0,1,0,1.147,1.147,59.817,21.487,0,110.00,435.8,8750,0.0,0.0,110.0,110.0,433.0,0.00,0,0,1,166.7,69.5,69.5,62.8,62.8,34.0,-16.45,22.24,-31.5,24.1,2,-235.489,-0.1,100.0,23.2,22.5,35.6,41.1,0,1,40.9,0.00,0.00,0.00,0.00,4142,4316,6869,5581,314.9,313.2,338.3,339.9,26.87,22.64,25.42,23.74,325.0,325.0,355.0,355.0,100.00,99.81,100.00,99.93,-0.02,0.06,-0.14,0.09,-0.1,-0.0,0.9,0.9,93.9,67.5,78.6,68.1,102.7,69.6,80.3,69.0,97.9,66.6,78.4,66.8,94.2,65.7,78.0,66.2,0.02,-0.01,0.07,0.05,0.00,121.75,121.77,112.43,112.42,13.4,28.7,0.38223029707232786,138.63915870014438,44.29251044644605,-68.4193248740101,-21.606102531895317
1.150,44.3,44.054238158753769,-78.681843191971012,-52.2,-41.9,112.4,-51.7,3561.3,3561,143.1,0,1,1,0,1,1,0,0,0,100,1,1.186,26.0,0.0,-0.16,59.817,66.0,0.0,26.0,26.0,26.0,26.0,-0.05,0.30,-0.16,379.3,-3.24,-1.92,-0.92,-1.42,-726.92,647.17,5.6,0.00,0.00,0.00,0.00,0.03,-7.49,-7.49,-0.84,1.32,0.32,2.57,39.76,0.00,-0.30,0.26,100.0,0,0,113.06,0,0,0.0,0,0,0,0,7579,0,30.00,3,143.1,1,0,0.0,0.0,0.0,0.0,1,0,1.193,1.193,59.817,21.487,1,110.00,435.8,8750,0.0,0.0,110.0,110.0,433.0,0.00,0,0,1,166.7,77.0,77.0,62.6,62.6,34.0,-15.37,4.41,-15.6,14.8,2,-235.544,-0.2,100.0,20.6,20.4,41.2,38.5,0,1,40.9,0.00,0.00,0.00,0.00,3194,2316,4944,4664,318.2,319.7,341.8,342.2,26.87,22.64,25.42,23.74,325.0,325.0,355.0,355.0,100.00,99.81,100.00,99.93,-0.03,-0.04,-0.08,0.02,-0.0,0.0,1.1,1.2,93.9,67.5,78.6,68.1,102.6,69.5,80.3,69.0,97.8,66.6,78.4,66.8,94.1,65.7,78.0,66.1,-0.01,0.00,0.06,0.05,0.00,121.87,121.89,113.06,113.06,13.4,28.7,0.34365680554879163,135.39824329190887,43.21220529140011,10.803051265947659,0.0
1.200,46.3,44.054220711914617,-78.681837616177063,-127.2,-79.8,-26.8,48.3,3563.3,3563,143.6,0,1,1,0,1,1,0,0,0,100,1,1.186,26.0,0.0,-0.16,59.817,66.0,0.0,26.0,26.0,26.0,26.0,0.01,0.17,-0.09,382.1,-3.34,-1.72,-2.31,-1.66,-726.30,645.23,5.5,0.00,0.00,0.00,0.00,0.03,-7.49,-7.49,-0.93,-5.82,0.38,-1.69,39.88,0.01,-0.33,-0.11,100.0,0,0,113.11,0,0,0.0,0,0,0,0,7582,0,30.00,3,143.6,0,0,0.0,0.0,0.0,0.0,1,0,1.243,1.243,59.817,21.487,0,110.00,435.8,8750,0.0,0.0,110.0,110.0,433.0,0.00,0,0,1,166.7,81.8,81.8,61.1,61.1,34.0,-4.99,15.28,-21.4,21.0,2,-235.589,-0.2,100.0,14.3,16.4,39.9,40.9,0,1,40.9,0.00,0.00,0.00,0.00,1412,4117,4111,4713,322.2,314.8,344.2,342.2,26.87,22.64,25.42,23.74,325.0,325.0,355.0,355.0,100.00,99.81,100.00,99.93,0.01,0.09,-0.03,0.07,0.0,-0.0,1.0,1.0,93.9,67.5,78.6,68.1,102.5,69.5,80.3,69.0,97.7,66.6,78.3,66.8,94.0,65.7,77.9,66.1,-0.01,0.01,0.06,0.05,0.00,122.11,122.13,113.11,113.11,13.4,28.7,0.19261360284258225,139.71946382673914,44.29251044644605,3.6010172783235816,5.690236548616667e-07
1.250,48.3,44.054203265075458,-78.681832130315257,28.6,15.7,-132.7,-238.7,3565.3,3565,143.9,0,1,1,0,1,1,0,0,0,100,1,1.186,26.0,0.0,-0.17,59.817,66.0,0.0,26.0,26.0,26.0,26.0,0.00,0.21,-0.36,387.6,-2.60,-2.14,-1.47,-1.16,-725.69,643.29,5.5,0.00,0.00,0.00,0.00,0.03,-7.49,-7.49,-1.21,-4.92,0.15,-1.40,39.98,0.02,-0.42,-0.06,100.0,0,0,114.02,0,0,0.0,0,0,0,0,7644,0,30.00,3,143.9,1,0,0.0,0.0,0.0,0.0,1,0,1.297,1.297,59.817,21.487,1,110.00,435.8,8750,0.0,0.0,110.0,110.0,433.0,0.00,0,0,1,166.7,79.8,79.8,74.9,74.9,34.0,-11.50,9.01,-8.6,10.2,2,-235.644,-0.2,100.0,15.7,17.2,33.2,29.0,0,1,40.1,0.00,0.00,0.00,0.00,3170,2521,3173,3247,317.5,318.4,347.2,346.5,26.87,22.64,25.42,23.74,325.0,325.0,355.0,355.0,100.00,99.81,100.00,99.93,0.02,0.06,-0.02,0.10,-0.0,-0.1,1.5,1.5,93.9,67.5,78.6,68.1,102.4,69.4,80.2,69.0,97.6,66.5,78.3,66.7,93.9,65.6,77.9,66.1,-0.01,0.01,0.08,0.07,0.00,122.49,122.41,114.03,114.02,13.4,28.7,0.4167733196834941,135.75834501974123,43.212205348302476,-79.2223764244693,-21.606103100918972
1.300,50.3,44.054186807490069,-78.681826824317781,93.0,33.7,-107.0,20.4,3567.3,3567,144.3,0,1,1,0,1,1,0,0,0,100,1,1.186,26.0,0.0,-0.17,59.817,66.0,0.0,26.0,26.0,26.0,26.0,0.07,0.17,0.09,383.8,-0.84,-2.72,-0.95,-1.14,-725.10,641.46,5.5,0.00,0.00,0.00,0.00,0.03,-7.49,-7.49,-1.38,-2.06,0.04,-3.14,40.09,0.02,-0.47,-0.62,100.0,0,0,114.16,0,0,0.0,0,0,0,0,7653,0,30.00,3,144.3,0,0,0.0,0.0,0.0,0.0,1,0,1.343,1.343,59.817,21.487,0,110.00,435.8,8750,0.0,0.0,110.0,110.0,433.0,0.00,0,0,1,166.7,70.4,70.4,78.3,78.3,34.0,-9.30,32.58,-7.5,9.0,2,-235.689,-0.8,100.0,20.3,18.9,27.9,30.0,0,1,40.9,0.00,0.00,0.00,0.00,5138,5049,3799,2541,312.5,311.4,345.3,348.4,26.87,22.64,25.42,23.73,325.0,325.0,355.0,355.0,100.00,99.81,100.00,99.93,-0.03,0.16,-0.02,0.16,-0.1,-0.1,1.3,1.3,93.9,67.5,78.6,68.1,102.3,69.4,80.2,69.0,97.6,66.5,78.3,66.7,93.9,65.6,77.9,66.1,-0.03,0.03,0.09,0.08,0.00,123.11,122.99,114.16,114.16,13.4,28.7,0.20469489490458723,131.7972261842922,42.131900136354155,7.202033987624361,3.6010164247882415
1.350,52.3,44.054170349904680,-78.681821608252477,241.0,150.7,2.3,-45.8,3569.3,3569,144.7,0,1,1,0,1,1,0,0,0,100,1,1.186,26.0,0.0,-0.17,59.817,66.0,0.0,26.0,26.0,26.0,26.0,0.05,0.16,0.25,378.3,-2.41,-3.52,-0.91,-1.57,-724.52,639.63,5.5,0.00,0.00,0.00,0.00,0.03,-7.49,-7.49,-1.20,8.41,0.18,6.96,40.19,0.03,-0.45,-0.46,100.0,0,0,114.67,0,0,0.0,0,0,0,0,7687,0,30.00,3,144.7,1,0,0.0,0.0,0.0,0.0,1,0,1.393,1.393,59.817,21.487,1,110.00,435.8,8750,0.0,0.0,110.0,110.0,433.0,0.00,0,0,1,166.7,58.9,58.9,82.8,82.8,34.0,-26.78,35.73,-7.2,16.7,2,-235.733,-1.7,100.0,32.4,26.4,28.0,27.7,0,1,40.1,0.00,0.00,0.00,0.00,6048,4980,2773,4190,310.4,311.2,347.7,343.8,26.87,22.64,25.42,23.73,325.0,325.0,355.0,355.0,100.00,99.81,100.00,99.93,-0.02,0.12,-0.08,0.07,-0.0,-0.1,1.2,1.2,93.9,67.5,78.6,68.1,102.3,69.4,80.2,69.0,97.5,66.5,78.2,66.7,93.8,65.6,77.8,66.1,-0.06,0.11,0.08,0.07,0.00,123.60,123.64,114.67,114.67,13.4,28.7,0.3009983388658482,136.47854841850366,43.5723069907813,54.015256614250404,18.005086107107147
1.400,54.3,44.054152723201206,-78.681815942526356,-55.0,44.5,287.2,320.7,3571.3,3571,145.1,0,1,1,0,1,1,0,0,0,100,1,1.186,26.0,0.0,-0.18,59.817,66.0,0.0,26.0,26.0,26.0,26.0,0.04,0.19,0.47,370.9,-3.34,-2.51,-2.57,-1.85,-723.89,637.67,5.5,0.00,0.00,0.00,0.00,0.03,-7.49,-7.49,-0.65,10.18,0.53,6.07,40.30,0.04,-0.28,-0.90,100.0,0,0,114.60,0,0,0.0,0,0,0,0,7682,0,30.00,3,145.1,0,0,0.0,0.0,0.0,0.0,0,0,1.443,1.443,59.817,21.487,0,110.00,435.8,8750,0.0,0.0,110.0,110.0,433.0,0.00,0,0,1,333.3,65.5,65.5,55.4,55.4,34.0,-6.17,26.53,-37.5,36.6,2,-235.789,-1.8,100.0,29.6,28.7,42.4,43.8,0,1,40.9,0.00,0.00,0.00,0.00,1872,4623,5593,6332,319.9,312.4,341.1,338.4,26.87,22.64,25.42,23.74,325.0,325.0,355.0,355.0,100.00,99.81,100.00,99.93,0.11,0.13,-0.07,0.10,0.1,-0.0,0.9,0.8,93.9,67.5,78.6,68.1,102.2,69.4,80.1,68.9,97.4,66.5,78.2,66.7,93.7,65.6,77.8,66.1,-0.08,0.12,0.05,0.05,0.00,123.85,124.04,114.60,114.60,13.4,28.7,0.5085272854036448,137.19875184571725,43.93240874706487,7.202034272135904,0.0
1.450,56.3,44.054136085751495,-78.681810636528880,-210.3,-100.9,92.4,114.5,3573.3,3573,145.5,0,1,1,0,1,1,0,0,0,100,1,1.186,26.0,0.0,-0.18,59.817,66.0,0.0,26.0,26.0,26.0,26.0,0.10,0.24,0.39,372.4,-2.66,-2.64,-2.13,-1.55,-723.30,635.82,5.5,0.00,0.00,0.00,0.00,0.03,-7.49,-7.49,-0.36,1.63,0.63,-1.12,40.41,0.05,-0.22,-1.05,100.0,0,0,114.50,0,0,0.0,0,0,0,0,7676,0,30.00,3,145.5,1,0,0.0,0.0,0.0,0.0,0,0,1.490,1.490,59.817,21.487,1,110.00,435.8,8750,0.0,0.0,110.0,110.0,433.0,0.00,0,0,1,166.7,75.8,75.8,46.7,46.7,34.0,-3.24,18.02,-28.7,41.2,2,-235.833,-0.9,100.0,19.1,23.6,47.0,49.5,0,1,40.9,0.00,0.00,0.00,0.00,1567,3449,6475,6968,321.7,314.8,338.3,336.0,26.87,22.64,25.42,23.74,325.0,325.0,355.0,355.0,100.00,99.81,100.00,99.93,0.11,0.09,0.04,0.14,0.0,-0.0,0.9,0.8,93.9,67.5,78.6,68.1,102.1,69.3,80.1,68.9,97.4,66.4,78.2,66.7,93.7,65.5,77.8,66.1,-0.06,0.06,0.04,0.03,0.00,123.94,124.12,114.51,114.50,13.4,28.7,0.4687216658103186,137.19875184571725,43.5723069907813,43.212205063790634,10.803050981435831
1.500,58.4,44.054118459048020,-78.681805060734931,48.9,-8.8,-142.4,-105.4,3575.3,3575,145.8,0,1,1,0,1,1,0,0,0,100,1,1.186,26.0,0.0,-0.19,59.817,66.0,0.0,26.0,26.0,26.0,26.0,0.04,0.22,0.11,376.5,-2.73,-3.49,-2.45,-1.73,-722.68,633.86,5.5,0.00,0.00,0.00,0.00,0.04,-7.49,-7.49,-0.42,-0.21,0.50,-4.63,40.51,0.05,-0.34,-0.41,100.0,0,0,115.23,0,0,0.0,0,0,0,0,7725,0,30.00,3,145.8,0,0,0.0,0.0,0.0,0.0,0,0,1.543,1.543,59.817,21.487,0,110.00,435.8,8750,0.0,0.0,110.0,110.0,433.0,0.00,0,0,1,333.3,70.3,70.3,62.1,62.1,34.0,-17.30,23.71,-20.7,22.4,2,-235.889,1.7,100.0,21.6,23.2,39.8,44.2,0,1,40.9,0.00,0.00,0.00,0.00,3996,4065,4924,4179,315.5,313.3,342.9,343.9,26.87,22.64,25.42,23.74,325.0,325.0,355.0,355.0,100.00,99.81,100.00,99.93,-0.00,0.03,0.06,0.15,-0.0,-0.0,1.2,1.1,94.0,67.5,78.6,68.1,102.0,69.3,80.1,68.9,97.3,66.4,78.2,66.7,93.6,65.5,77.7,66.1,0.08,-0.08,0.06,0.05,0.00,124.26,124.28,115.23,115.23,13.4,28.7,0.24919871588754225,141.51997235209632,45.01271384520845,50.414239335926254,21.606103100919043
1.550,60.4,44.054100742412388,-78.681799395008809,58.8,-10.1,-23.6,-153.4,3577.4,3577,146.2,0,1,1,0,1,1,0,0,0,100,1,1.186,26.0,0.0,-0.19,59.817,66.0,0.0,26.0,26.0,26.0,26.0,-0.07,0.23,0.25,376.8,-2.63,-2.98,-1.90,-1.70,-722.05,631.89,5.5,0.00,0.00,0.00,0.00,0.04,-7.49,-7.49,-0.37,1.75,0.38,1.43,40.62,0.05,-0.37,1.05,100.0,0,0,115.28,0,0,0.0,0,0,0,0,7728,0,30.00,3,146.2,1,0,0.0,0.0,0.0,0.0,0,0,1.593,1.593,59.817,21.487,1,110.00,435.8,8750,0.0,0.0,110.0,110.0,433.0,0.00,0,0,1,333.3,68.6,68.6,65.3,65.3,34.0,-33.86,10.03,-26.6,28.2,2,-235.944,4.8,100.0,24.5,22.7,38.7,36.6,0,1,40.9,0.00,0.00,0.00,0.00,4923,3486,5537,5362,313.0,315.2,341.1,340.8,26.87,22.64,25.42,23.74,325.0,325.0,355.0,355.0,100.00,99.81,100.00,99.93,-0.19,-0.13,-0.04,0.12,-0.1,-0.0,1.0,1.0,94.0,67.5,78.6,68.1,102.0,69.3,80.0,68.9,97.2,66.4,78.1,66.7,93.5,65.5,77.7,66.0,0.26,-0.25,0.07,0.06,0.00,124.72,124.65,115.28,115.28,13.4,28.7,0.3468429039204925,142.24017577930988,45.732917300873204,-32.40915351333143,-7.202033987624006
1.600,62.4,44.054082935844590,-78.681793639350531,-18.6,61.7,-3.3,-11.1,3579.4,3579,146.6,0,1,1,0,1,1,0,0,0,100,1,1.186,26.0,0.0,-0.20,59.817,66.0,0.0,26.0,26.0,26.0,26.0,-0.10,0.23,0.13,378.4,-1.78,-2.39,-1.20,-2.50,-721.41,629.91,5.5,0.00,0.00,0.00,0.00,0.04,-7.49,-7.49,-0.26,2.89,0.30,-3.53,40.72,0.02,-0.38,2.82,100.0,0,0,115.75,0,0,0.0,0,0,0,0,7759,0,30.00,3,146.6,0,0,0.0,0.0,0.0,0.0,0,0,1.643,1.643,59.817,21.487,0,110.00,435.8,8750,0.0,0.0,110.0,110.0,433.0,0.00,0,0,1,166.7,70.5,70.5,61.3,61.3,34.0,-18.79,-0.08,-23.1,26.1,2,-235.989,7.9,100.0,23.6,25.8,38.5,36.0,0,1,40.1,0.00,0.00,0.00,0.00,3050,2983,5653,4486,317.2,316.2,340.6,343.2,26.87,22.64,25.42,23.74,325.0,325.0,355.0,355.0,100.00,99.81,100.00,99.93,-0.29,-0.28,-0.10,0.07,-0.0,-0.0,1.0,1.2,94.0,67.5,78.6,68.1,101.9,69.3,80.0,68.9,97.1,66.4,78.1,66.7,93.5,65.5,77.7,66.0,0.44,-0.44,0.06,0.05,0.00,125.08,124.88,115.75,115.75,13.4,28.7,0.2824889378365107,138.27905700076317,44.29251044644605,-36.010170791655014,-21.606102531895388
1.650,64.5,44.054066208462714,-78.681788333353055,-33.9,-33.1,21.2,46.9,3581.5,3581,146.9,0,1,1,0,1,1,0,0,0,100,1,1.186,26.0,0.0,-0.20,59.817,66.0,0.0,26.0,26.0,26.0,26.0,-0.24,0.19,0.35,376.0,-3.52,-2.58,-1.34,-1.98,-720.82,628.05,5.5,0.00,0.00,0.00,0.00,0.04,-7.49,-7.49,-0.21,0.83,0.11,-7.65,40.82,-0.02,-0.41,4.76,100.0,0,0,115.79,0,0,0.0,0,0,0,0,7762,0,30.00,3,146.9,1,0,0.0,0.0,0.0,0.0,0,0,1.693,1.693,59.817,21.487,1,110.00,435.8,8750,0.0,0.0,110.0,110.0,433.0,0.00,0,0,1,333.3,67.9,67.9,61.2,61.2,34.0,-49.78,-2.62,-28.5,22.3,2,-236.044,10.4,100.0,21.9,24.1,39.6,38.3,0,1,40.1,0.00,0.00,0.00,0.00,4657,4786,5137,5729,313.7,311.2,342.2,339.6,26.87,22.64,25.42,23.74,325.0,325.0,355.0,355.0,100.00,99.81,100.00,99.93,-0.45,-0.34,-0.19,-0.03,-0.1,-0.0,0.8,1.1,94.0,67.5,78.6,68.1,101.8,69.2,80.0,68.9,97.1,66.3,78.1,66.6,93.4,65.4,77.7,66.0,0.58,-0.58,0.07,0.05,0.00,125.47,125.13,115.79,115.79,13.4,28.7,0.4649731175025068,138.63915870014438,43.572307047683665,10.8030509814364,-10.803051550459415
1.700,66.5,44.054048311962759,-78.681782757559091,207.0,108.5,-14.2,-161.8,3583.5,3584,147.2,0,1,1,0,1,1,0,0,0,100,1,1.186,26.0,0.0,-0.20,59.817,66.0,0.0,26.0,26.0,26.0,26.0,-0.36,0.26,0.43,373.7,-2.29,-3.36,-0.39,-1.89,-720.20,626.06,5.5,0.00,0.00,0.00,0.00,0.04,-7.49,-7.49,0.02,9.23,-0.31,-6.21,40.90,-0.11,-0.40,7.86,100.0,0,0,116.43,0,0,0.0,0,0,0,0,7805,0,30.00,3,147.2,0,0,0.0,0.0,0.0,0.0,0,0,1.743,1.743,59.817,21.487,0,110.00,435.8,8750,0.0,0.0,110.0,110.0,433.0,0.00,0,0,1,333.3,58.0,58.0,62.5,62.5,34.0,-64.18,1.83,-37.6,4.2,2,-236.089,10.3,100.0,32.2,29.5,38.9,30.3,0,1,40.9,0.00,0.00,0.00,0.00,6326,5007,5946,4785,310.4,311.0,339.7,342.8,26.88,22.64,25.42,23.74,325.0,325.0,355.0,355.0,100.00,99.81,100.00,99.93,-0.49,-0.36,-0.38,-0.22,-0.0,-0.0,0.9,1.4,94.0,67.5,78.6,68.1,101.8,69.2,80.0,68.9,97.0,66.3,78.0,66.6,93.3,65.4,77.6,66.0,0.61,-0.59,0.06,0.07,0.00,126.18,125.49,116.43,116.43,13.4,28.7,0.6181423784210236,139.35936209890681,43.21220529140011,54.015256614250404,7.202033418600209
1.750,68.6,44.054031404716568,-78.681777541493787,89.4,-59.8,155.4,206.8,3585.6,3586,147.6,0,1,1,0,1,1,0,0,0,100,1,1.186,26.0,0.0,-0.21,59.817,66.0,0.0,26.0,26.0,26.0,26.0,-0.53,0.18,0.63,368.1,-2.60,-4.15,-1.58,-2.16,-719.62,624.18,5.5,0.00,0.00,0.00,0.00,0.04,-7.49,-7.49,0.54,11.06,-0.44,0.90,40.99,-0.16,-0.29,8.04,100.0,0,0,116.43,0,0,0.0,0,0,0,0,7805,0,30.00,3,147.6,1,0,0.0,0.0,0.0,0.0,0,0,1.790,1.790,59.817,21.487,1,110.00,435.8,8750,0.0,0.0,110.0,110.0,433.0,0.00,0,0,1,166.7,58.6,58.6,58.1,58.1,34.0,-74.65,0.06,-89.6,-7.1,2,-236.133,8.8,100.0,36.7,26.5,46.6,40.6,0,1,40.1,0.00,0.00,0.00,0.00,6535,3381,7503,6083,309.1,315.3,336.3,338.6,26.88,22.64,25.42,23.74,325.0,325.0,355.0,355.0,100.00,99.81,100.00,99.93,-0.54,-0.47,-0.56,-0.42,-0.0,-0.0,0.5,1.2,94.0,67.5,78.6,68.1,101.7,69.2,79.9,68.9,97.0,66.3,78.0,66.6,93.3,65.4,77.6,66.0,0.55,-0.53,0.05,0.04,0.00,126.50,125.83,116.43,116.42,13.4,28.7,0.8427336471270149,144.04068436156942,44.292510389543686,50.4142396204378,3.601017562835551
1.800,70.6,44.054012339098520,-78.681771695903350,-323.5,-197.8,159.1,86.2,3587.6,3588,147.9,0,1,1,0,1,1,0,0,0,100,1,1.186,26.0,0.0,-0.21,59.817,66.0,0.0,26.0,26.0,26.0,26.0,-0.40,0.17,0.01,376.6,-2.45,-2.30,-1.20,-2.14,-718.97,622.06,5.6,0.00,0.00,0.00,0.00,0.04,-7.49,-7.49,0.88,0.07,-0.35,3.83,41.10,-0.18,-0.22,5.02,100.0,0,0,116.58,0,0,0.0,0,0,0,0,7815,0,30.00,3,147.9,0,0,0.0,0.0,0.0,0.0,0,0,1.843,1.843,59.817,21.487,0,110.00,435.8,8750,0.0,0.0,110.0,110.0,433.0,0.00,0,0,1,166.7,81.3,81.3,46.1,46.1,34.0,-24.70,-1.97,-87.3,-7.0,2,-236.189,7.2,100.0,20.5,16.7,54.6,44.9,0,1,40.9,0.00,0.00,0.00,0.00,2766,702,8206,5494,318.3,322.9,334.4,340.8,26.88,22.64,25.42,23.74,325.0,325.0,355.0,355.0,100.00,99.81,100.00,99.93,-0.52,-0.63,-0.51,-0.43,-0.0,0.0,0.7,1.0,94.0,67.5,78.6,68.1,101.6,69.2,79.9,68.9,96.9,66.3,78.0,66.6,93.2,65.4,77.6,66.0,0.44,-0.45,0.04,0.02,0.00,126.25,125.73,116.58,116.58,13.4,28.7,0.4347413023856832,144.4007860609506,43.572307047683665,-75.62135943065755,-39.61118750095508
1.850,72.7,44.053995341920171,-78.681766659702348,-174.1,-172.2,-264.3,-37.5,3589.7,3590,148.3,0,1,1,0,1,1,0,0,0,100,1,1.186,26.0,0.0,-0.21,59.817,66.0,0.0,26.0,26.0,26.0,26.0,-0.21,0.18,-0.39,389.1,-2.02,-2.26,-1.50,-1.73,-718.41,620.17,5.6,0.00,0.00,0.00,0.00,0.04,-7.49,-7.49,0.54,-11.40,-0.04,3.71,41.19,-0.17,-0.36,2.82,100.0,0,0,116.98,0,0,0.0,0,0,0,0,7842,0,30.00,3,148.3,1,0,0.0,0.0,0.0,0.0,0,0,1.893,1.893,59.817,21.487,1,110.00,435.8,8750,0.0,0.0,110.0,110.0,433.0,0.00,0,0,1,333.3,90.4,90.4,70.3,70.3,34.0,-10.43,-3.37,-22.1,-4.4,2,-236.244,6.7,100.0,11.8,8.0,41.4,43.0,0,1,40.9,0.00,0.00,0.00,0.00,1364,1240,3097,4462,321.6,321.5,347.2,343.1,26.88,22.64,25.42,23.74,325.0,325.0,355.0,355.0,100.00,99.81,100.00,99.93,-0.59,-0.56,-0.39,-0.35,-0.0,-0.0,1.1,1.4,94.0,67.5,78.6,68.1,101.6,69.1,79.9,68.9,96.8,66.2,78.0,66.6,93.2,65.3,77.6,66.0,0.40,-0.38,0.06,0.03,0.00,126.00,125.78,116.98,116.98,13.4,28.7,0.4781213235152768,136.47854841850366,40.33139163944818,-32.40915408235509,-21.6061031009189
1.900,74.7,44.053978254809657,-78.681761623501359,-3.7,125.6,-294.6,-418.3,3591.7,3592,148.5,0,1,1,0,1,1,0,0,0,100,1,1.186,26.0,0.0,-0.21,59.817,66.0,0.0,26.0,26.0,26.0,26.0,-0.21,0.12,-0.47,396.4,-1.51,-2.26,-1.81,-1.08,-717.85,618.27,5.6,0.00,0.00,0.00,0.00,0.05,-7.49,-7.49,-0.02,-9.62,-0.05,-2.73,41.25,-0.17,-0.53,3.57,100.0,0,0,118.38,0,0,0.0,0,0,0,0,7936,0,30.00,3,148.5,0,0,0.0,0.0,0.0,0.0,1,0,1.940,1.940,59.817,21.487,0,110.00,435.8,8750,0.0,0.0,110.0,110.0,433.0,0.00,0,0,1,333.3,82.0,82.0,82.1,82.1,34.0,-21.24,-6.75,-10.6,-1.1,2,-236.289,6.6,100.0,11.6,14.3,26.6,22.1,0,1,40.1,0.00,0.00,0.00,0.00,2701,3682,1797,1211,318.6,314.7,350.3,351.7,26.88,22.64,25.42,23.74,325.0,325.0,355.0,355.0,100.00,99.81,100.00,99.93,-0.54,-0.41,-0.40,-0.29,-0.1,-0.1,2.1,2.2,94.0,67.5,78.6,68.1,101.5,69.1,79.9,68.8,96.8,66.2,78.0,66.6,93.1,65.3,77.5,66.0,0.39,-0.39,0.09,0.08,0.00,126.31,126.14,118.38,118.38,13.4,28.7,0.5285830114561004,141.15987065271509,41.411696737591775,93.626444684229,18.00508553808349
1.950,76.8,44.053960088513222,-78.681756317503883,361.9,229.7,-106.3,-114.3,3593.8,3594,148.8,0,1,1,0,1,1,0,0,0,100,1,1.186,26.0,0.0,-0.22,59.817,66.0,0.0,26.0,26.0,26.0,26.0,-0.32,0.25,0.16,386.2,-2.07,-2.99,-0.93,-0.84,-717.26,616.25,5.7,0.00,0.00,0.00,0.00,0.05,-7.49,-7.49,-0.17,4.24,-0.26,-4.27,41.34,-0.20,-0.57,6.90,100.0,0,0,118.49,0,0,0.0,0,0,0,0,7943,0,30.00,3,148.8,1,0,0.0,0.0,0.0,0.0,1,0,1.993,1.993,59.817,21.487,1,110.00,435.8,8750,0.0,0.0,110.0,110.0,433.0,0.00,0,0,1,166.7,60.1,60.1,88.2,88.2,34.0,-62.37,1.07,-22.7,-6.0,2,-236.333,6.3,100.0,29.7,25.8,21.3,16.4,0,1,40.1,0.00,0.00,0.00,0.00,6244,4881,3171,3071,310.1,310.9,347.2,346.8,26.88,22.64,25.42,23.74,325.0,325.0,355.0,355.0,100.00,99.81,100.00,99.93,-0.49,-0.33,-0.56,-0.34,-0.0,-0.1,1.8,2.3,94.0,67.5,78.6,68.1,101.4,69.1,79.8,68.8,96.7,66.2,77.9,66.6,93.0,65.3,77.5,65.9,0.39,-0.37,0.09,0.10,0.00,127.31,126.79,118.49,118.49,13.4,28.7,0.4364630568559039,145.84119288692656,42.13190019325653,54.01525689876195,3.6010169938118963
2.000,78.9,44.053941832284622,-78.681751101438564,57.2,-48.7,282.3,229.6,3595.9,3596,149.2,0,1,1,0,1,1,0,0,0,100,1,1.186,26.0,0.0,-0.22,59.817,66.0,0.0,26.0,26.0,26.0,26.0,-0.57,0.21,0.35,377.0,-2.32,-3.82,-0.90,-1.88,-716.68,614.22,5.7,0.00,0.00,0.00,0.00,0.05,-7.49,-7.49,0.27,10.02,-0.47,-0.47,41.45,-0.24,-0.36,6.39,100.0,0,0,117.62,0,0,0.0,0,0,0,0,7885,0,30.00,3,149.2,0,0,0.0,0.0,0.0,0.0,1,0,2.043,2.043,59.817,21.487,0,110.00,435.8,8750,0.0,0.0,110.0,110.0,433.0,0.00,0,0,1,166.7,63.2,63.2,70.1,70.1,34.0,-77.77,0.32,-89.0,-7.5,2,-236.389,5.9,100.0,32.6,23.4,35.4,27.9,0,1,39.7,0.00,0.00,0.00,0.00,7021,2620,7332,4643,308.1,318.0,335.9,342.0,26.88,22.64,25.42,23.74,325.0,325.0,355.0,355.0,100.00,99.81,100.00,99.93,-0.53,-0.43,-0.70,-0.41,-0.1,-0.0,0.8,1.2,94.0,67.5,78.6,68.1,101.4,69.1,79.8,68.8,96.7,66.2,77.9,66.5,93.0,65.3,77.5,65.9,0.37,-0.35,0.08,0.08,0.00,127.85,127.12,117.62,117.61,13.4,28.7,0.7010706098532443,146.56139634259128,41.771798436972965,-32.40915379784326,-21.606103100918972
2.050,80.9,44.053923486123857,-78.681745885373260,-180.9,-161.3,215.4,257.8,3597.9,3598,149.5,0,1,1,0,1,1,0,0,0,100,1,1.186,26.0,0.0,-0.22,59.817,66.0,0.0,26.0,26.0,26.0,26.0,-0.42,0.22,0.03,379.4,-2.18,-2.68,-1.45,-1.88,-716.10,612.18,5.7,0.00,0.00,0.00,0.00,0.05,-7.49,-7.49,0.61,2.75,-0.20,6.70,41.54,-0.21,-0.22,4.10,100.0,0,0,117.70,0,0,0.0,0,0,0,0,7890,0,30.00,3,149.5,1,0,0.0,0.0,0.0,0.0,1,0,2.093,2.093,59.817,21.487,1,110.00,435.8,8750,0.0,0.0,110.0,110.0,433.0,0.00,0,0,1,166.7,80.3,80.3,60.5,60.5,34.0,-28.34,-0.17,-79.4,-14.8,2,-236.444,5.5,100.0,23.6,15.3,46.2,40.8,0,1,33.7,0.00,0.00,0.00,0.00,3244,87,6917,6121,317.4,324.5,337.7,338.7,26.88,22.64,25.42,23.74,325.0,325.0,355.0,355.0,100.00,99.81,100.00,99.93,-0.51,-0.61,-0.57,-0.47,0.0,-0.0,0.7,1.0,94.0,67.5,78.6,68.1,101.3,69.0,79.8,68.8,96.6,66.1,77.9,66.5,92.9,65.2,77.5,65.9,0.32,-0.32,0.05,0.03,0.00,127.58,127.24,117.70,117.70,13.4,28.7,0.4750789408087881,142.60027750714224,39.97128988316463,-36.01017136067867,-25.207119525707284
2.100,83.0,44.053906219149027,-78.681741118968745,-289.9,-90.5,-24.3,2.5,3600.0,3600,149.7,0,1,1,0,1,1,0,0,0,100,1,1.186,26.0,0.0,-0.23,59.817,66.0,0.0,26.0,26.0,26.0,26.0,-0.24,0.07,-0.33,387.6,-2.44,-1.93,-1.33,-1.23,-715.57,610.26,5.7,0.00,0.00,0.00,0.00,0.05,-7.49,-7.49,0.41,-9.43,0.17,3.62,41.59,-0.16,-0.30,1.51,100.0,0,0,117.19,0,0,0.0,0,0,0,0,7856,0,30.00,3,149.7,0,0,0.0,0.0,0.0,0.0,1,0,2.143,2.143,59.817,21.487,0,110.00,435.8,8750,0.0,0.0,110.0,110.0,433.0,0.00,0,0,1,166.7,90.8,90.8,58.5,58.5,34.0,-3.67,-7.37,-32.2,-6.0,2,-236.489,6.3,100.0,9.1,10.8,45.0,40.9,0,1,13.5,0.00,0.00,0.00,0.00,621,2104,4154,4361,323.7,319.2,344.1,343.3,26.88,22.64,25.42,23.74,325.0,325.0,355.0,355.0,100.00,99.81,100.00,99.93,-0.58,-0.57,-0.37,-0.29,0.0,-0.0,0.4,0.6,94.0,67.5,78.6,68.1,101.2,69.0,79.8,68.8,96.5,66.1,77.9,66.5,92.9,65.2,77.4,65.9,0.37,-0.36,0.04,0.05,0.00,127.29,127.25,117.19,117.19,13.4,28.7,0.41400483088968904,142.9603792065234,39.25108648440224,3.601017278323866,-14.404067975247727
2.150,85.1,44.053887783056105,-78.681736082767756,54.9,90.5,-331.9,-301.3,3602.1,3602,149.6,0,1,1,0,1,1,0,0,0,100,1,1.186,26.0,0.0,-0.23,59.817,66.0,0.0,26.0,26.0,26.0,26.0,-0.21,-0.19,-0.44,393.5,-2.40,-1.81,-1.60,-1.01,-715.01,608.21,5.8,0.00,0.00,0.00,0.00,0.05,-7.49,-7.49,-0.11,-8.97,0.11,-5.11,41.54,-0.12,-0.48,2.96,100.0,0,0,115.75,0,0,0.0,0,0,0,0,7759,0,30.00,3,149.6,1,0,0.0,0.0,0.0,0.0,1,0,2.193,2.193,59.817,21.487,1,110.00,435.8,8750,0.0,0.0,110.0,110.0,433.0,0.00,0,0,1,333.3,81.1,81.1,81.1,81.1,34.0,-28.70,-9.92,-8.0,0.1,2,-236.544,7.6,100.0,11.8,15.3,28.4,25.8,0,1,0.0,0.00,0.00,0.00,0.00,3134,3649,1562,2927,317.8,315.2,351.1,347.1,26.88,22.64,25.42,23.73,325.0,325.0,355.0,355.0,100.00,99.81,100.00,99.93,-0.55,-0.44,-0.27,-0.15,-0.0,-0.0,-0.8,-0.5,94.0,67.5,78.6,68.1,101.1,68.9,79.7,68.8,96.4,66.0,77.8,66.5,92.8,65.2,77.4,65.9,0.44,-0.44,0.09,0.07,0.00,127.22,127.05,115.75,115.75,13.4,28.7,0.5232590180780452,142.96037923497462,38.53088308563986,39.61118835449099,0.0
2.200,87.2,44.053870516081268,-78.681731496227556,265.4,115.3,-51.4,-126.6,3604.2,3604,149.2,0,1,1,0,1,1,0,0,0,100,1,1.186,26.0,0.0,-0.23,59.817,66.0,0.0,26.0,26.0,26.0,26.0,-0.30,-0.25,0.04,387.9,-1.43,-3.05,-0.98,-1.98,-714.50,606.29,5.8,0.00,0.00,0.00,0.00,0.05,-7.49,-7.49,-0.39,-2.28,-0.38,-8.69,41.44,-0.13,-0.58,4.76,100.0,0,0,115.65,0,0,0.0,0,0,0,0,7752,0,30.00,3,149.2,0,0,0.0,0.0,0.0,0.0,1,0,2.240,2.240,59.817,21.487,0,110.00,435.8,8750,0.0,0.0,110.0,110.0,433.0,0.00,0,0,1,166.7,67.1,67.1,85.4,85.4,34.0,-56.49,-2.18,-20.2,4.1,2,-236.589,8.6,100.0,25.1,21.1,25.8,19.5,0,1,0.0,0.00,0.00,0.00,0.00,5707,3562,3234,2016,310.7,314.4,346.5,349.3,26.88,22.64,25.42,23.73,325.0,325.0,355.0,355.0,100.00,99.81,100.00,99.93,-0.56,-0.40,-0.34,-0.13,-0.0,-0.0,-0.7,-0.6,94.0,67.5,78.6,68.1,101.1,68.9,79.7,68.7,96.4,66.0,77.8,66.5,92.7,65.1,77.3,65.8,0.51,-0.51,0.09,0.09,0.00,127.62,126.88,115.65,115.64,13.4,28.7,0.3925557285278104,146.9214980419725,39.25108648440224,82.82339341828106,14.404067975247727
2.250,89.2,44.053851090734582,-78.681726280162252,18.8,-57.9,39.8,62.0,3606.2,3606,148.8,0,1,1,0,1,1,0,0,0,100,1,1.186,26.0,0.0,-0.24,59.817,66.0,0.0,26.0,26.0,26.0,26.0,-0.33,-0.21,-0.07,387.0,-3.53,-3.11,-1.03,-2.12,-713.92,604.13,5.8,0.00,0.00,0.00,0.00,0.05,-7.49,-7.49,-0.39,-0.06,-0.58,-0.39,41.33,-0.18,-0.51,5.82,100.0,0,0,115.66,0,0,0.0,0,0,0,0,7754,0,30.00,3,148.8,1,0,0.0,0.0,0.0,0.0,1,0,2.293,2.293,59.817,21.487,1,110.00,435.8,8750,0.0,0.0,110.0,110.0,433.0,0.00,0,0,1,166.7,74.1,74.1,79.1,79.1,34.0,-40.12,-3.85,-61.1,0.5,2,-236.644,8.9,100.0,26.0,18.2,27.8,22.6,0,1,0.0,0.00,0.00,0.00,0.00,3637,1941,6093,3691,316.7,319.2,340.4,345.0,26.88,22.64,25.42,23.73,325.0,325.0,355.0,355.0,100.00,99.81,100.00,99.93,-0.59,-0.55,-0.55,-0.31,0.0,-0.0,-0.5,-0.3,94.0,67.5,78.6,68.1,101.0,68.9,79.6,68.7,96.3,66.0,77.7,66.4,92.7,65.1,77.3,65.8,0.53,-0.51,0.09,0.07,0.00,127.03,126.52,115.74,115.58,13.4,28.7,0.3973663297261105,151.24271857680273,39.97128988316463,-90.02542769041668,-36.01017107616677
2.300,91.3,44.053832744573818,-78.681721513757736,-11.5,78.8,127.3,63.9,3608.3,3608,148.4,0,1,1,0,1,1,0,0,0,100,1,1.186,26.0,0.0,-0.25,59.817,66.0,0.0,26.0,26.0,26.0,26.0,-0.45,-0.23,0.08,383.6,-2.62,-2.60,-0.77,-1.78,-713.39,602.09,5.8,0.00,0.00,0.00,0.00,0.06,-7.49,-7.49,-0.49,-0.74,-0.48,1.34,41.22,-0.20,-0.57,6.76,100.0,0,0,115.25,0,0,0.0,0,0,0,0,7726,0,30.00,3,148.4,0,0,0.0,0.0,0.0,0.0,1,0,2.347,2.347,59.817,21.487,0,110.00,435.8,8750,0.0,0.0,110.0,110.0,433.0,0.00,0,0,1,166.7,67.4,67.4,73.6,73.6,34.0,-56.88,-10.15,-35.3,-3.3,2,-236.689,8.1,100.0,25.4,22.1,34.2,25.8,0,1,0.0,0.00,0.00,0.00,0.00,4972,4181,3935,1763,313.0,313.1,344.8,349.8,26.88,22.64,25.42,23.73,325.0,325.0,355.0,355.0,100.00,99.81,100.00,99.93,-0.62,-0.50,-0.59,-0.44,0.0,-0.0,-0.7,-0.3,94.0,67.5,78.6,68.1,100.9,68.9,79.6,68.6,96.3,66.0,77.7,66.4,92.6,65.1,77.3,65.8,0.49,-0.49,0.08,0.09,0.00,126.77,126.25,115.51,114.98,13.4,28.7,0.5116639522186412,137.91895527293084,35.65006937678556,-93.62644496874054,-39.61118806997874
2.350,93.4,44.053816646717074,-78.681717376878353,-7.3,3.6,-88.9,-33.0,3610.4,3610,148.1,0,1,1,0,1,1,0,0,0,100,1,1.186,26.0,0.0,-0.25,59.817,66.0,0.0,26.0,26.0,26.0,26.0,-0.39,-0.23,-0.22,385.0,-2.64,-2.47,-1.50,-0.96,-712.93,600.30,5.8,0.00,0.00,0.00,0.00,0.06,-7.49,-7.49,-0.41,3.00,-0.49,-1.49,41.13,-0.26,-0.45,7.30,100.0,0,0,115.15,0,0,0.0,0,0,0,0,7720,0,30.00,3,148.1,1,0,0.0,0.0,0.0,0.0,1,0,2.390,2.390,59.817,21.487,1,110.00,435.8,8750,0.0,0.0,110.0,110.0,433.0,0.00,0,0,1,333.3,70.3,70.3,78.9,78.9,34.0,-45.52,-5.44,-45.7,-19.3,2,-236.744,6.2,100.0,25.1,22.3,29.7,24.1,0,1,0.0,0.00,0.00,0.00,0.00,4408,2563,4219,4391,314.4,317.6,345.1,344.0,26.89,22.64,25.42,23.73,325.0,325.0,355.0,355.0,100.00,99.81,100.00,99.93,-0.54,-0.47,-0.68,-0.48,-0.0,-0.0,-0.7,-0.4,94.0,67.5,78.6,68.1,100.9,68.8,79.6,68.6,96.2,65.9,77.7,66.4,92.6,65.1,77.2,65.7,0.39,-0.39,0.08,0.08,0.00,126.64,126.00,115.16,115.15,13.4,28.7,0.5033885179461288,141.88007407992868,36.010171076166756,126.03559876658323,21.606103100919043
2.400,95.4,44.053797311302546,-78.681712520541680,-11.5,-21.5,140.5,141.1,3612.4,3612,147.7,0,1,1,0,1,1,0,0,0,100,1,1.186,26.0,0.0,-0.25,59.817,66.0,0.0,26.0,26.0,26.0,26.0,-0.41,-0.20,0.07,381.9,-2.15,-3.44,-1.61,-1.20,-712.39,598.15,5.8,0.00,0.00,0.00,0.00,0.06,-7.49,-7.49,-0.37,-0.08,-0.71,-4.94,41.03,-0.27,-0.45,5.12,100.0,0,0,114.84,0,0,0.0,0,0,0,0,7699,0,30.00,3,147.7,0,0,0.0,0.0,0.0,0.0,0,0,2.443,2.443,59.817,21.487,0,110.00,435.8,8750,0.0,0.0,110.0,110.0,433.0,0.00,0,0,1,166.7,71.1,71.1,69.1,69.1,34.0,-34.26,-0.06,-57.2,-8.7,2,-236.789,3.6,100.0,24.5,21.2,36.8,31.2,0,1,0.0,0.00,0.00,0.00,0.00,3987,2797,5108,2763,314.9,316.5,342.2,347.1,26.89,22.63,25.42,23.73,325.0,325.0,355.0,355.0,100.00,99.81,100.00,99.93,-0.42,-0.40,-0.59,-0.44,0.0,-0.0,-0.5,-0.3,94.0,67.5,78.6,68.1,100.8,68.8,79.5,68.6,96.1,65.9,77.6,66.3,92.5,65.0,77.2,65.7,0.24,-0.24,0.07,0.06,0.00,126.15,125.65,114.84,114.84,13.4,28.7,0.461519230368573,150.52251514958917,37.810679686877464,0.0,-10.803050981435902
2.450,97.5,44.053779055073946,-78.681707934001480,-49.1,-79.1,-2.8,-30.2,3614.5,3614,147.4,0,1,1,0,1,1,0,0,0,100,1,1.186,26.0,0.0,-0.26,59.817,66.0,0.2,26.0,26.0,26.0,26.0,-0.29,-0.18,-0.23,384.1,-2.21,-2.76,-1.56,-1.87,-711.88,596.12,5.8,0.00,0.00,0.00,0.00,0.06,-7.49,-7.49,-0.45,-3.46,-0.78,0.08,40.94,-0.25,-0.44,3.15,100.0,0,0,114.46,0,0,0.0,0,0,0,0,7673,0,30.00,3,147.4,1,0,0.0,0.0,0.0,0.0,0,0,2.497,2.497,59.817,21.487,1,110.00,435.8,8750,0.0,0.0,110.0,110.0,433.0,0.00,0,0,1,166.7,74.7,74.7,72.9,72.9,34.0,-36.95,1.26,-42.9,-5.2,2,-236.844,1.0,100.0,22.0,17.3,36.6,29.7,0,1,0.0,0.00,0.00,0.00,0.00,4623,3126,4286,3608,314.7,317.5,344.2,345.1,26.89,22.63,25.42,23.73,325.0,325.0,355.0,355.0,100.00,99.81,100.00,99.93,-0.38,-0.29,-0.54,-0.40,0.0,0.0,-0.6,-0.3,94.0,67.5,78.6,68.1,100.7,68.8,79.5,68.6,96.1,65.9,77.6,66.3,92.4,65.0,77.2,65.7,0.08,-0.08,0.06,0.06,0.00,125.55,125.24,114.46,114.46,13.4,28.7,0.41158231254513356,141.88007407992868,34.929865978023166,-133.23763303871914,-46.81322319564998
2.500,99.5,44.053761878031274,-78.681703797122097,148.0,171.5,-82.8,-11.0,3616.5,3616,147.0,0,1,1,0,1,1,0,0,0,100,1,1.186,26.0,0.0,-0.26,59.817,66.0,10.1,26.0,26.0,26.0,26.0,-0.21,-0.32,0.09,380.2,-2.00,-2.70,-1.82,-1.42,-711.42,594.21,5.8,0.00,0.00,0.00,0.00,0.06,-7.49,-7.49,-0.51,1.93,-0.70,1.54,40.81,-0.21,-0.55,2.10,100.0,0,0,113.96,0,0,0.0,0,0,0,0,7639,0,30.00,3,147.0,0,0,0.0,0.0,0.0,0.0,0,0,2.543,2.543,59.817,21.487,0,110.00,435.8,8750,0.0,0.0,110.0,110.0,433.0,0.00,0,0,1,166.7,62.1,62.1,75.7,75.7,34.0,-30.57,17.28,-36.4,-4.0,2,-236.889,-3.9,100.0,29.4,25.8,32.5,29.1,0,1,0.0,0.00,0.00,0.00,0.00,5477,4486,3893,2651,311.9,312.0,345.6,347.6,26.89,22.63,25.42,23.73,325.0,325.0,355.0,355.0,100.00,99.81,100.00,99.93,-0.16,-0.04,-0.49,-0.34,-0.3,-0.4,-0.8,-0.6,94.0,67.5,78.6,68.1,100.7,68.7,79.5,68.5,96.0,65.9,77.6,66.3,92.4,65.0,77.1,65.7,-0.16,0.18,0.07,0.07,0.00,124.92,124.68,113.96,113.96,13.4,28.7,0.39319206502674997,137.19875184571725,33.129357367312465,-14.404068544271524,-10.803051550459486
2.550,101.5,44.053744790920760,-78.681699660242714,-28.4,40.9,60.0,23.0,3618.5,3619,146.1,0,1,1,0,1,1,0,0,0,100,1,1.186,26.0,0.0,-0.26,59.817,66.0,30.0,26.0,26.0,26.0,26.0,0.01,-0.70,0.22,376.6,-2.08,-2.59,-1.43,-0.87,-710.96,592.31,5.9,0.00,0.00,0.00,0.00,0.06,-7.49,-7.49,-0.30,3.93,-0.58,2.82,40.56,-0.18,-0.46,-1.52,100.0,0,0,113.24,0,0,0.0,0,0,0,0,7591,0,30.00,3,146.1,1,0,0.0,0.0,0.0,0.0,0,0,2.593,2.593,59.817,21.487,1,110.00,435.8,8750,0.0,0.0,110.0,110.0,433.0,0.00,0,0,1,166.7,62.8,62.8,63.1,63.1,34.0,0.09,49.49,-44.2,-3.0,2,-236.933,-12.2,100.0,28.0,27.9,35.5,30.3,0,1,0.0,0.00,0.00,0.00,0.00,3567,6235,5267,5457,316.4,308.7,341.9,340.5,26.89,22.63,25.42,23.73,325.0,325.0,355.0,355.0,100.00,99.81,100.00,99.93,0.24,0.33,-0.38,-0.17,-1.3,-1.3,-0.7,-0.8,94.0,67.5,78.6,68.1,100.6,68.7,79.4,68.5,96.0,65.9,77.5,66.3,92.3,65.0,77.1,65.6,-0.63,0.64,0.07,0.06,0.00,122.71,123.44,113.24,113.24,13.4,28.7,0.7338255923582933,140.43966722550152,33.84956082297722,18.005085538082994,3.6010175628356222
2.600,103.5,44.053726804488647,-78.681695343499001,-180.4,-184.7,32.5,171.6,3620.5,3621,144.7,0,1,1,0,1,1,0,0,0,100,1,1.186,26.0,0.0,-0.27,59.817,66.0,45.9,26.0,26.0,26.0,26.0,0.16,-0.81,-0.06,383.7,-2.23,-2.84,-1.20,-0.86,-710.48,590.31,5.9,0.00,0.00,0.00,0.00,0.06,-7.49,-7.49,-0.33,-5.75,-0.54,0.54,40.17,-0.09,-0.50,-5.63,100.0,0,0,111.44,0,0,0.0,0,0,0,0,7470,0,30.00,3,144.7,0,0,0.0,0.0,0.0,0.0,0,0,2.643,2.643,59.817,21.487,0,110.00,435.8,8750,0.0,0.0,110.0,110.0,433.0,0.00,0,0,1,333.3,78.1,78.1,69.1,69.1,34.0,9.43,18.53,-11.4,10.8,2,-236.989,-23.2,100.0,19.0,18.6,37.1,38.9,0,1,0.0,0.00,0.00,0.00,0.00,2012,3128,3676,3749,319.5,317.2,345.6,344.4,26.89,22.63,25.42,23.73,325.0,325.0,355.0,355.0,100.00,99.81,100.00,99.93,0.91,0.87,-0.05,0.09,-2.8,-4.6,-0.9,-1.1,94.0,67.5,78.6,68.1,100.6,68.7,79.4,68.5,95.9,65.9,77.5,66.2,92.3,65.0,77.1,65.6,-1.26,1.25,0.07,0.05,0.00,118.70,117.73,111.44,111.44,13.4,28.7,0.8278284846512592,138.99926039952555,33.48945912359603,-32.40915379784269,0.0
2.650,105.5,44.053710077106771,-78.681691296551776,88.8,81.0,-219.3,-123.8,3622.5,3623,143.1,0,1,1,0,1,1,0,0,0,100,1,1.186,26.0,0.0,-0.27,59.817,66.0,47.1,26.0,26.0,26.0,26.0,0.60,-0.90,-0.07,384.8,-2.15,-2.92,-1.20,-2.27,-710.03,588.45,5.9,0.00,0.00,0.00,0.00,0.06,-7.49,-7.49,-0.69,-6.40,-0.36,6.50,39.72,-0.02,-0.71,-11.27,100.0,0,0,108.87,0,0,0.0,0,0,0,0,7298,0,30.00,3,143.1,1,0,0.0,0.0,0.0,0.0,0,0,2.690,2.690,59.817,21.487,1,110.00,435.8,8750,0.0,0.0,110.0,110.0,433.0,0.00,0,0,1,333.3,64.2,64.2,87.7,87.7,34.0,54.47,88.74,0.1,14.8,2,-237.033,-31.8,100.0,23.4,22.7,26.1,32.7,0,1,0.0,0.00,0.00,0.00,0.00,5859,6075,258,2265,311.2,308.4,354.0,348.7,26.89,22.63,25.42,23.73,325.0,325.0,355.0,355.0,100.00,99.82,100.00,99.93,1.19,1.35,0.24,0.32,-1.8,-2.4,-2.3,-1.9,94.1,67.5,78.6,68.1,100.5,68.8,79.3,68.5,95.9,65.9,77.5,66.2,92.3,65.0,77.0,65.6,-1.79,1.75,0.09,0.07,0.00,119.19,119.56,108.00,109.75,13.4,28.7,1.0839280418920805,137.19875184571725,33.84956082297722,7.202033987624077,25.207119525707284
2.700,107.5,44.053692540335462,-78.681686889875905,166.9,160.0,-245.3,-123.1,3624.5,3624,141.3,0,1,1,0,1,1,0,0,0,100,1,1.186,26.0,0.0,-0.27,59.817,66.0,47.1,26.0,26.0,26.0,26.0,0.76,-0.89,0.09,383.7,-3.47,-2.96,-0.58,-0.24,-709.54,586.50,5.9,0.00,0.00,0.00,0.00,0.06,-7.49,-7.49,-0.68,4.40,0.26,15.53,39.22,0.22,-0.70,-19.45,100.0,0,0,107.50,0,0,0.0,0,0,0,0,7206,0,30.00,3,141.3,0,0,0.0,0.0,0.0,0.0,0,0,2.743,2.743,59.817,21.487,0,110.00,435.8,8750,0.0,0.0,110.0,110.0,433.0,0.00,0,0,1,333.3,58.1,58.1,93.3,93.3,34.0,28.94,98.90,4.5,55.7,2,-237.089,-37.0,100.0,31.8,30.7,13.9,26.5,0,1,0.0,0.00,0.00,0.00,0.00,3301,6158,1786,4948,316.2,307.7,351.3,341.7,26.89,22.64,25.42,23.73,325.0,325.0,355.0,355.0,100.00,99.82,100.00,99.93,1.53,1.57,0.60,0.88,-2.1,-2.2,-4.1,-1.0,94.1,67.5,78.6,68.1,100.5,68.8,79.3,68.5,95.9,65.9,77.4,66.2,92.2,65.0,77.0,65.6,-2.09,2.08,0.12,0.07,0.00,116.37,118.68,105.17,109.82,13.4,28.7,1.1737972567696688,139.71946379828796,36.010171076166756,-36.01017107616684,21.606102531895388
2.750,109.4,44.053675183428467,-78.681682303335720,-259.0,57.8,142.5,260.6,3626.4,3626,139.5,0,1,1,0,1,1,0,0,0,100,1,1.186,26.0,0.0,-0.28,59.817,66.0,47.1,26.0,26.0,26.0,26.0,1.05,-1.03,0.23,380.1,-2.98,-1.66,-2.46,-0.36,-709.03,584.57,5.9,0.00,0.00,0.00,0.00,0.07,-7.49,-7.49,-0.50,1.58,0.73,2.36,38.71,0.49,-0.63,-22.52,100.0,0,0,107.30,0,0,0.0,0,0,0,0,7193,0,30.00,3,139.5,1,0,0.0,0.0,0.0,0.0,0,0,2.793,2.793,59.817,21.487,1,110.00,435.8,8750,0.0,0.0,110.0,110.0,433.0,0.00,0,0,1,333.3,64.2,64.2,68.4,68.4,34.0,4.89,139.64,33.4,67.4,2,-237.144,-40.1,100.0,18.8,33.6,21.0,39.6,0,1,0.0,0.00,0.00,0.00,0.00,1489,7813,3609,4697,320.6,303.2,345.5,342.6,26.89,22.64,25.42,23.73,325.0,325.0,355.0,355.0,100.00,99.82,100.00,99.93,2.19,2.15,1.25,1.49,-6.0,-2.0,-0.9,-1.9,94.1,67.5,78.6,68.1,100.5,68.9,79.3,68.5,95.8,66.0,77.4,66.2,92.2,65.1,77.0,65.6,-2.31,2.27,0.10,0.06,0.00,110.01,117.31,106.81,107.79,13.4,28.7,1.4887242860919547,133.59773473810057,36.010171076166756,-86.42441012758127,10.803051550459486
