Time,Distance,GPS Latitude,GPS Longitude,Damper Velocity (Calc) FL,Damper Velocity (Calc) FR,Damper Velocity (Calc) RL,Damper Velocity (Calc) RR,Corr Dist,Corr Dist (Unstretched),Corr Speed,ABS Active,ABS Enabled,AID Allow Tire Blankets,AID Auto Blip,AID Auto Clutch,AID Auto Shift,AID Fuel Rate,AID Ideal Line,AID Mech Damage,AID Stability,AID Tire Wear Rate,Air Density,Air Temp,Ballast,Best Lap Delta,Best Lap Time,Brake Bias,Brake Pos,Brake Temp FL,Brake Temp FR,Brake Temp RL,Brake Temp RR,CG Accel Lateral,CG Accel Longitudinal,CG Accel Vertical,CG Height,Camber FL,Camber FR,Camber RL,Camber RR,Car Coord X,Car Coord Y,Car Coord Z,Car Damage Front,Car Damage Left,Car Damage Rear,Car Damage Right,Car Pos Norm,Caster FL,Caster FR,Chassis Pitch Angle,Chassis Pitch Rate,Chassis Roll Angle,Chassis Roll Rate,Chassis Velocity X,Chassis Velocity Y,Chassis Velocity Z,Chassis Yaw Rate,Clutch Pos,DRS Active,DRS Available,Drive Train Speed,ERS Heat Charging,ERS Is Charging,ERS Max Energy,ERS Power Level,ERS Recovery Level,Engine Brake Setting,Engine Limiter,Engine RPM,Flags,Fuel Level,Gear,Ground Speed,HR Sample Clock,In Pit,KERS Charge,KERS Deployed Energy,KERS Input,KERS Max Energy,LR Sample Clock,Lap Invalidated,Lap Time,Lap Time2,Last Lap Time,Last Sector Time,MR Sample Clock,Max Fuel,Max Power,Max RPM,Max Sus Travel FL,Max Sus Travel FR,Max Sus Travel RL,Max Sus Travel RR,Max Torque,Max Turbo Boost,Num Tires Off Track,Penalties Enabled,Position,Raw Data Sample Rate,Ride Height FL,Ride Height FR,Ride Height RL,Ride Height RR,Road Temp,Self Align Torque FL,Self Align Torque FR,Self Align Torque RL,Self Align Torque RR,Session Lap Count,Session Time Left,Steering Angle,Surface Grip,Suspension Travel FL,Suspension Travel FR,Suspension Travel RL,Suspension Travel RR,TC Active,TC Enabled,Throttle Pos,Tire Dirt Level FL,Tire Dirt Level FR,Tire Dirt Level RL,Tire Dirt Level RR,Tire Load FL,Tire Load FR,Tire Load RL,Tire Load RR,Tire Loaded Radius FL,Tire Loaded Radius FR,Tire Loaded Radius RL,Tire Loaded Radius RR,Tire Pressure FL,Tire Pressure FR,Tire Pressure RL,Tire Pressure RR,Tire Radius FL,Tire Radius FR,Tire Radius RL,Tire Radius RR,Tire Rubber Grip FL,Tire Rubber Grip FR,Tire Rubber Grip RL,Tire Rubber Grip RR,Tire Slip Angle FL,Tire Slip Angle FR,Tire Slip Angle RL,Tire Slip Angle RR,Tire Slip Ratio FL,Tire Slip Ratio FR,Tire Slip Ratio RL,Tire Slip Ratio RR,Tire Temp Core FL,Tire Temp Core FR,Tire Temp Core RL,Tire Temp Core RR,Tire Temp Inner FL,Tire Temp Inner FR,Tire Temp Inner RL,Tire Temp Inner RR,Tire Temp Middle FL,Tire Temp Middle FR,Tire Temp Middle RL,Tire Temp Middle RR,Tire Temp Outer FL,Tire Temp Outer FR,Tire Temp Outer RL,Tire Temp Outer RR,Toe In FL,Toe In FR,Toe In RL,Toe In RR,Turbo Boost,Wheel Angular Speed FL,Wheel Angular Speed FR,Wheel Angular Speed RL,Wheel Angular Speed RR,Wind Direction,Wind Speed,CG Distance,Lateral Velocity,Longitudinal Velocity,Lateral Acceleration,Longitudinal Acceleration
s,m,deg,deg,mm/s,mm/s,mm/s,mm/s,m,m,km/h,,,,,,,,,%,%,,kg/m3,C,kg,s,s,%,%,C,C,C,C,G,G,G,mm,deg,deg,deg,deg,m,m,m,,,,,,deg,deg,deg,deg/s,deg,deg/s,m/s,m/s,m/s,deg/s,%,,,rad/s,,,MJ,,,,,rpm,,l,,km/h,,,%,kJ,%,MJ,,,s,s,s,s,,l,hp,rpm,mm,mm,mm,mm,N.m,,,,,Hz,mm,mm,mm,mm,C,N.m,N.m,N.m,N.m,,s,deg,%,mm,mm,mm,mm,,,%,,,,,N,N,N,N,mm,mm,mm,mm,psi,psi,psi,psi,mm,mm,mm,mm,%,%,%,%,deg,deg,deg,deg,%,%,%,%,C,C,C,C,C,C,C,C,C,C,C,C,C,C,C,C,deg,deg,deg,deg,,rad/s,rad/s,rad/s,rad/s,deg,km/h,G,Km/h,Km/h,Km/h^2,Km/h^2
0.000,0.0,44.054632871006604,-78.681955427307429,-43.8,-11.3,-1.9,-97.0,3352.8,3353,115.5,0,1,1,0,1,1,0,0,0,100,1,1.186,26.0,0.0,0.003,74.678,66.0,0.0,26.0,26.0,26.0,26.0,-1.21,0.29,-0.21,387.7,-1.78,-1.55,-0.90,-2.68,-739.40,691.06,5.7,0.00,0.00,0.00,0.00,0.00,-7.49,-7.49,-0.41,-4.38,-0.95,7.51,32.04,-1.61,-0.36,43.36,100.0,0,0,97.09,0,0,0.0,0,0,0,0,6508,0,30.00,3,115.5,0,0,0.0,0.0,0.0,0.0,1,0,0.009,0.009,84.921,21.577,0,110.00,435.8,8750,0.0,0.0,110.0,110.0,433.0,0.00,0,0,1,333.3,81.1,81.1,69.7,69.7,34.0,13.54,1.70,-19.7,0.5,2,-162.190,151.9,100.0,23.2,7.8,47.2,20.2,0,1,100.0,0.00,0.00,0.00,0.00,4592,1035,5871,1215,313.1,322.6,340.7,352.1,24.41,22.40,26.93,25.99,325.0,325.0,355.0,355.0,99.99,99.82,100.00,99.98,-9.52,-10.18,-4.67,-4.77,-0.5,-0.3,5.5,9.7,78.5,66.0,88.0,82.2,102.8,76.1,100.7,90.2,98.4,73.2,99.3,87.8,96.0,72.0,98.4,86.3,8.48,-9.20,0.03,0.10,0.00,98.18,94.54,97.09,97.09,356.7,7.7,1.2618637010390623
0.050,1.6,44.054619561046842,-78.681949221988347,28.0,143.3,-165.6,-29.2,3354.4,3354,115.8,0,1,1,0,1,1,0,0,0,100,1,1.186,26.0,0.0,0.045,74.678,66.0,0.0,26.0,26.0,26.0,26.0,-1.51,0.26,0.09,385.5,-2.28,-1.70,-0.90,-2.57,-738.71,689.58,5.7,0.00,0.00,0.00,0.00,0.00,-7.49,-7.49,-0.51,-0.38,-0.79,-3.26,32.09,-2.19,-0.41,47.06,100.0,0,0,96.64,0,0,0.0,0,0,0,0,6478,0,30.00,3,115.8,1,0,0.0,0.0,0.0,0.0,1,0,0.060,0.060,84.921,21.577,1,110.00,435.8,8750,0.0,0.0,110.0,110.0,433.0,0.00,0,0,1,333.3,72.7,72.7,77.2,77.2,34.0,20.90,3.50,5.7,3.9,2,-162.240,149.5,100.0,24.6,15.0,38.9,18.7,1,1,100.0,0.00,0.00,0.00,0.00,6519,1669,5130,2644,308.3,320.0,342.7,348.2,24.42,22.40,26.93,25.99,325.0,325.0,355.0,355.0,100.00,99.82,100.00,99.98,-10.33,-10.93,-5.75,-5.82,-0.8,-0.5,6.4,9.9,78.6,66.0,88.1,82.2,102.9,76.2,100.8,90.2,98.6,73.2,99.4,87.8,96.2,72.0,98.4,86.3,8.46,-9.11,0.07,0.09,0.00,98.29,94.25,96.77,96.51,356.7,7.7,1.5348615572747923,104.42949614933478,47.17332409839798
0.100,3.2,44.054606790680033,-78.681943646194398,1.0,-102.8,-20.8,-30.5,3356.0,3356,116.0,0,1,1,0,1,1,0,0,0,100,1,1.186,26.0,0.0,0.096,74.678,66.0,0.0,26.0,26.0,26.0,26.0,-1.37,0.20,-0.13,388.4,-2.51,-2.44,0.46,-1.86,-738.09,688.16,5.7,0.00,0.00,0.00,0.00,0.00,-7.49,-7.49,-0.46,0.17,-0.95,-0.39,32.09,-2.83,-0.34,45.48,100.0,0,0,94.77,0,0,0.0,0,0,0,0,6353,0,30.00,3,116.0,0,0,0.0,0.0,0.0,0.0,1,0,0.109,0.109,84.921,21.577,0,110.00,435.8,8750,0.0,0.0,110.0,110.0,433.0,0.00,0,0,1,333.3,79.1,79.1,79.1,79.1,34.0,17.52,0.00,13.5,5.1,2,-162.290,131.1,100.0,24.7,9.9,37.8,17.2,0,1,100.0,0.00,0.00,0.00,0.00,5683,0,6569,2703,310.5,325.0,339.5,348.6,24.42,22.40,26.94,25.99,325.0,325.0,355.0,355.0,100.00,99.82,100.00,99.98,-10.61,0.00,-6.86,-6.93,-0.7,0.0,2.9,8.8,78.6,66.0,88.1,82.2,103.1,76.2,100.9,90.2,98.7,73.2,99.4,87.8,96.3,72.0,98.5,86.3,7.55,-8.12,0.07,0.09,0.00,98.39,94.24,94.41,95.12,356.7,7.7,1.3906113763377603,105.86990300376193,45.01271384520845,57.616273608061874,-32.40915351333108
0.150,4.8,44.054593120991626,-78.681937980468277,-0.7,-21.8,99.3,73.4,3357.7,3358,116.2,0,1,1,0,1,1,0,0,0,100,1,1.186,26.0,0.0,0.096,74.678,66.0,0.0,26.0,26.0,26.0,26.0,-1.41,0.29,-0.00,386.7,-1.63,-2.89,-0.58,-1.85,-737.46,686.64,5.7,0.00,0.00,0.00,0.00,0.00,-7.49,-7.49,-0.50,-2.93,-0.91,2.61,32.11,-3.27,-0.40,39.87,100.0,0,0,97.38,0,0,0.0,0,0,0,0,6528,0,30.00,3,116.2,1,0,0.0,0.0,0.0,0.0,1,0,0.159,0.159,84.921,21.577,1,110.00,435.8,8750,0.0,0.0,110.0,110.0,433.0,0.00,0,0,1,333.3,78.7,78.7,73.0,73.0,34.0,15.11,2.08,18.2,3.1,2,-162.340,96.6,100.0,24.6,8.8,42.8,20.9,1,1,100.0,0.00,0.00,0.00,0.00,5024,1208,6122,1900,311.9,321.8,339.9,350.3,24.43,22.40,26.94,25.99,325.0,325.0,355.0,355.0,100.00,99.82,100.00,99.98,-9.96,-10.32,-7.44,-7.52,-0.8,-1.0,6.9,10.8,78.7,66.0,88.1,82.2,103.3,76.2,101.0,90.3,98.9,73.2,99.6,87.9,96.5,72.0,98.7,86.3,5.78,-6.12,0.07,0.09,0.00,98.31,94.42,96.82,97.93,356.7,7.7,1.4395138068111746,110.19112351014097,43.93240874706487,18.005085538083136,-46.81322262662633
0.200,6.4,44.054579271438897,-78.681932674470801,8.2,33.4,-53.3,-63.0,3359.3,3359,116.3,0,1,1,0,1,1,0,0,0,100,1,1.186,26.0,0.0,0.147,74.678,66.0,0.0,26.0,26.0,26.0,26.0,-1.45,0.16,-0.02,387.6,-2.19,-2.80,-0.52,-2.45,-736.87,685.10,5.7,0.00,0.00,0.00,0.00,0.00,-7.49,-7.49,-0.58,-1.11,-0.85,2.94,32.07,-3.72,-0.42,40.96,100.0,0,0,96.19,0,0,0.0,0,0,0,0,6448,0,30.00,3,116.3,0,0,0.0,0.0,0.0,0.0,0,0,0.210,0.210,84.921,21.577,0,110.00,435.8,8750,0.0,0.0,110.0,110.0,433.0,0.00,0,0,1,333.3,77.0,77.0,74.4,74.4,34.0,17.65,1.49,22.1,1.0,2,-162.390,58.3,100.0,25.1,10.4,40.1,17.7,1,1,100.0,0.00,0.00,0.00,0.00,5586,865,6775,757,310.3,322.3,338.8,352.9,24.44,22.40,26.94,25.99,325.0,325.0,355.0,355.0,100.00,99.82,100.00,99.98,-8.46,-8.70,-8.22,-8.40,-0.7,-0.8,4.1,10.5,78.8,66.0,88.2,82.2,103.5,76.2,101.2,90.3,99.1,73.2,99.7,87.9,96.6,72.0,98.8,86.3,3.62,-3.75,0.06,0.09,0.00,98.95,94.98,94.72,97.67,356.7,7.7,1.4589379698945393,107.67041155757025,40.33139158254582,-18.00508525357131,-57.61627417708581
0.250,8.1,44.054566231275608,-78.681927908066299,-60.8,-38.7,-40.3,43.8,3360.9,3361,116.3,0,1,1,0,1,1,0,0,0,100,1,1.186,26.0,0.0,0.198,74.678,66.0,0.0,26.0,26.0,26.0,26.0,-1.14,0.27,-0.27,391.2,-1.44,-2.80,-1.20,-2.29,-736.34,683.65,5.7,0.00,0.00,0.00,0.00,0.01,-7.49,-7.49,-0.64,-3.11,-0.70,2.49,32.05,-4.13,-0.38,34.15,100.0,0,0,96.59,0,0,0.0,0,0,0,0,6475,0,30.00,3,116.3,1,0,0.0,0.0,0.0,0.0,0,0,0.259,0.259,84.921,21.577,1,110.00,435.8,8750,0.0,0.0,110.0,110.0,433.0,0.00,0,0,1,333.3,83.7,83.7,81.9,81.9,34.0,11.64,0.00,11.3,6.2,2,-162.440,26.4,100.0,22.0,8.5,38.1,19.9,0,1,100.0,0.00,0.00,0.00,0.00,4050,0,4005,2967,314.5,325.0,345.1,347.7,24.45,22.41,26.95,25.99,325.0,325.0,355.0,355.0,100.00,99.82,100.00,99.98,-7.58,0.00,-8.71,-8.80,-0.4,0.0,5.1,8.6,78.8,66.0,88.2,82.2,103.6,76.1,101.3,90.3,99.2,73.1,99.8,87.9,96.7,71.9,98.9,86.4,1.76,-1.80,0.07,0.08,0.00,99.02,95.08,96.59,96.59,356.7,7.7,1.2022478945708326,108.39061498478384,38.17078132935629,54.01525661425012,-32.40915351333115
0.300,9.7,44.054552201858556,-78.681923141661784,14.9,21.4,-38.9,-19.9,3362.5,3363,116.4,0,1,1,0,1,1,0,0,0,100,1,1.186,26.0,0.0,0.249,74.678,66.0,0.0,26.0,26.0,26.0,26.0,-1.63,0.20,0.06,387.7,-2.21,-3.59,-1.15,-1.56,-735.81,682.09,5.7,0.00,0.00,0.00,0.00,0.01,-7.49,-7.49,-0.83,-3.72,-0.77,-3.83,32.05,-4.36,-0.41,30.36,100.0,0,0,97.55,0,0,0.0,0,0,0,0,6540,0,30.00,3,116.4,0,0,0.0,0.0,0.0,0.0,0,0,0.309,0.309,84.921,21.577,0,110.00,435.8,8750,0.0,0.0,110.0,110.0,433.0,0.00,0,0,1,333.3,77.0,77.0,78.5,78.5,34.0,17.41,0.95,19.0,3.6,2,-162.490,5.0,100.0,22.8,9.6,36.2,18.9,0,1,100.0,0.00,0.00,0.00,0.00,6370,1043,6017,1981,308.5,321.5,339.7,350.2,24.46,22.41,26.95,25.99,325.0,325.0,355.0,355.0,100.00,99.82,100.00,99.98,-6.82,-6.92,-8.94,-8.98,-0.6,-0.8,6.2,10.0,78.8,66.1,88.2,82.2,103.6,76.1,101.4,90.4,99.2,73.1,100.0,88.0,96.8,71.9,99.0,86.4,0.42,-0.43,0.06,0.09,0.00,99.15,96.10,98.26,96.85,356.7,7.7,1.6433198106272557,113.07193721899526,37.090476231212705,21.606102531895175,-46.8132220576026
0.350,11.3,44.054537992577181,-78.681918645053756,86.4,60.1,19.8,-79.2,3364.1,3364,116.3,0,1,1,0,1,1,0,0,0,100,1,1.186,26.0,0.0,0.297,74.678,66.0,0.0,26.0,26.0,26.0,26.0,-1.64,0.13,0.03,386.0,-1.69,-3.32,-0.65,-2.41,-735.31,680.51,5.7,0.00,0.00,0.00,0.00,0.01,-7.49,-7.49,-0.88,0.50,-0.93,-3.08,32.00,-4.52,-0.45,33.18,100.0,0,0,97.16,0,0,0.0,0,0,0,0,6513,0,30.00,3,116.3,1,0,0.0,0.0,0.0,0.0,0,0,0.360,0.360,84.921,21.577,1,110.00,435.8,8750,0.0,0.0,110.0,110.0,433.0,0.00,0,0,1,333.3,70.7,70.7,82.1,82.1,34.0,6.40,-0.73,15.2,3.3,2,-162.540,-6.2,100.0,27.1,12.6,37.2,15.0,0,1,100.0,0.00,0.00,0.00,0.00,8336,1420,5205,1812,304.1,320.9,342.4,350.6,24.46,22.41,26.96,26.00,325.0,325.0,355.0,355.0,100.00,99.82,100.00,99.98,-6.26,-6.33,-9.32,-9.35,-0.6,-0.4,6.4,8.6,78.9,66.1,88.2,82.2,103.7,76.1,101.6,90.4,99.3,73.1,100.1,88.0,96.9,71.9,99.2,86.4,-0.29,0.28,0.07,0.10,0.00,99.37,96.52,95.79,98.53,356.7,7.7,1.6454178800535746,110.55122523797336,33.48945912359603,-21.606102816407002,-64.8183081647096
0.400,12.9,44.054524592685254,-78.681914777970846,148.1,-3.5,90.5,74.4,3365.7,3366,116.4,0,1,1,0,1,1,0,0,0,100,1,1.186,26.0,0.0,0.348,74.678,66.0,0.0,26.0,26.0,26.0,26.0,-1.78,0.25,0.27,381.2,-0.91,-3.20,-0.38,-3.20,-734.88,679.02,5.7,0.00,0.00,0.00,0.00,0.01,-7.49,-7.49,-0.72,3.80,-1.09,-0.83,31.99,-4.60,-0.47,33.16,100.0,0,0,96.94,0,0,0.0,0,0,0,0,6499,0,30.00,3,116.4,0,0,0.0,0.0,0.0,0.0,0,0,0.409,0.409,84.921,21.577,0,110.00,435.8,8750,0.0,0.0,110.0,110.0,433.0,0.00,0,0,1,333.3,68.3,68.3,76.0,76.0,34.0,-11.71,-1.43,26.1,3.7,2,-162.590,-15.9,100.0,34.5,12.4,41.7,18.7,1,1,100.0,0.00,0.00,0.00,0.00,7676,973,7722,2154,304.8,322.4,336.5,349.9,24.47,22.41,26.96,26.00,325.0,325.0,355.0,355.0,100.00,99.82,100.00,99.98,-5.85,-5.92,-9.51,-9.55,-0.4,-0.4,4.1,10.3,79.0,66.1,88.3,82.2,103.9,76.1,101.8,90.4,99.5,73.1,100.3,88.0,97.0,71.9,99.4,86.4,-0.80,0.82,0.06,0.10,0.00,99.64,96.68,96.71,97.18,356.7,7.7,1.8176358271116908,110.91132693735456,30.608645414741744,46.813222342114216,-46.813222626626185
0.450,14.5,44.054510293471722,-78.681911000820108,-12.1,-14.2,71.6,38.7,3367.4,3367,116.4,0,1,1,0,1,1,0,0,0,100,1,1.186,26.0,0.0,0.399,74.678,66.0,0.0,26.0,26.0,26.0,26.0,-1.68,0.31,0.14,380.9,-1.72,-3.78,-0.52,-2.48,-734.46,677.43,5.7,0.00,0.00,0.00,0.00,0.01,-7.49,-7.49,-0.45,4.49,-0.91,6.17,31.98,-4.67,-0.40,29.94,100.0,0,0,97.81,0,0,0.0,0,0,0,0,6557,0,30.00,3,116.3,1,0,0.0,0.0,0.0,0.0,0,0,0.459,0.459,84.921,21.577,1,110.00,435.8,8750,0.0,0.0,110.0,110.0,433.0,0.00,0,0,1,333.3,70.7,70.7,72.1,72.1,34.0,-17.70,-1.67,23.6,5.0,2,-162.640,-27.8,100.0,33.9,11.7,45.3,20.6,0,1,100.0,0.00,0.00,0.00,0.00,6881,729,7400,2548,307.3,323.1,337.3,348.5,24.48,22.41,26.97,26.00,325.0,325.0,355.0,355.0,100.00,99.82,100.00,99.98,-5.54,-5.61,-9.57,-9.67,-0.4,-0.5,6.9,9.8,79.0,66.1,88.3,82.2,104.0,76.1,102.0,90.5,99.6,73.1,100.5,88.1,97.1,71.9,99.6,86.5,-1.49,1.50,0.05,0.08,0.00,99.62,96.91,97.81,97.81,356.7,7.7,1.714088679152861,115.23254747218478,28.80813686093341,54.01525689876209,-46.8132220576026
0.500,16.1,44.054495814393867,-78.681907583398001,-205.5,-36.1,25.0,75.9,3369.0,3369,116.5,0,1,1,0,1,1,0,0,0,100,1,1.186,26.0,0.0,0.447,74.678,66.0,0.0,26.0,26.0,26.0,26.0,-1.50,0.38,-0.01,384.3,-1.48,-2.88,-0.50,-1.55,-734.08,675.82,5.7,0.00,0.00,0.00,0.00,0.01,-7.49,-7.49,-0.28,0.34,-0.61,3.68,32.04,-4.64,-0.31,21.01,100.0,0,0,97.09,0,0,0.0,0,0,0,0,6509,0,30.00,3,116.5,0,0,0.0,0.0,0.0,0.0,0,0,0.510,0.510,84.921,21.577,0,110.00,435.8,8750,0.0,0.0,110.0,110.0,433.0,0.00,0,0,1,166.7,81.5,81.5,64.4,64.4,34.0,-13.37,-1.09,21.3,10.5,2,-162.690,-35.8,100.0,23.6,9.9,46.5,24.4,0,1,100.0,0.00,0.00,0.00,0.00,3675,451,6750,4395,315.3,323.8,338.4,344.5,24.49,22.42,26.97,26.00,325.0,325.0,355.0,355.0,100.00,99.82,100.00,99.99,-5.21,-5.36,-9.20,-9.19,-0.2,-0.6,6.5,8.7,79.1,66.1,88.3,82.2,104.0,76.0,102.2,90.6,99.6,73.0,100.8,88.2,97.2,71.8,99.8,86.6,-2.05,2.03,0.05,0.08,0.00,99.35,97.23,97.09,97.09,356.7,7.7,1.5474172029546525,116.31285262723077,25.927323208981484,-18.005085253571593,-61.21729060187409
0.550,17.8,44.054481245383847,-78.681904525704539,-91.6,-37.3,11.1,32.9,3370.6,3371,117.0,0,1,1,0,1,1,0,0,0,100,1,1.186,26.0,0.0,0.498,74.678,66.0,0.0,26.0,26.0,26.0,26.0,-1.23,0.37,-0.11,386.8,-1.29,-3.54,-0.60,-1.73,-733.74,674.20,5.7,0.00,0.00,0.00,0.00,0.01,-7.49,-7.49,-0.44,-6.05,-0.82,-4.62,32.19,-4.41,-0.39,12.11,100.0,0,0,96.89,0,0,0.0,0,0,0,0,6495,0,30.00,3,117.0,1,0,0.0,0.0,0.0,0.0,0,0,0.561,0.561,84.921,21.577,1,110.00,435.8,8750,0.0,0.0,110.0,110.0,433.0,0.00,0,0,1,166.7,84.4,84.4,64.6,64.6,34.0,-25.85,0.00,22.9,2.8,2,-162.740,-38.1,100.0,19.0,8.0,47.1,26.1,1,1,100.0,0.00,0.00,0.00,0.00,4835,0,7088,1742,312.9,325.0,337.8,351.0,24.50,22.42,26.98,26.00,325.0,325.0,355.0,355.0,100.00,99.82,100.00,99.99,-4.98,0.00,-8.33,-8.30,-0.3,0.0,5.7,10.5,79.1,66.1,88.3,82.3,104.0,76.0,102.4,90.7,99.6,73.0,100.9,88.2,97.2,71.8,100.0,86.6,-2.23,2.19,0.05,0.07,0.00,99.28,97.73,94.81,98.96,356.7,7.7,1.289147004805891,113.43203894682762,22.686407800746,-21.606102816407144,-57.61627417708574
0.600,19.4,44.054467485763276,-78.681901917671880,53.3,27.7,-207.3,-226.8,3372.2,3372,117.0,0,1,1,0,1,1,0,0,0,100,1,1.186,26.0,0.0,0.546,74.678,66.0,0.0,26.0,26.0,26.0,26.0,-1.03,0.26,-0.42,392.5,-1.63,-3.11,-0.60,-2.14,-733.45,672.67,5.7,0.00,0.00,0.00,0.00,0.01,-7.49,-7.49,-0.70,-3.23,-0.96,-0.58,32.25,-4.15,-0.46,14.55,100.0,0,0,101.61,0,0,0.0,0,0,0,0,6811,0,30.00,3,117.0,0,0,0.0,0.0,0.0,0.0,0,0,0.609,0.609,84.921,21.577,0,110.00,435.8,8750,0.0,0.0,110.0,110.0,433.0,0.00,0,0,1,333.3,80.7,80.7,80.8,80.8,34.0,-42.20,-3.86,10.4,1.5,2,-162.790,-41.2,100.0,21.7,9.4,36.7,14.7,0,1,100.0,0.00,0.00,0.00,0.00,4794,649,4420,1267,312.6,323.1,344.7,352.5,24.50,22.42,26.98,26.00,325.0,325.0,355.0,355.0,100.00,99.82,100.00,99.99,-4.37,-4.41,-7.92,-7.74,-0.3,-0.2,10.3,13.0,79.2,66.1,88.4,82.3,104.1,76.0,102.5,90.7,99.7,73.0,101.1,88.2,97.2,71.8,100.1,86.6,-2.35,2.33,0.07,0.10,0.00,99.62,98.42,101.75,101.46,356.7,7.7,1.142322196230118,114.15224234559005,20.16569579127291,10.803050981436115,-43.212205632814324
0.650,21.0,44.054452736888940,-78.681899489503550,-7.1,-8.1,-52.3,-32.4,3373.9,3374,117.2,0,1,1,0,1,1,0,0,0,100,1,1.186,26.0,0.0,0.597,74.678,66.0,0.0,26.0,26.0,26.0,26.0,-1.24,0.25,-0.24,392.2,-1.17,-3.13,-0.98,-2.29,-733.18,671.03,5.7,0.00,0.00,0.00,0.00,0.01,-7.49,-7.49,-0.80,-2.03,-0.96,0.13,32.33,-3.94,-0.39,11.48,100.0,0,0,96.67,0,0,0.0,0,0,0,0,6481,0,30.00,3,117.2,1,0,0.0,0.0,0.0,0.0,0,0,0.660,0.660,84.921,21.577,1,110.00,435.8,8750,0.0,0.0,110.0,110.0,433.0,0.00,0,0,1,333.3,81.6,81.6,79.1,79.1,34.0,-49.11,-11.86,15.3,5.1,2,-162.840,-51.3,100.0,21.3,9.0,34.1,13.1,0,1,100.0,0.00,0.00,0.00,0.00,3834,1313,5255,2629,314.8,321.8,342.4,349.2,24.51,22.42,26.98,26.00,325.0,325.0,355.0,355.0,100.00,99.82,100.00,99.99,-3.60,-3.55,-7.54,-7.35,-0.1,-0.3,6.1,6.0,79.2,66.1,88.4,82.3,104.1,75.9,102.6,90.7,99.7,72.9,101.2,88.2,97.2,71.7,100.2,86.6,-2.91,2.88,0.08,0.11,0.00,100.01,98.82,95.42,97.93,356.7,7.7,1.2875169901791588,114.51234404497123,18.365187237464568,10.803051265947232,-39.6111880699787
0.700,22.7,44.054438887336211,-78.681897331131694,70.3,42.6,22.7,68.9,3375.5,3375,117.6,0,1,1,0,1,1,0,0,0,100,1,1.186,26.0,0.0,0.645,74.678,66.0,0.0,26.0,26.0,26.0,26.0,-1.20,0.41,-0.07,389.0,-1.09,-3.20,-0.17,-2.20,-732.94,669.49,5.7,0.00,0.00,0.00,0.00,0.01,-7.49,-7.49,-0.83,0.45,-1.15,-2.79,32.46,-3.58,-0.42,9.47,100.0,0,0,98.40,0,0,0.0,0,0,0,0,6596,0,30.00,3,117.6,0,0,0.0,0.0,0.0,0.0,1,0,0.709,0.709,84.921,21.577,0,110.00,435.8,8750,0.0,0.0,110.0,110.0,433.0,0.00,0,0,1,333.3,78.2,78.2,75.9,75.9,34.0,-81.69,-7.73,16.7,1.6,2,-162.890,-66.8,100.0,24.9,11.1,35.2,16.5,0,1,100.0,0.00,0.00,0.00,0.00,4617,819,6777,1255,312.7,322.5,338.4,352.2,24.52,22.42,26.99,26.00,325.0,325.0,355.0,355.0,100.00,99.82,100.00,99.99,-2.19,-2.19,-6.77,-6.63,-0.1,-0.2,4.5,10.2,79.3,66.1,88.4,82.3,104.1,75.9,102.7,90.7,99.7,72.9,101.3,88.2,97.2,71.7,100.3,86.6,-3.77,3.71,0.06,0.09,0.00,100.51,99.49,97.03,99.76,356.7,7.7,1.2700393694685215,115.23254747218478,16.20457698427504,54.01525689876209,-36.01017107616671
0.750,24.3,44.054423958597553,-78.681895442556325,33.0,10.8,31.2,39.2,3377.1,3377,118.1,0,1,1,0,1,1,0,0,0,100,1,1.186,26.0,0.0,0.696,74.678,66.0,0.0,26.0,26.0,26.0,26.0,-1.21,0.54,0.17,383.6,-1.31,-3.97,-1.71,-2.01,-732.73,667.83,5.7,0.00,0.00,0.00,0.00,0.02,-7.49,-7.49,-0.76,2.78,-1.09,3.48,32.67,-3.21,-0.35,1.57,100.0,0,0,98.31,0,0,0.0,0,0,0,0,6590,0,30.00,3,118.1,1,0,0.0,0.0,0.0,0.0,1,0,0.759,0.759,84.921,21.577,1,110.00,435.8,8750,0.0,0.0,110.0,110.0,433.0,0.00,0,0,1,166.7,72.0,72.0,74.6,74.6,34.0,-86.78,-8.18,13.3,1.2,2,-162.940,-87.9,100.0,26.5,11.7,36.8,18.5,0,1,100.0,0.00,0.00,0.00,0.00,6743,2940,6622,3585,308.0,317.5,338.9,346.1,24.53,22.43,26.99,26.01,325.0,325.0,355.0,355.0,100.00,99.82,100.00,99.99,-0.84,-0.74,-5.90,-5.68,-0.1,-0.2,6.9,7.2,79.3,66.2,88.5,82.3,104.0,75.8,102.9,90.7,99.6,72.9,101.4,88.2,97.2,71.7,100.4,86.7,-4.98,4.85,0.07,0.10,0.00,100.95,100.64,98.31,98.31,356.7,7.7,1.3358892169637422,119.91386973484744,14.764170129847896,18.005085538083563,-28.80813651951918
0.800,26.0,44.054408939926731,-78.681893643913114,-46.8,-28.1,2.5,117.1,3378.8,3379,118.9,0,1,1,0,1,1,0,0,0,100,1,1.186,26.0,0.0,0.744,74.678,66.0,0.0,26.0,26.0,26.0,26.0,-0.47,0.51,-0.26,387.5,-0.62,-3.20,-0.78,-1.55,-732.53,666.16,5.7,0.00,0.00,0.00,0.00,0.02,-7.49,-7.49,-0.61,2.25,-0.73,11.11,32.95,-2.64,-0.26,-14.79,100.0,0,0,98.90,0,0,0.0,0,0,0,0,6630,0,30.00,3,118.9,0,0,0.0,0.0,0.0,0.0,1,0,0.810,0.810,84.921,21.577,0,110.00,435.8,8750,0.0,0.0,110.0,110.0,433.0,0.00,0,0,1,333.3,80.2,80.2,75.6,75.6,34.0,23.57,14.39,-8.0,-15.5,2,-162.990,-107.0,100.0,24.2,10.3,36.9,24.4,0,1,100.0,0.00,0.00,0.00,0.00,3093,1609,4963,3766,317.0,321.0,343.4,346.2,24.54,22.43,27.00,26.01,325.0,325.0,355.0,355.0,100.00,99.82,100.00,99.99,0.75,0.67,-4.31,-4.12,-0.0,-0.5,7.4,6.2,79.4,66.2,88.5,82.3,104.0,75.8,102.9,90.7,99.6,72.8,101.5,88.3,97.1,71.6,100.5,86.7,-6.21,5.98,0.06,0.08,0.00,100.94,101.91,98.90,98.90,356.7,7.7,0.7406753674856482,117.03305602599313,13.323763332323121,18.00508525357131,-18.00508496905966
0.850,27.6,44.054394730645363,-78.681892115066375,-146.3,40.2,6.9,263.7,3380.4,3380,119.9,0,1,1,0,1,1,0,0,0,100,1,1.186,26.0,0.0,0.795,74.678,66.0,0.0,26.0,26.0,26.0,26.0,-0.05,0.41,-0.03,384.3,-2.09,-2.32,-2.18,-1.67,-732.36,664.58,5.7,0.00,0.00,0.00,0.00,0.02,-7.49,-7.49,-0.59,-1.94,-0.32,3.93,33.28,-1.72,-0.24,-35.94,100.0,0,0,96.68,0,0,0.0,0,0,0,0,6481,0,30.00,3,119.9,1,0,0.0,0.0,0.0,0.0,1,0,0.859,0.859,84.921,21.577,1,110.00,435.8,8750,0.0,0.0,110.0,110.0,433.0,0.00,0,0,1,333.3,80.7,80.7,68.8,68.8,34.0,48.80,45.12,-49.6,-38.7,2,-163.040,-112.8,100.0,16.9,12.3,37.3,37.5,0,1,100.0,0.00,0.00,0.00,0.00,3596,2899,5052,3206,316.2,317.0,343.3,346.4,24.54,22.43,27.00,26.01,325.0,325.0,355.0,355.0,100.00,99.82,100.00,99.99,2.01,1.92,-1.94,-1.75,-0.1,-0.2,4.9,1.9,79.4,66.2,88.5,82.3,103.9,75.8,103.0,90.7,99.5,72.8,101.5,88.3,97.1,71.6,100.5,86.7,-6.72,6.41,0.07,0.05,0.00,100.71,103.73,96.68,96.68,356.7,7.7,0.4141255848169731,121.71437826020457,12.96366163294193,57.61627389257427,-5.690236903888035e-07
0.900,29.3,44.054378542856455,-78.681890406355322,-8.9,56.6,-86.2,-60.4,3382.1,3382,120.8,0,1,1,0,1,1,0,0,0,100,1,1.186,26.0,0.0,0.843,74.678,66.0,0.0,26.0,26.0,26.0,26.0,0.77,0.46,-0.02,385.0,-2.53,-3.17,-1.71,-0.93,-732.17,662.78,5.7,0.00,0.00,0.00,0.00,0.02,-7.49,-7.49,-0.74,-2.96,0.23,14.65,33.57,-0.57,-0.27,-47.69,100.0,0,0,97.47,0,0,0.0,0,0,0,0,6534,0,30.00,3,120.8,0,0,0.0,0.0,0.0,0.0,1,0,0.911,0.911,84.921,21.577,0,110.00,435.8,8750,0.0,0.0,110.0,110.0,433.0,0.00,0,0,1,166.7,79.0,79.0,73.1,73.1,34.0,40.44,48.71,4.6,49.7,2,-163.090,-105.4,100.0,16.4,15.1,33.0,34.5,0,1,100.0,0.00,0.00,0.00,0.00,3061,3408,3245,5428,317.4,315.5,346.5,341.7,24.55,22.43,27.01,26.01,325.0,325.0,355.0,355.0,100.00,99.82,100.00,99.99,3.04,2.99,0.57,0.58,-0.1,-0.2,5.4,1.3,79.4,66.2,88.5,82.3,103.9,75.8,103.0,90.7,99.5,72.8,101.5,88.2,97.0,71.6,100.5,86.7,-6.35,6.07,0.07,0.06,0.00,100.78,104.94,97.48,97.48,356.7,7.7,0.8971621926942753,122.79468341525056,13.323763275420752,-57.616273608062016,14.404067975247745
0.950,31.0,44.054364063778600,-78.681888787576440,-62.0,36.7,-228.6,90.8,3383.8,3384,121.5,0,1,1,0,1,1,0,0,0,100,1,1.186,26.0,0.0,0.891,74.678,66.0,0.0,26.0,26.0,26.0,26.0,0.99,0.35,-0.32,388.9,-2.31,-2.45,-2.29,0.25,-731.99,661.17,5.7,0.00,0.00,0.00,0.00,0.02,-7.49,-7.49,-0.87,-3.90,0.97,13.44,33.76,0.40,-0.31,-51.35,100.0,0,0,100.07,0,0,0.0,0,0,0,0,6708,0,30.00,3,121.5,1,0,0.0,0.0,0.0,0.0,1,0,0.960,0.960,84.921,21.577,1,110.00,435.8,8750,0.0,0.0,110.0,110.0,433.0,0.00,0,0,1,333.3,82.3,82.3,84.8,84.8,34.0,6.14,32.79,2.8,110.2,2,-163.140,-97.1,100.0,13.3,16.9,21.5,39.1,0,1,100.0,0.00,0.00,0.00,0.00,845,3244,1272,7120,322.8,315.8,352.0,338.5,24.56,22.43,27.01,26.01,325.0,325.0,355.0,355.0,100.00,99.82,100.00,99.99,4.07,3.91,2.43,2.35,-0.1,-0.2,7.7,2.9,79.5,66.2,88.6,82.3,103.8,75.8,102.9,90.7,99.4,72.8,101.4,88.3,97.0,71.6,100.5,86.7,-5.82,5.56,0.10,0.05,0.00,100.83,105.40,100.07,100.07,356.7,7.7,1.0977249200050074,115.95275089939837,14.404068430466705,-32.40915408235509,39.61118863900239
1.000,32.7,44.054349584700745,-78.681886809068899,-93.2,25.6,-76.9,61.3,3385.5,3386,122.2,0,1,1,0,1,1,0,0,0,100,1,1.186,26.0,0.0,0.939,74.678,66.0,0.0,26.0,26.0,26.0,26.0,1.38,0.35,-0.09,387.6,-2.38,-1.44,-2.70,0.21,-731.77,659.56,5.7,0.00,0.00,0.00,0.00,0.02,-7.49,-7.49,-1.08,-6.14,1.42,6.18,33.92,1.28,-0.39,-51.05,100.0,0,0,101.71,0,0,0.0,0,0,0,0,6818,0,30.00,3,122.2,0,0,0.0,0.0,0.0,0.0,1,0,1.009,1.009,84.921,21.577,0,110.00,435.8,8750,0.0,0.0,110.0,110.0,433.0,0.00,0,0,1,333.3,79.0,79.0,79.3,79.3,34.0,1.90,19.41,0.9,46.5,2,-163.190,-98.7,100.0,8.7,18.2,17.7,42.1,0,1,100.0,0.00,0.00,0.00,0.00,1072,7390,1868,5534,322.2,305.9,350.4,341.2,24.56,22.44,27.01,26.02,325.0,325.0,355.0,355.0,100.00,99.82,100.00,99.99,5.74,5.59,4.02,3.99,-0.3,-0.4,9.1,4.3,79.5,66.2,88.6,82.3,103.7,75.9,102.9,90.8,99.3,72.9,101.4,88.3,96.9,71.7,100.4,86.7,-5.87,5.57,0.11,0.04,0.00,100.94,105.24,101.71,101.71,356.7,7.7,1.4265342617687105,119.55376800701505,17.28488213932099,72.02034243684537,54.015256614250156
1.050,34.4,44.054334206301284,-78.681884470832728,51.6,217.3,-57.8,-128.9,3387.2,3387,122.4,0,1,1,0,1,1,0,0,0,100,1,1.186,26.0,0.0,0.981,74.678,66.0,0.0,26.0,26.0,26.0,26.0,1.34,0.00,-0.24,387.5,-3.24,-1.91,-2.08,0.56,-731.51,657.85,5.7,0.00,0.00,0.00,0.00,0.02,-7.49,-7.49,-1.16,0.07,1.64,0.13,33.92,2.24,-0.46,-57.38,100.0,0,0,101.97,0,0,0.0,0,0,0,0,6836,0,30.00,3,122.4,1,0,0.0,0.0,0.0,0.0,1,0,1.059,1.059,84.921,21.577,1,110.00,435.8,8750,0.0,0.0,110.0,110.0,433.0,0.00,0,0,1,333.3,72.5,72.5,80.4,80.4,34.0,-0.78,-22.61,-0.1,8.5,2,-163.240,-103.8,100.0,11.2,29.1,14.8,35.7,0,1,100.0,0.00,0.00,0.00,0.00,579,7140,99,5845,323.5,305.3,354.5,340.9,24.57,22.44,27.02,26.02,325.0,325.0,355.0,355.0,100.00,99.82,100.00,99.99,7.47,7.17,6.01,5.83,-0.1,-0.5,8.7,3.6,79.6,66.3,88.6,82.4,103.7,76.0,102.8,90.8,99.3,73.1,101.4,88.4,96.9,71.8,100.4,86.8,-6.16,5.84,0.11,0.06,0.00,100.82,105.34,104.05,99.89,356.7,7.7,1.361322886019331,123.1547851430829,19.80559409189172,2.845119695393805e-07,43.212205063790634
1.100,36.1,44.054318827901817,-78.681881862800068,-17.1,-16.8,100.5,106.3,3388.9,3389,122.6,0,1,1,0,1,1,0,0,0,100,1,1.186,26.0,0.0,0.981,74.678,66.0,0.0,26.0,26.0,26.0,26.0,1.46,0.28,0.05,384.5,-2.57,-3.02,-2.53,-0.26,-731.22,656.14,5.6,0.00,0.00,0.00,0.00,0.02,-7.49,-7.49,-0.98,1.33,1.41,-6.26,33.89,3.25,-0.37,-55.12,100.0,0,0,101.75,0,0,0.0,0,0,0,0,6821,0,30.00,3,122.6,0,0,0.0,0.0,0.0,0.0,1,0,1.110,1.110,84.921,21.577,0,110.00,435.8,8750,0.0,0.0,110.0,110.0,433.0,0.00,0,0,1,333.3,77.2,77.2,71.7,71.7,34.0,-0.33,-14.50,-5.4,-24.1,2,-163.290,-102.9,100.0,10.4,28.2,19.8,41.0,0,1,100.0,0.00,0.00,0.00,0.00,251,4788,2880,7133,324.2,311.5,348.1,337.3,24.58,22.45,27.02,26.02,325.0,325.0,355.0,355.0,100.00,99.83,100.00,99.99,9.42,8.96,7.70,7.58,0.1,-0.4,9.8,3.2,79.6,66.3,88.6,82.4,103.6,76.3,102.9,91.0,99.2,73.3,101.4,88.5,96.8,72.0,100.4,87.0,-6.18,5.83,0.10,0.03,0.00,100.53,104.84,100.88,102.62,356.7,7.7,1.4874474780643514,119.55376803546625,21.606102645700055,-39.61118863900225,46.81322262662622
1.150,37.8,44.054304348823962,-78.681879074903094,-26.5,-117.1,91.7,43.2,3390.6,3391,122.8,0,1,1,0,1,1,0,0,0,100,1,1.186,26.0,0.0,1.083,74.678,66.0,0.0,26.0,26.0,26.0,26.0,1.37,0.29,-0.07,385.4,-1.80,-1.83,-2.71,-0.10,-730.91,654.53,5.6,0.00,0.00,0.00,0.00,0.02,-7.49,-7.49,-1.00,-3.74,1.23,-1.28,33.87,4.05,-0.39,-47.95,100.0,0,0,102.86,0,0,0.0,0,0,0,0,6895,0,30.00,3,122.8,1,0,0.0,0.0,0.0,0.0,1,0,1.159,1.159,84.921,21.577,1,110.00,435.8,8750,0.0,0.0,110.0,110.0,433.0,0.00,0,0,1,166.7,81.1,81.1,70.3,70.3,34.0,-0.47,-13.25,-5.8,-19.2,2,-163.340,-95.9,100.0,9.1,22.4,24.4,43.2,0,1,100.0,0.00,0.00,0.00,0.00,311,4567,2986,6271,323.9,312.4,347.6,339.8,24.58,22.45,27.02,26.02,325.0,325.0,355.0,355.0,100.00,99.83,100.00,99.99,10.70,10.25,8.78,8.56,0.1,-0.6,10.2,5.6,79.6,66.3,88.7,82.4,103.5,76.4,102.9,91.2,99.2,73.4,101.4,88.7,96.8,72.2,100.4,87.1,-5.80,5.51,0.09,0.05,0.00,100.33,104.06,102.86,102.86,356.7,7.7,1.4021055595068441,119.19366627918268,24.486916354554342,61.21729060187377,68.41932515852157
1.200,39.5,44.054289060356666,-78.681875747413144,-4.9,-40.8,-59.6,-54.6,3392.3,3392,122.9,0,1,1,0,1,1,0,0,0,100,1,1.186,26.0,0.0,1.089,74.678,66.0,0.0,26.0,26.0,26.0,26.0,1.28,0.19,-0.21,387.9,-1.56,-1.82,-1.96,-0.16,-730.54,652.83,5.6,0.00,0.00,0.00,0.00,0.02,-7.49,-7.49,-1.23,-6.10,1.24,1.34,33.80,4.77,-0.46,-44.03,100.0,0,0,103.45,0,0,0.0,0,0,0,0,6935,0,30.00,3,122.9,0,0,0.0,0.0,0.0,0.0,0,0,1.209,1.209,84.921,21.577,0,110.00,435.8,8750,0.0,0.0,110.0,110.0,433.0,0.00,0,0,1,333.3,81.0,81.0,77.7,77.7,34.0,-1.90,-13.62,-3.2,-14.6,2,-163.390,-83.6,100.0,8.8,20.4,21.4,40.4,0,1,100.0,0.00,0.00,0.00,0.00,1015,4700,1639,5186,322.1,312.2,349.9,342.3,24.59,22.45,27.03,26.03,325.0,325.0,355.0,355.0,100.00,99.83,100.00,99.99,11.41,10.98,9.85,9.59,-0.2,-0.7,10.0,7.4,79.7,66.3,88.7,82.4,103.5,76.6,103.0,91.4,99.1,73.6,101.5,88.9,96.7,72.4,100.5,87.3,-5.10,4.86,0.10,0.07,0.00,100.03,103.46,104.63,102.26,356.7,7.7,1.310953851209111,125.67549709565363,28.448035161552212,-14.404068259759697,46.813222057602566
1.250,41.2,44.054272962499915,-78.681871970262407,190.9,198.0,-158.5,-65.2,3394.0,3394,122.6,0,1,1,0,1,1,0,0,0,100,1,1.186,26.0,0.0,1.176,74.678,66.0,0.0,26.0,26.0,26.0,26.0,1.59,0.03,0.09,383.2,-3.34,-2.02,-2.20,-0.57,-730.12,651.04,5.6,0.00,0.00,0.00,0.00,0.03,-7.49,-7.49,-1.33,1.39,1.44,4.73,33.59,5.49,-0.56,-51.58,100.0,0,0,101.49,0,0,0.0,0,0,0,0,6803,0,30.00,3,122.6,1,0,0.0,0.0,0.0,0.0,0,0,1.263,1.263,84.921,21.577,1,110.00,435.8,8750,0.0,0.0,110.0,110.0,433.0,0.00,0,0,1,166.7,64.5,64.5,84.9,84.9,34.0,-5.47,-25.27,-1.5,-16.2,2,-163.440,-64.6,100.0,18.4,30.3,13.5,37.2,1,1,100.0,0.00,0.00,0.00,0.00,2569,7648,993,5226,318.2,303.9,352.6,341.9,24.60,22.46,27.03,26.03,325.0,325.0,355.0,355.0,100.00,99.83,100.00,99.99,11.22,10.89,11.27,11.00,-0.4,-1.0,10.5,2.9,79.7,66.3,88.7,82.4,103.6,77.0,102.9,91.6,99.2,73.9,101.4,89.1,96.8,72.7,100.4,87.5,-3.98,3.85,0.12,0.05,0.00,99.39,103.49,101.49,101.49,356.7,7.7,1.5928276742949943,117.75325945320671,29.1682385603146,-122.4345817727719,25.207119525707213
1.300,42.9,44.054259652540154,-78.681868462908142,-125.0,38.8,11.2,11.9,3395.7,3396,122.3,0,1,1,0,1,1,0,0,0,100,1,1.186,26.0,0.0,1.224,74.678,66.0,0.0,26.0,26.0,26.0,26.0,1.66,0.16,-0.01,383.4,-3.39,-1.64,-2.23,-0.35,-729.73,649.56,5.6,0.00,0.00,0.00,0.00,0.03,-7.49,-7.49,-1.10,4.41,1.59,-2.06,33.39,6.20,-0.48,-51.08,100.0,0,0,100.34,0,0,0.0,0,0,0,0,6726,0,30.00,3,122.3,0,0,0.0,0.0,0.0,0.0,0,0,1.309,1.309,84.921,21.577,0,110.00,435.8,8750,0.0,0.0,110.0,110.0,433.0,0.00,0,0,1,333.3,70.1,70.1,73.9,73.9,34.0,-2.02,-22.13,-6.9,-21.1,2,-163.490,-46.0,100.0,12.1,32.2,14.1,37.8,1,1,100.0,0.00,0.00,0.00,0.00,1241,6853,3259,6590,322.2,305.7,347.6,338.7,24.60,22.46,27.03,26.03,325.0,325.0,355.0,355.0,100.00,99.83,100.00,99.99,11.42,11.02,12.58,12.28,-0.3,-0.8,10.0,4.8,79.8,66.4,88.7,82.4,103.6,77.2,103.0,91.8,99.2,74.2,101.5,89.4,96.8,72.9,100.4,87.8,-2.86,2.78,0.11,0.06,0.00,99.21,103.29,100.32,100.36,356.7,7.7,1.6677229985821986,113.43203891837643,30.968747114122934,18.00508582259539,61.21729117089771
1.350,44.6,44.054244633869331,-78.681864236096601,-15.7,-124.7,215.4,218.7,3397.4,3397,122.1,0,1,1,0,1,1,0,0,0,100,1,1.186,26.0,0.0,1.272,74.678,66.0,0.0,26.0,26.0,26.0,26.0,1.78,0.25,0.18,379.0,-3.01,-1.54,-2.51,-1.55,-729.26,647.89,5.6,0.00,0.00,0.00,0.00,0.03,-7.49,-7.49,-0.93,-0.83,1.57,1.83,33.22,6.75,-0.47,-41.57,100.0,0,0,101.59,0,0,0.0,0,0,0,0,6810,0,30.00,3,122.1,1,0,0.0,0.0,0.0,0.0,0,0,1.359,1.359,84.921,21.577,1,110.00,435.8,8750,0.0,0.0,110.0,110.0,433.0,0.00,0,0,1,333.3,74.6,74.6,68.5,68.5,34.0,-2.59,-18.90,-6.6,-30.2,2,-163.540,-20.9,100.0,11.3,26.0,24.8,48.7,0,1,100.0,0.00,0.00,0.00,0.00,1423,6119,3066,8565,321.4,308.3,347.3,333.4,24.61,22.46,27.04,26.03,325.0,325.0,355.0,355.0,100.00,99.83,100.00,99.99,11.32,11.05,13.21,12.93,-0.5,-0.8,10.5,6.5,79.8,66.4,88.7,82.5,103.5,77.5,103.1,92.2,99.1,74.4,101.6,89.7,96.7,73.1,100.6,88.2,-1.43,1.41,0.08,0.03,0.00,99.13,102.59,101.59,101.59,356.7,7.7,1.8064606278576902,119.55376803546625,35.28996767740437,14.404068544272093,54.015257183273846
1.400,46.3,44.054229795062831,-78.681859649556401,-31.2,-9.2,-87.7,-40.4,3399.1,3399,121.8,0,1,1,0,1,1,0,0,0,100,1,1.186,26.0,0.0,1.317,74.678,66.0,0.0,26.0,26.0,26.0,26.0,1.31,0.15,-0.15,385.1,-3.99,-1.27,-3.13,-0.73,-728.75,646.24,5.5,0.00,0.00,0.00,0.00,0.03,-7.49,-7.49,-1.00,-2.94,1.56,-4.87,33.06,7.20,-0.52,-36.98,100.0,0,0,100.16,0,0,0.0,0,0,0,0,6714,0,30.00,3,121.8,0,0,0.0,0.0,0.0,0.0,0,0,1.410,1.410,84.921,21.577,0,110.00,435.8,8750,0.0,0.0,110.0,110.0,433.0,0.00,0,0,1,166.7,76.2,76.2,77.0,77.0,34.0,-1.47,-18.86,-1.3,-14.6,2,-163.590,5.1,100.0,9.8,25.5,20.4,46.7,1,1,100.0,0.00,0.00,0.00,0.00,1057,6085,873,4852,323.0,308.2,352.5,342.3,24.61,22.47,27.04,26.04,325.0,325.0,355.0,355.0,100.00,99.83,100.00,100.00,10.83,10.61,13.91,13.56,-0.5,-0.8,10.8,5.7,79.8,66.4,88.8,82.5,103.5,77.7,103.1,92.5,99.1,74.6,101.6,90.1,96.7,73.4,100.6,88.5,0.11,-0.08,0.10,0.04,0.00,99.15,102.32,100.90,99.41,356.7,7.7,1.3270644294833616,114.87244577280364,36.37027283245032,-57.616274177085955,32.40915351333115
1.450,48.0,44.054215945510101,-78.681855152948373,-4.6,73.8,46.5,-188.0,3400.8,3401,121.5,0,1,1,0,1,1,0,0,0,100,1,1.186,26.0,0.0,1.365,74.678,66.0,0.0,26.0,26.0,26.0,26.0,1.51,0.20,0.09,384.4,-3.81,-1.08,-2.07,0.04,-728.25,644.70,5.5,0.00,0.00,0.00,0.00,0.03,-7.49,-7.49,-1.02,0.05,1.23,-5.81,32.90,7.51,-0.48,-33.55,100.0,0,0,101.12,0,0,0.0,0,0,0,0,6779,0,30.00,3,121.5,1,0,0.0,0.0,0.0,0.0,0,0,1.459,1.459,84.921,21.577,1,110.00,435.8,8750,0.0,0.0,110.0,110.0,433.0,0.00,0,0,1,333.3,74.0,74.0,66.8,66.8,34.0,-0.78,-20.98,-6.0,-15.1,2,-163.640,28.8,100.0,9.5,29.2,22.8,37.3,0,1,100.0,0.00,0.00,0.00,0.00,532,6527,2783,5241,323.4,306.3,348.0,342.2,24.62,22.47,27.05,26.04,325.0,325.0,355.0,355.0,100.00,99.83,100.00,100.00,10.16,9.91,14.29,14.09,-0.7,-0.8,10.5,7.2,79.9,66.4,88.8,82.5,103.4,78.0,103.2,92.8,99.1,74.9,101.7,90.3,96.6,73.6,100.7,88.7,1.50,-1.48,0.09,0.06,0.00,99.29,102.24,101.12,101.12,356.7,7.7,1.5258440287263966,113.79214061775765,38.530883028737485,14.40406825975927,61.217290601873984
1.500,49.7,44.054201376500089,-78.681850026815226,18.1,-70.2,-39.4,58.0,3402.5,3402,121.2,0,1,1,0,1,1,0,0,0,100,1,1.186,26.0,0.0,1.413,74.678,66.0,0.0,26.0,26.0,26.0,26.0,1.24,0.21,-0.10,386.7,-3.83,-2.19,-2.27,-0.94,-727.68,643.08,5.5,0.00,0.00,0.00,0.00,0.03,-7.49,-7.49,-0.95,-0.20,1.10,-3.20,32.77,7.73,-0.41,-27.02,100.0,0,0,99.71,0,0,0.0,0,0,0,0,6684,0,30.00,3,121.2,0,0,0.0,0.0,0.0,0.0,0,0,1.509,1.509,84.921,21.577,0,110.00,435.8,8750,0.0,0.0,110.0,110.0,433.0,0.00,0,0,1,166.7,80.1,80.1,74.0,74.0,34.0,0.00,-11.23,-7.0,-18.2,2,-163.690,52.2,100.0,10.4,25.7,20.8,40.2,1,1,100.0,0.00,0.00,0.00,0.00,0,3933,3299,5965,325.0,314.0,347.8,340.3,24.63,22.48,27.05,26.04,325.0,325.0,355.0,355.0,100.00,99.83,100.00,100.00,0.00,9.13,14.42,14.29,0.0,-0.5,10.0,7.9,79.9,66.5,88.8,82.5,103.4,78.2,103.3,93.1,99.0,75.1,101.8,90.6,96.6,73.8,100.7,89.0,2.86,-2.89,0.09,0.04,0.00,99.51,102.23,99.76,99.67,356.7,7.7,1.2616259350536514,116.31285259877957,42.49200189263772,14.404068828783352,61.21729117089764
1.550,51.3,44.054186897422234,-78.681844540953421,-65.7,-125.7,79.9,48.2,3404.2,3404,121.2,0,1,1,0,1,1,0,0,0,100,1,1.186,26.0,0.0,1.461,74.678,66.0,0.0,26.0,26.0,26.0,26.0,1.41,0.26,-0.15,386.6,-3.23,-0.96,-2.64,-0.08,-727.07,641.47,5.5,0.00,0.00,0.00,0.00,0.03,-7.49,-7.49,-1.18,-7.37,1.13,2.10,32.78,7.60,-0.49,-13.24,100.0,0,0,98.61,0,0,0.0,0,0,0,0,6610,0,30.00,3,121.2,1,0,0.0,0.0,0.0,0.0,0,0,1.560,1.560,84.921,21.577,1,110.00,435.8,8750,0.0,0.0,110.0,110.0,433.0,0.00,0,0,1,333.3,83.4,83.4,73.8,73.8,34.0,-0.52,-13.56,-5.2,-21.6,2,-163.740,71.1,100.0,7.1,19.4,24.8,42.6,0,1,100.0,0.00,0.00,0.00,0.00,393,4646,2608,6829,323.9,312.2,349.0,338.1,24.63,22.48,27.05,26.05,325.0,325.0,355.0,355.0,100.00,99.83,100.00,100.00,8.60,8.44,13.59,13.63,-1.2,-0.6,9.3,6.5,80.0,66.5,88.8,82.5,103.3,78.3,103.5,93.4,98.9,75.2,101.9,91.0,96.5,73.9,100.8,89.4,3.97,-4.05,0.09,0.04,0.00,99.79,101.73,99.43,97.79,356.7,7.7,1.441596337398233,115.23254750063599,44.65261214582725,-25.207119525707213,43.212205063790705
1.600,53.0,44.054172598208694,-78.681838875227314,147.9,123.2,-275.7,-229.1,3405.8,3406,120.9,0,1,1,0,1,1,0,0,0,100,1,1.186,26.0,0.0,1.509,74.678,66.0,0.0,26.0,26.0,26.0,26.0,1.30,0.22,-0.26,389.4,-4.01,-0.44,-2.39,-0.16,-726.44,639.88,5.5,0.00,0.00,0.00,0.00,0.03,-7.49,-7.49,-1.41,-0.36,1.28,2.59,32.75,7.42,-0.57,-20.96,100.0,0,0,104.02,0,0,0.0,0,0,0,0,6973,0,30.00,3,120.9,0,0,0.0,0.0,0.0,0.0,0,0,1.611,1.611,84.921,21.577,0,110.00,435.8,8750,0.0,0.0,110.0,110.0,433.0,0.00,0,0,1,166.7,70.8,70.8,94.1,94.1,34.0,-0.55,-6.66,0.0,-13.5,2,-163.790,95.0,100.0,14.5,25.6,11.0,31.1,1,1,100.0,0.00,0.00,0.00,0.00,2705,6394,0,5061,318.4,307.5,355.0,342.8,24.64,22.48,27.06,26.05,325.0,325.0,355.0,355.0,100.00,99.83,100.00,100.00,6.67,6.48,0.00,13.51,-0.4,-0.7,0.0,11.4,80.0,66.5,88.9,82.6,103.3,78.5,103.4,93.6,98.9,75.4,101.9,91.2,96.5,74.1,100.8,89.6,5.23,-5.40,0.13,0.07,0.00,100.72,102.43,105.67,102.36,356.7,7.7,1.3438749941865873,113.79214064620885,46.81322239901679,-57.61627417708581,32.4091540823548
1.650,54.7,44.054158478859485,-78.681832849772547,94.0,208.5,1.9,161.4,3407.5,3408,120.6,0,1,1,0,1,1,0,0,0,100,1,1.186,26.0,0.0,1.557,74.678,66.0,0.0,26.0,26.0,26.0,26.0,1.84,0.28,0.28,379.8,-3.40,-1.16,-2.37,0.49,-725.77,638.31,5.5,0.00,0.00,0.00,0.00,0.03,-7.49,-7.49,-1.16,7.95,1.65,7.17,32.72,7.20,-0.58,-22.51,100.0,0,0,99.78,0,0,0.0,0,0,0,0,6689,0,30.00,3,120.6,1,0,0.0,0.0,0.0,0.0,0,0,1.661,1.661,84.921,21.577,1,110.00,435.8,8750,0.0,0.0,110.0,110.0,433.0,0.00,0,0,1,166.7,61.4,61.4,82.3,82.3,34.0,14.41,91.30,-3.3,-23.9,2,-163.840,124.5,100.0,19.2,36.0,11.1,39.2,0,1,100.0,0.00,0.00,0.00,0.00,2035,8111,1852,7468,319.7,301.9,350.9,336.2,24.65,22.49,27.06,26.05,325.0,325.0,355.0,355.0,100.00,99.84,100.00,100.00,4.60,4.35,13.19,13.22,-0.3,-0.3,8.6,6.8,80.0,66.6,88.9,82.6,103.3,78.6,103.4,94.0,98.9,75.5,101.9,91.5,96.5,74.2,100.8,89.9,6.81,-7.08,0.12,0.05,0.00,101.10,103.30,99.78,99.78,356.7,7.7,1.8821264569629745,109.4709200829274,47.89352755406273,-86.42441069660492,21.606102531895317
1.700,56.4,44.054145258831880,-78.681826914249953,-113.0,24.1,156.4,109.4,3409.2,3409,120.6,0,1,1,0,1,1,0,0,0,100,1,1.186,26.0,0.0,1.605,74.678,66.0,0.0,26.0,26.0,26.0,26.0,1.44,0.34,0.11,379.8,-4.79,-0.15,-2.99,-0.19,-725.11,636.84,5.5,0.00,0.00,0.00,0.00,0.03,-7.49,-7.49,-0.65,9.92,1.79,-1.90,32.76,6.98,-0.44,-15.36,100.0,0,0,100.32,0,0,0.0,0,0,0,0,6725,0,30.00,3,120.6,0,0,0.0,0.0,0.0,0.0,1,0,1.710,1.710,84.921,21.577,0,110.00,435.8,8750,0.0,0.0,110.0,110.0,433.0,0.00,0,0,1,333.3,69.4,69.4,69.3,69.3,34.0,1.95,115.72,-5.7,-24.5,2,-163.890,152.8,100.0,13.6,37.2,18.9,44.7,1,1,100.0,0.00,0.00,0.00,0.00,379,6326,2775,7673,324.3,307.5,348.3,336.1,24.65,22.49,27.06,26.06,325.0,325.0,355.0,355.0,100.00,99.84,100.00,100.00,2.05,2.59,12.66,12.66,-0.3,-0.1,8.1,8.3,80.1,66.6,88.9,82.6,103.2,78.7,103.5,94.3,98.9,75.6,102.0,91.8,96.4,74.3,100.9,90.3,8.45,-8.86,0.10,0.04,0.00,101.54,103.49,101.51,99.12,356.7,7.7,1.4836778626103444,105.14969957654836,48.97383265220632,-21.606102247383348,50.414239620438224
1.750,58.0,44.054132218668592,-78.681820618998714,-72.7,-147.8,240.2,183.6,3410.9,3411,120.7,0,1,1,0,1,1,0,0,0,100,1,1.186,26.0,0.0,1.605,74.678,66.0,0.0,26.0,26.0,26.0,26.0,1.36,0.34,0.32,377.0,-4.37,1.11,-2.52,-0.62,-724.41,635.39,5.5,0.00,0.00,0.00,0.00,0.03,-7.49,-7.49,-0.33,3.39,1.50,-8.92,32.90,6.47,-0.31,4.11,100.0,0,0,98.91,0,0,0.0,0,0,0,0,6630,0,30.00,3,120.7,1,0,0.0,0.0,0.0,0.0,1,0,1.759,1.759,84.921,21.577,1,110.00,435.8,8750,0.0,0.0,110.0,110.0,433.0,0.00,0,0,1,333.3,76.6,76.6,60.3,60.3,34.0,5.76,44.66,-10.0,-28.7,2,-163.940,177.9,100.0,10.0,29.8,30.9,53.8,0,1,100.0,0.00,0.00,0.00,0.00,1034,4557,4132,8284,322.5,312.4,344.8,334.3,24.66,22.50,27.07,26.06,325.0,325.0,355.0,355.0,100.00,99.84,100.00,100.00,1.37,0.98,11.08,11.26,-0.8,0.1,7.7,5.4,80.1,66.6,88.9,82.6,103.2,78.7,103.7,94.6,98.8,75.6,102.1,92.2,96.4,74.3,101.0,90.6,9.88,-10.56,0.07,0.03,0.00,102.64,102.92,98.75,99.06,356.7,7.7,1.4379151574414952,107.31030985818907,52.93495151610655,50.41423962043794,72.02034272135712
1.800,59.7,44.054118459048020,-78.681813694222342,87.6,-48.8,64.9,8.4,3412.6,3413,121.1,0,1,1,0,1,1,0,0,0,100,1,1.186,26.0,0.0,1.656,74.678,66.0,0.0,26.0,26.0,26.0,26.0,0.76,0.44,0.52,374.6,-3.45,-0.31,-2.67,-0.99,-723.64,633.86,5.5,0.00,0.00,0.00,0.00,0.04,-7.49,-7.49,-0.35,-1.76,1.04,-10.81,33.22,5.43,-0.41,30.75,100.0,0,0,100.75,0,0,0.0,0,0,0,0,6754,0,30.00,3,121.1,0,0,0.0,0.0,0.0,0.0,1,0,1.809,1.809,84.921,21.577,0,110.00,435.8,8750,0.0,0.0,110.0,110.0,433.0,0.00,0,0,1,333.3,70.3,70.3,66.9,66.9,34.0,-31.19,-41.38,-5.9,-25.6,2,-163.990,191.9,100.0,14.3,27.4,34.2,54.3,0,1,100.0,0.00,0.00,0.00,0.00,3578,5318,2739,7831,315.0,310.1,347.8,335.1,24.66,22.50,27.07,26.07,325.0,325.0,355.0,355.0,100.00,99.84,100.00,100.00,-0.28,-0.63,8.24,8.50,-0.2,-0.0,6.6,9.4,80.2,66.6,89.0,82.7,103.1,78.7,103.8,95.0,98.7,75.5,102.2,92.5,96.3,74.3,101.1,90.9,10.74,-11.59,0.07,0.02,0.00,105.01,102.47,100.74,100.74,356.7,7.7,1.020588065773846,110.19112353859215,56.17586692434203,-3.601017278323866,25.207119525707284
1.850,61.4,44.054104699427448,-78.681806589581655,62.6,-68.4,-26.1,-410.3,3414.2,3414,121.6,0,1,1,0,1,1,0,0,0,100,1,1.186,26.0,0.0,1.704,74.678,66.0,0.0,26.0,26.0,26.0,26.0,0.09,0.30,0.14,383.1,-3.25,-1.30,-1.29,-1.44,-722.85,632.33,5.5,0.00,0.00,0.00,0.00,0.04,-7.49,-7.49,-0.40,0.68,0.40,-8.63,33.56,3.98,-0.38,56.93,100.0,0,0,101.14,0,0,0.0,0,0,0,0,6780,0,30.00,3,121.6,1,0,0.0,0.0,0.0,0.0,1,0,1.860,1.860,84.921,21.577,1,110.00,435.8,8750,0.0,0.0,110.0,110.0,433.0,0.00,0,0,1,333.3,72.2,72.2,71.6,71.6,34.0,-72.45,-55.50,12.3,-2.5,2,-164.040,186.9,100.0,17.5,23.9,32.9,33.7,0,1,100.0,0.00,0.00,0.00,0.00,4267,3770,3970,3390,314.1,314.2,345.3,346.2,24.67,22.50,27.08,26.07,325.0,325.0,355.0,355.0,100.00,99.84,100.00,100.00,-1.59,-1.91,4.66,4.98,-0.2,-0.0,5.9,8.2,80.2,66.7,89.0,82.7,103.0,78.7,103.8,95.0,98.7,75.5,102.2,92.6,96.2,74.3,101.1,91.0,10.56,-11.47,0.07,0.06,0.00,106.75,101.91,101.18,101.11,356.7,7.7,0.34307433596816883,106.95020813035669,55.45566346867728,-25.20712009473087,-7.202034556647519
1.900,63.1,44.054091749196324,-78.681799844669612,70.2,18.4,74.0,-44.9,3415.9,3416,122.3,0,1,1,0,1,1,0,0,0,100,1,1.186,26.0,0.0,1.752,74.678,66.0,0.0,26.0,26.0,26.0,26.0,-0.47,0.42,0.22,380.8,-3.39,-1.51,-1.45,-1.88,-722.10,630.89,5.5,0.00,0.00,0.00,0.00,0.04,-7.49,-7.49,-0.31,3.42,0.15,-7.14,33.91,2.05,-0.38,81.36,100.0,0,0,98.65,0,0,0.0,0,0,0,0,6613,0,30.00,3,122.3,0,0,0.0,0.0,0.0,0.0,1,0,1.909,1.909,84.921,21.577,0,110.00,435.8,8750,0.0,0.0,110.0,110.0,433.0,0.00,0,0,1,333.3,69.9,69.9,66.9,66.9,34.0,-51.08,-63.44,26.9,19.4,2,-164.090,174.1,100.0,21.0,24.9,36.6,31.5,0,1,100.0,0.00,0.00,0.00,0.00,3678,4381,4399,4327,315.3,312.8,344.4,343.5,24.68,22.51,27.08,26.07,325.0,325.0,355.0,355.0,100.00,99.84,100.00,100.00,-3.13,-3.34,0.72,0.82,-0.3,-0.1,0.9,6.3,80.2,66.7,89.0,82.7,103.0,78.7,103.8,95.1,98.6,75.5,102.2,92.6,96.2,74.3,101.1,91.0,9.87,-10.68,0.07,0.07,0.00,108.20,101.19,98.82,98.49,356.7,7.7,0.6676076692189807,107.67041152911906,55.45566346867728,54.01525661425012,3.6010169938119674
1.950,64.8,44.054077809711437,-78.681792740028925,-6.5,-225.5,81.1,-104.8,3417.6,3418,122.8,0,1,1,0,1,1,0,0,0,100,1,1.186,26.0,0.0,1.803,74.678,66.0,0.0,26.0,26.0,26.0,26.0,-1.36,0.42,-0.11,385.1,-1.83,-1.90,-0.71,-2.91,-721.31,629.34,5.5,0.00,0.00,0.00,0.00,0.04,-7.49,-7.49,-0.12,1.71,-0.53,-15.39,34.14,-0.01,-0.25,85.12,100.0,0,0,101.49,0,0,0.0,0,0,0,0,6803,0,30.00,3,122.8,1,0,0.0,0.0,0.0,0.0,1,0,1.959,1.959,84.921,21.577,1,110.00,435.8,8750,0.0,0.0,110.0,110.0,433.0,0.00,0,0,1,333.3,80.3,80.3,66.2,66.2,34.0,-13.96,-3.59,-128.9,-3.5,2,-164.140,152.8,100.0,20.6,13.6,40.6,26.3,0,1,100.0,0.00,0.00,0.00,0.00,3685,1359,7254,3453,315.4,321.3,337.6,346.3,24.68,22.51,27.09,26.08,325.0,325.0,355.0,355.0,100.00,99.84,100.00,100.00,-5.13,-5.54,-2.83,-3.06,-0.2,-0.2,1.9,9.7,80.3,66.7,89.0,82.7,103.0,78.7,103.8,95.1,98.7,75.5,102.2,92.6,96.2,74.3,101.1,91.0,8.77,-9.47,0.06,0.08,0.00,108.35,100.62,101.49,101.49,356.7,7.7,1.4276203977248294,112.3517337917817,55.815765168058476,25.20712009473087,-39.61118806997874
2.000,66.5,44.054063690362220,-78.681785905184725,90.9,-33.7,181.1,-43.1,3419.4,3419,123.3,0,1,1,0,1,1,0,0,0,100,1,1.186,26.0,0.0,1.851,74.678,66.0,0.0,26.0,26.0,26.0,26.0,-1.73,-0.03,0.13,381.7,-2.35,-2.88,0.66,-2.33,-720.55,627.77,5.5,0.00,0.00,0.00,0.00,0.04,-7.49,-7.49,-0.10,-2.62,-1.37,-14.93,34.20,-1.72,-0.36,81.42,100.0,0,0,101.97,0,0,0.0,0,0,0,0,6835,0,30.00,3,123.3,0,0,0.0,0.0,0.0,0.0,1,0,2.010,2.010,84.921,21.577,0,110.00,435.8,8750,0.0,0.0,110.0,110.0,433.0,0.00,0,0,1,333.3,74.5,74.5,62.3,62.3,34.0,20.72,1.76,-31.7,0.7,2,-164.190,129.7,100.0,25.2,11.9,49.7,24.1,0,1,100.0,0.00,0.00,0.00,0.00,7157,1335,8404,657,306.8,321.6,334.6,353.2,24.69,22.51,27.09,26.08,325.0,325.0,355.0,355.0,100.00,99.84,100.00,100.00,-6.88,-7.21,-5.64,-5.92,-0.4,-0.1,1.8,9.2,80.3,66.7,89.1,82.7,103.1,78.6,103.9,95.1,98.8,75.5,102.3,92.6,96.3,74.3,101.2,91.0,7.48,-8.02,0.05,0.08,0.00,107.54,100.45,101.97,101.97,356.7,7.7,1.7351368822084328,110.19112353859215,51.494544661679406,-7.202034272135478,-72.02034158330981
2.050,68.2,44.054050290470293,-78.681779879729959,204.5,69.5,11.2,-228.5,3421.1,3421,123.2,0,1,1,0,1,1,0,0,0,100,1,1.186,26.0,0.0,1.899,74.678,66.0,0.0,26.0,26.0,26.0,26.0,-1.92,0.06,0.30,378.9,-1.56,-3.39,-0.49,-3.34,-719.88,626.28,5.5,0.00,0.00,0.00,0.00,0.04,-7.49,-7.49,-0.03,1.99,-1.66,1.04,34.04,-3.29,-0.48,86.98,100.0,0,0,102.55,0,0,0.0,0,0,0,0,6874,0,30.00,3,123.2,1,0,0.0,0.0,0.0,0.0,1,0,2.059,2.059,84.921,21.577,1,110.00,435.8,8750,0.0,0.0,110.0,110.0,433.0,0.00,0,0,1,166.7,63.4,63.4,67.1,67.1,34.0,32.85,4.08,27.1,2.1,2,-164.240,105.2,100.0,35.4,15.4,50.2,12.7,1,1,100.0,0.00,0.00,0.00,0.00,9322,2011,7673,1499,301.4,319.4,335.8,351.4,24.70,22.52,27.10,26.08,325.0,325.0,355.0,355.0,100.00,99.84,100.00,100.00,-8.00,-8.37,-8.56,-8.99,-0.6,-0.1,2.6,12.9,80.4,66.7,89.1,82.8,103.3,78.7,104.0,95.1,98.9,75.5,102.4,92.6,96.5,74.3,101.3,91.0,6.12,-6.50,0.04,0.11,0.00,107.05,99.66,101.60,103.49,356.7,7.7,1.944222209522358,111.63153036456815,48.613731009727495,57.61627360806216,-43.21220563281429
2.100,69.9,44.054035811392438,-78.681773764343035,112.4,7.3,-39.6,198.4,3422.8,3423,122.8,0,1,1,0,1,1,0,0,0,100,1,1.186,26.0,0.0,1.947,74.678,66.0,0.0,26.0,26.0,26.0,26.0,-1.88,0.16,0.33,375.7,-2.17,-3.18,0.14,-3.23,-719.20,624.67,5.5,0.00,0.00,0.00,0.00,0.04,-7.49,-7.49,0.35,6.49,-1.43,5.46,33.74,-4.98,-0.47,86.69,100.0,0,0,102.86,0,0,0.0,0,0,0,0,6895,0,30.00,3,122.8,0,0,0.0,0.0,0.0,0.0,1,0,2.109,2.109,84.921,21.577,0,110.00,435.8,8750,0.0,0.0,110.0,110.0,433.0,0.00,0,0,1,166.7,63.3,63.3,70.4,70.4,34.0,26.12,2.17,27.7,7.9,2,-164.290,77.7,100.0,41.0,15.7,48.3,22.6,1,1,100.0,0.00,0.00,0.00,0.00,7670,1319,8206,3799,304.9,321.9,335.5,345.6,24.71,22.52,27.10,26.08,325.0,325.0,355.0,355.0,100.00,99.84,100.00,100.00,-9.26,-9.72,-11.36,-11.98,-0.5,0.0,3.9,12.1,80.4,66.7,89.1,82.8,103.6,78.7,104.3,95.2,99.2,75.6,102.7,92.7,96.7,74.3,101.6,91.0,4.63,-4.86,0.04,0.08,0.00,106.17,98.90,102.86,102.86,356.7,7.7,1.915437286887775,115.95275089939837,47.17332409839798,18.005085538082852,-54.015257183273846
2.150,71.6,44.054021332314584,-78.681768098616928,-284.5,-88.6,121.2,72.2,3424.5,3424,122.4,0,1,1,0,1,1,0,0,0,100,1,1.186,26.0,0.0,1.995,74.678,66.0,0.0,26.0,26.0,26.0,26.0,-1.54,0.09,0.09,382.4,-2.04,-3.30,-0.37,-2.83,-718.57,623.06,5.6,0.00,0.00,0.00,0.00,0.04,-7.49,-7.49,0.69,1.06,-1.25,3.56,33.36,-6.60,-0.42,75.39,100.0,0,0,99.50,0,0,0.0,0,0,0,0,6670,0,30.00,3,122.4,1,0,0.0,0.0,0.0,0.0,1,0,2.160,2.160,84.921,21.577,1,110.00,435.8,8750,0.0,0.0,110.0,110.0,433.0,0.00,0,0,1,333.3,81.5,81.5,58.6,58.6,34.0,11.86,0.00,29.0,8.4,2,-164.340,49.1,100.0,26.8,11.3,54.3,26.2,0,1,100.0,0.00,0.00,0.00,0.00,4176,0,8504,3670,314.3,325.0,335.3,345.6,24.72,22.52,27.11,26.09,325.0,325.0,355.0,355.0,100.00,99.84,100.00,100.00,-10.76,0.00,-13.67,-14.46,-0.2,0.0,0.9,10.0,80.5,66.8,89.2,82.8,103.8,78.7,104.6,95.3,99.4,75.6,103.1,92.8,96.9,74.3,102.0,91.2,3.04,-3.14,0.03,0.07,0.00,104.69,98.41,100.41,98.59,356.7,7.7,1.5452507887071278,113.43203891837643,43.21220529140011,14.404068544271382,-50.4142390514145
2.200,73.3,44.054007482761854,-78.681762972483767,-160.6,-74.3,-58.6,24.1,3426.2,3426,122.2,0,1,1,0,1,1,0,0,0,100,1,1.186,26.0,0.0,2.040,74.678,66.0,0.0,26.0,26.0,26.0,26.0,-1.07,0.14,-0.22,392.4,-1.95,-2.86,-0.74,-3.13,-718.00,621.52,5.6,0.00,0.00,0.00,0.00,0.04,-7.49,-7.49,0.54,-8.54,-1.01,4.35,33.02,-7.78,-0.50,58.03,100.0,0,0,101.58,0,0,0.0,0,0,0,0,6810,0,30.00,3,122.2,0,0,0.0,0.0,0.0,0.0,0,0,2.209,2.209,84.921,21.577,0,110.00,435.8,8750,0.0,0.0,110.0,110.0,433.0,0.00,0,0,1,333.3,94.1,94.1,70.8,70.8,34.0,7.26,0.00,14.4,3.7,2,-164.390,13.8,100.0,18.8,7.6,51.4,27.4,1,1,100.0,0.00,0.00,0.00,0.00,2831,0,4915,1997,317.6,325.0,342.7,349.9,24.72,22.52,27.11,26.09,325.0,325.0,355.0,355.0,100.00,99.84,100.00,100.00,-11.63,0.00,-15.13,-15.82,-0.1,0.0,6.2,11.9,80.5,66.8,89.2,82.8,103.9,78.6,105.0,95.5,99.5,75.5,103.4,92.9,97.0,74.2,102.3,91.3,1.08,-1.10,0.03,0.08,0.00,103.17,98.41,101.58,101.58,356.7,7.7,1.1013173929435602,117.3931577538255,42.13190019325653,39.61118835449071,-32.4091540823548
2.250,75.0,44.053992014430229,-78.681757576554133,-24.7,-33.2,-421.3,-227.9,3427.9,3428,121.8,0,1,1,0,1,1,0,0,0,100,1,1.186,26.0,0.0,2.088,74.678,66.0,0.0,26.0,26.0,26.0,26.0,-0.89,0.04,-0.60,400.0,-1.20,-3.13,-0.81,-1.25,-717.40,619.80,5.6,0.00,0.00,0.00,0.00,0.04,-7.49,-7.49,0.06,-8.57,-0.70,7.91,32.64,-8.88,-0.52,48.52,100.0,0,0,98.48,0,0,0.0,0,0,0,0,6602,0,30.00,3,121.8,1,0,0.0,0.0,0.0,0.0,0,0,2.261,2.261,84.921,21.577,1,110.00,435.8,8750,0.0,0.0,110.0,110.0,433.0,0.00,0,0,1,166.7,89.1,89.1,92.6,92.6,34.0,11.34,0.00,8.3,0.8,2,-164.440,-26.9,100.0,17.5,5.9,30.3,16.0,1,1,100.0,0.00,0.00,0.00,0.00,4089,0,3231,599,314.5,325.0,347.0,353.6,24.73,22.53,27.12,26.09,325.0,325.0,355.0,355.0,100.00,99.84,100.00,100.00,-11.75,0.00,-16.84,-17.41,-0.6,0.0,5.1,10.6,80.6,66.8,89.2,82.8,104.1,78.6,105.2,95.5,99.7,75.4,103.7,93.0,97.2,74.2,102.5,91.3,-1.29,1.30,0.07,0.10,0.00,102.06,98.41,98.15,98.80,356.7,7.7,1.074104277991667,117.3931577538255,39.97128988316463,-64.81830816470946,-68.41932515852157
2.300,76.7,44.053978164877499,-78.681752990013948,41.1,71.7,-120.0,-50.2,3429.6,3430,121.4,0,1,1,0,1,1,0,0,0,100,1,1.186,26.0,0.0,2.136,74.678,66.0,0.0,26.0,26.0,26.0,26.0,-1.28,0.06,-0.24,396.0,-1.29,-2.59,-0.86,-2.22,-716.89,618.26,5.6,0.00,0.00,0.00,0.00,0.05,-7.49,-7.49,-0.25,-4.81,-0.34,4.09,32.31,-9.62,-0.46,45.63,100.0,0,0,99.47,0,0,0.0,0,0,0,0,6668,0,30.00,3,121.4,0,0,0.0,0.0,0.0,0.0,0,0,2.310,2.310,84.921,21.577,0,110.00,435.8,8750,0.0,0.0,110.0,110.0,433.0,0.00,0,0,1,166.7,77.8,77.8,93.3,93.3,34.0,17.08,5.25,6.8,2.3,2,-164.490,-63.7,100.0,19.6,9.5,24.3,13.5,1,1,100.0,0.00,0.00,0.00,0.00,5690,2465,2832,1320,310.8,318.3,348.2,351.6,24.74,22.53,27.12,26.10,325.0,325.0,355.0,355.0,100.00,99.84,100.00,100.00,-11.10,-11.48,-18.08,-18.59,-0.8,-0.3,7.8,12.2,80.6,66.8,89.3,82.8,104.2,78.6,105.4,95.5,99.8,75.4,103.8,93.0,97.3,74.2,102.7,91.4,-3.45,3.38,0.10,0.11,0.00,101.78,98.01,99.47,99.47,356.7,7.7,1.303687079018581,110.91132693735456,35.28996767740437,-28.808136804030795,-61.217290601874126
2.350,78.4,44.053964315324770,-78.681748763202393,326.6,238.9,128.0,-3.6,3431.2,3431,120.8,0,1,1,0,1,1,0,0,0,100,1,1.186,26.0,0.0,2.184,74.678,66.0,0.0,26.0,26.0,26.0,26.0,-1.71,0.10,0.26,383.7,-1.63,-3.88,0.41,-2.13,-716.42,616.72,5.7,0.00,0.00,0.00,0.00,0.05,-7.49,-7.49,-0.23,4.87,-0.62,-10.12,31.97,-10.11,-0.57,48.71,100.0,0,0,96.72,0,0,0.0,0,0,0,0,6483,0,30.00,3,120.8,1,0,0.0,0.0,0.0,0.0,0,0,2.359,2.359,84.921,21.577,1,110.00,435.8,8750,0.0,0.0,110.0,110.0,433.0,0.00,0,0,1,166.7,59.7,59.7,83.0,83.0,34.0,25.87,7.18,16.7,1.6,2,-164.540,-99.1,100.0,35.9,21.5,30.7,13.3,1,1,100.0,0.00,0.00,0.00,0.00,7758,3302,5737,1025,305.2,316.1,341.3,352.5,24.75,22.53,27.13,26.10,325.0,325.0,355.0,355.0,100.00,99.84,100.00,100.00,-9.66,-10.22,-18.98,-19.50,-0.8,-0.6,5.1,10.5,80.7,66.8,89.3,82.9,104.5,78.7,105.7,95.6,100.0,75.6,104.1,93.1,97.5,74.3,103.0,91.5,-5.51,5.36,0.08,0.11,0.00,102.12,97.64,96.29,97.14,356.7,7.7,1.7325414857947845,114.51234407342243,33.84956082297722,75.62135943065726,-32.4091540823548
2.400,80.1,44.053949566450427,-78.681744536390852,58.7,-77.0,266.4,93.2,3432.9,3433,120.0,0,1,1,0,1,1,0,0,0,100,1,1.186,26.0,0.0,2.232,74.678,66.0,0.0,26.0,26.0,26.0,26.0,-1.97,0.22,0.40,377.5,-0.37,-4.31,-0.45,-2.22,-715.95,615.08,5.7,0.00,0.00,0.00,0.00,0.05,-7.49,-7.49,0.22,9.46,-0.97,-4.90,31.61,-10.56,-0.53,45.18,100.0,0,0,96.30,0,0,0.0,0,0,0,0,6456,0,30.00,3,120.0,0,0,0.0,0.0,0.0,0.0,0,0,2.409,2.409,84.921,21.577,0,110.00,435.8,8750,0.0,0.0,110.0,110.0,433.0,0.00,0,0,1,333.3,62.4,62.4,69.6,69.6,34.0,28.37,2.54,28.1,6.6,2,-164.590,-135.0,100.0,38.9,17.6,44.1,18.0,1,1,100.0,0.00,0.00,0.00,0.00,8444,1465,8488,2994,303.4,321.0,334.7,347.4,24.76,22.54,27.13,26.10,325.0,325.0,355.0,355.0,100.00,99.84,100.00,100.00,-8.60,-9.37,-19.84,-20.36,-0.6,-0.6,7.4,10.0,80.7,66.8,89.3,82.9,104.7,78.7,106.2,95.8,100.3,75.6,104.6,93.2,97.8,74.3,103.5,91.6,-7.65,7.35,0.05,0.09,0.00,101.87,97.64,96.68,95.92,356.7,7.7,2.02220177034835,118.47346288042029,32.04905226916889,3.6010169938121805,-57.616273608062016
2.450,81.7,44.053934727643934,-78.681740759240100,-87.1,-137.3,238.8,209.2,3434.6,3435,119.4,0,1,1,0,1,1,0,0,0,100,1,1.186,26.0,0.0,2.280,74.678,66.0,0.0,26.0,26.0,26.0,26.0,-1.65,0.28,0.19,379.5,0.12,-4.61,-0.42,-3.05,-715.53,613.43,5.7,0.00,0.00,0.00,0.00,0.05,-7.49,-7.49,0.63,4.01,-0.99,4.37,31.36,-10.73,-0.53,29.70,100.0,0,0,97.17,0,0,0.0,0,0,0,0,6514,0,30.00,3,119.4,1,0,0.0,0.0,0.0,0.0,0,0,2.460,2.460,84.921,21.577,1,110.00,435.8,8750,0.0,0.0,110.0,110.0,433.0,0.00,0,0,1,333.3,77.4,77.4,61.1,61.1,34.0,17.40,0.00,28.5,7.3,2,-164.640,-163.5,100.0,34.5,10.8,56.0,28.4,1,1,100.0,0.00,0.00,0.00,0.00,5781,0,8607,3313,310.4,325.0,334.3,346.5,24.76,22.54,27.14,26.10,325.0,325.0,355.0,355.0,100.00,99.84,100.00,100.00,-7.85,0.00,-19.87,-20.32,-0.3,0.0,8.2,10.7,80.8,66.9,89.4,82.9,104.9,78.7,106.8,96.0,100.4,75.6,105.2,93.5,97.9,74.3,104.1,91.8,-9.58,9.06,0.03,0.07,0.00,101.03,97.69,95.66,98.68,356.7,7.7,1.684339633209407,114.87244577280364,28.087933462171016,-36.010171076166415,-64.81830816470963
2.500,83.4,44.053920878091198,-78.681737521682322,-278.9,-59.7,-149.8,-6.9,3436.2,3436,118.9,0,1,1,0,1,1,0,0,0,100,1,1.186,26.0,0.0,2.328,74.678,66.0,0.0,26.0,26.0,26.0,26.0,-1.23,0.24,-0.24,392.6,1.12,-4.29,-0.66,-2.11,-715.17,611.89,5.7,0.00,0.00,0.00,0.00,0.05,-7.49,-7.49,0.65,-3.29,-0.70,4.21,31.28,-10.60,-0.45,10.61,100.0,0,0,97.16,0,0,0.0,0,0,0,0,6513,0,30.00,3,118.9,0,0,0.0,0.0,0.0,0.0,0,0,2.509,2.509,84.921,21.577,0,110.00,435.8,8750,0.0,0.0,110.0,110.0,433.0,0.00,0,0,1,166.7,96.2,96.2,73.2,73.2,34.0,7.06,0.00,17.6,8.1,2,-164.690,-177.3,100.0,20.6,7.8,48.5,28.1,0,1,100.0,0.00,0.00,0.00,0.00,2831,0,5910,3543,317.2,325.0,340.9,346.1,24.77,22.54,27.15,26.11,325.0,325.0,355.0,355.0,100.00,99.84,100.00,100.00,-7.51,0.00,-19.22,-19.31,-0.3,0.0,7.7,12.2,80.8,66.9,89.4,82.9,104.9,78.6,107.3,96.3,100.5,75.5,105.7,93.7,98.0,74.2,104.6,92.0,-10.70,9.96,0.05,0.08,0.00,100.30,97.69,97.20,97.13,356.7,7.7,1.2759702190882043,114.87244577280364,25.567221452697925,36.010170791654446,-36.010171076166735
2.550,85.0,44.053906039284705,-78.681734374056703,-244.2,-59.0,-156.6,-185.9,3437.9,3438,118.7,0,1,1,0,1,1,0,0,0,100,1,1.186,26.0,0.0,2.376,74.678,66.0,0.0,26.0,26.0,26.0,26.0,-0.85,0.15,-0.65,403.2,0.42,-3.72,-0.54,-2.09,-714.82,610.24,5.8,0.00,0.00,0.00,0.00,0.05,-7.49,-7.49,0.23,-11.43,-0.66,1.07,31.37,-10.15,-0.45,-9.01,100.0,0,0,94.75,0,0,0.0,0,0,0,0,6352,0,30.00,3,118.7,1,0,0.0,0.0,0.0,0.0,0,0,2.559,2.559,84.921,21.577,1,110.00,435.8,8750,0.0,0.0,110.0,110.0,433.0,0.00,0,0,1,333.3,105.4,105.4,76.8,76.8,34.0,4.06,0.00,16.0,1.0,2,-164.740,-178.7,100.0,8.4,4.8,40.7,18.8,0,1,100.0,0.00,0.00,0.00,0.00,1765,0,5505,671,320.0,325.0,342.1,353.2,24.78,22.54,27.15,26.11,325.0,325.0,355.0,355.0,100.00,99.84,100.00,100.00,-7.45,0.00,-17.83,-17.62,-0.1,0.0,6.7,9.6,80.9,66.9,89.4,82.9,104.9,78.6,107.7,96.4,100.5,75.4,106.0,93.8,98.0,74.2,104.9,92.1,-10.97,10.17,0.06,0.09,0.00,99.70,97.69,92.80,96.71,356.7,7.7,1.0805091392487154,118.47346285196909,24.486916354554342,3.601016993811328,-32.40915351333115
2.600,86.7,44.053891290410370,-78.681731406295398,73.2,-19.6,-319.4,-210.4,3439.5,3439,118.5,0,1,1,0,1,1,0,0,0,100,1,1.186,26.0,0.0,2.424,74.678,66.0,0.0,26.0,26.0,26.0,26.0,-0.79,0.06,-0.66,404.2,-0.30,-3.70,-1.56,-1.93,-714.49,608.60,5.8,0.00,0.00,0.00,0.00,0.05,-7.49,-7.49,-0.35,-9.75,-0.29,10.77,31.52,-9.46,-0.40,-11.16,100.0,0,0,98.68,0,0,0.0,0,0,0,0,6615,0,30.00,3,118.5,0,0,0.0,0.0,0.0,0.0,0,0,2.610,2.610,84.921,21.577,0,110.00,435.8,8750,0.0,0.0,110.0,110.0,433.0,0.00,0,0,1,333.3,89.5,89.5,92.5,92.5,34.0,8.71,1.23,5.2,0.0,2,-164.790,-171.2,100.0,12.0,3.8,24.7,8.3,1,1,100.0,0.00,0.00,0.00,0.00,3870,1067,2286,0,315.3,322.5,349.4,355.0,24.78,22.55,27.16,26.11,325.0,325.0,355.0,355.0,100.00,99.84,100.00,100.00,-6.93,-6.97,-16.58,0.00,-0.5,-2.7,10.7,0.0,80.9,66.9,89.5,83.0,104.9,78.5,107.8,96.3,100.5,75.4,106.2,93.7,98.0,74.1,105.1,92.0,-10.53,9.81,0.09,0.11,0.00,99.42,98.21,96.76,100.60,356.7,7.7,1.0311643903859364,115.23254747218478,22.32630610136481,3.601017562835551,-36.01017107616677
2.650,88.3,44.053877260993318,-78.681728798262739,176.7,298.2,-166.7,39.2,3441.1,3441,118.2,0,1,1,0,1,1,0,0,0,100,1,1.186,26.0,0.0,2.475,74.678,66.0,0.0,26.0,26.0,26.0,26.0,-1.54,0.25,-0.03,392.9,-0.96,-3.56,-0.83,-2.07,-714.20,607.04,5.8,0.00,0.00,0.00,0.00,0.05,-7.49,-7.49,-0.59,0.12,-0.16,-11.31,31.65,-8.73,-0.34,-4.95,100.0,0,0,96.37,0,0,0.0,0,0,0,0,6460,0,30.00,3,118.2,1,0,0.0,0.0,0.0,0.0,0,0,2.659,2.659,84.921,21.577,1,110.00,435.8,8750,0.0,0.0,110.0,110.0,433.0,0.00,0,0,1,166.7,68.3,68.3,93.4,93.4,34.0,-6.10,-7.54,7.9,3.8,2,-164.840,-160.7,100.0,20.9,18.8,16.4,10.3,0,1,100.0,0.00,0.00,0.00,0.00,6898,4373,3288,1916,307.8,313.0,347.6,350.2,24.79,22.55,27.16,26.12,325.0,325.0,355.0,355.0,100.00,99.84,100.00,100.00,-5.91,-6.17,-15.37,-15.02,-0.6,-0.4,9.3,8.6,80.9,66.9,89.5,83.0,105.0,78.6,107.9,96.3,100.5,75.4,106.3,93.7,98.1,74.2,105.1,92.0,-9.78,9.13,0.10,0.10,0.00,99.90,100.18,96.37,96.37,356.7,7.7,1.5604486534327235,118.83356460825264,20.885899246937665,72.02034243684551,-39.61118863900243
2.700,90.0,44.053861612797370,-78.681726190230080,281.3,-33.8,528.0,108.3,3442.8,3443,118.0,0,1,1,0,1,1,0,0,0,100,1,1.186,26.0,0.0,2.523,74.678,66.0,0.0,26.0,26.0,26.0,26.0,-1.77,0.35,0.29,380.6,-0.94,-5.82,-0.36,-2.77,-713.91,605.30,5.8,0.00,0.00,0.00,0.00,0.05,-7.49,-7.49,-0.29,7.59,-1.29,-20.81,31.87,-7.67,-0.47,-5.57,100.0,0,0,98.26,0,0,0.0,0,0,0,0,6587,0,30.00,3,118.0,0,0,0.0,0.0,0.0,0.0,1,0,2.711,2.711,84.921,21.577,0,110.00,435.8,8750,0.0,0.0,110.0,110.0,433.0,0.00,0,0,1,166.7,66.2,66.2,71.0,71.0,34.0,-78.39,-2.13,25.5,4.0,2,-164.890,-152.6,100.0,34.9,17.1,42.8,15.7,0,1,100.0,0.00,0.00,0.00,0.00,8042,406,8047,2125,304.3,323.1,335.9,350.0,24.80,22.55,27.17,26.12,325.0,325.0,355.0,355.0,100.00,99.84,100.00,100.00,-4.53,-4.88,-13.34,-12.97,-0.3,-0.3,9.6,8.7,81.0,66.9,89.6,83.0,105.0,78.6,108.2,96.4,100.6,75.5,106.6,93.8,98.2,74.2,105.5,92.1,-9.12,8.64,0.05,0.09,0.00,100.13,100.38,98.26,98.26,356.7,7.7,1.8274298892159995,122.43458171586933,18.365187237464568,-61.21729117089757,-68.41932572754527
2.750,91.6,44.053846684058712,-78.681724211722553,-42.4,-142.6,307.5,84.4,3444.4,3444,118.2,0,1,1,0,1,1,0,0,0,100,1,1.186,26.0,0.0,2.574,74.678,66.0,0.0,26.0,26.0,26.0,26.0,-1.58,0.52,0.31,381.2,-0.40,-5.11,0.26,-3.94,-713.69,603.64,5.8,0.00,0.00,0.00,0.00,0.05,-7.49,-7.49,0.01,3.40,-1.78,0.91,32.17,-6.54,-0.50,-15.39,100.0,0,0,99.08,0,0,0.0,0,0,0,0,6642,0,30.00,3,118.2,1,0,0.0,0.0,0.0,0.0,1,0,2.763,2.763,84.921,21.577,1,110.00,435.8,8750,0.0,0.0,110.0,110.0,433.0,0.00,0,0,1,166.7,79.2,79.2,59.7,59.7,34.0,-100.91,0.00,28.9,4.8,2,-164.940,-150.9,100.0,32.8,9.9,58.1,19.9,0,1,100.0,0.00,0.00,0.00,0.00,6320,0,9139,2568,308.6,325.0,332.8,348.9,24.81,22.55,27.18,26.12,325.0,325.0,355.0,355.0,100.00,99.84,100.00,100.00,-3.36,0.00,-11.16,-10.83,-0.2,0.0,10.1,8.6,81.1,67.0,89.6,83.0,105.1,78.6,108.6,96.5,100.7,75.4,107.0,93.9,98.2,74.1,105.9,92.2,-9.00,8.57,0.02,0.10,0.00,100.17,100.44,99.08,99.08,356.7,7.7,1.6920106382644289,112.71183549116289,14.043966674183137,-93.62644496874069,-64.81830759568591
