Time,Distance,GPS Latitude,GPS Longitude,Damper Velocity (Calc) FL,Damper Velocity (Calc) FR,Damper Velocity (Calc) RL,Damper Velocity (Calc) RR,Corr Dist,Corr Dist (Unstretched),Corr Speed,ABS Active,ABS Enabled,AID Allow Tire Blankets,AID Auto Blip,AID Auto Clutch,AID Auto Shift,AID Fuel Rate,AID Ideal Line,AID Mech Damage,AID Stability,AID Tire Wear Rate,Air Density,Air Temp,Ballast,Best Lap Delta,Best Lap Time,Brake Bias,Brake Pos,Brake Temp FL,Brake Temp FR,Brake Temp RL,Brake Temp RR,CG Accel Lateral,CG Accel Longitudinal,CG Accel Vertical,CG Height,Camber FL,Camber FR,Camber RL,Camber RR,Car Coord X,Car Coord Y,Car Coord Z,Car Damage Front,Car Damage Left,Car Damage Rear,Car Damage Right,Car Pos Norm,Caster FL,Caster FR,Chassis Pitch Angle,Chassis Pitch Rate,Chassis Roll Angle,Chassis Roll Rate,Chassis Velocity X,Chassis Velocity Y,Chassis Velocity Z,Chassis Yaw Rate,Clutch Pos,DRS Active,DRS Available,Drive Train Speed,ERS Heat Charging,ERS Is Charging,ERS Max Energy,ERS Power Level,ERS Recovery Level,Engine Brake Setting,Engine Limiter,Engine RPM,Flags,Fuel Level,Gear,Ground Speed,HR Sample Clock,In Pit,KERS Charge,KERS Deployed Energy,KERS Input,KERS Max Energy,LR Sample Clock,Lap Invalidated,Lap Time,Lap Time2,Last Lap Time,Last Sector Time,MR Sample Clock,Max Fuel,Max Power,Max RPM,Max Sus Travel FL,Max Sus Travel FR,Max Sus Travel RL,Max Sus Travel RR,Max Torque,Max Turbo Boost,Num Tires Off Track,Penalties Enabled,Position,Raw Data Sample Rate,Ride Height FL,Ride Height FR,Ride Height RL,Ride Height RR,Road Temp,Self Align Torque FL,Self Align Torque FR,Self Align Torque RL,Self Align Torque RR,Session Lap Count,Session Time Left,Steering Angle,Surface Grip,Suspension Travel FL,Suspension Travel FR,Suspension Travel RL,Suspension Travel RR,TC Active,TC Enabled,Throttle Pos,Tire Dirt Level FL,Tire Dirt Level FR,Tire Dirt Level RL,Tire Dirt Level RR,Tire Load FL,Tire Load FR,Tire Load RL,Tire Load RR,Tire Loaded Radius FL,Tire Loaded Radius FR,Tire Loaded Radius RL,Tire Loaded Radius RR,Tire Pressure FL,Tire Pressure FR,Tire Pressure RL,Tire Pressure RR,Tire Radius FL,Tire Radius FR,Tire Radius RL,Tire Radius RR,Tire Rubber Grip FL,Tire Rubber Grip FR,Tire Rubber Grip RL,Tire Rubber Grip RR,Tire Slip Angle FL,Tire Slip Angle FR,Tire Slip Angle RL,Tire Slip Angle RR,Tire Slip Ratio FL,Tire Slip Ratio FR,Tire Slip Ratio RL,Tire Slip Ratio RR,Tire Temp Core FL,Tire Temp Core FR,Tire Temp Core RL,Tire Temp Core RR,Tire Temp Inner FL,Tire Temp Inner FR,Tire Temp Inner RL,Tire Temp Inner RR,Tire Temp Middle FL,Tire Temp Middle FR,Tire Temp Middle RL,Tire Temp Middle RR,Tire Temp Outer FL,Tire Temp Outer FR,Tire Temp Outer RL,Tire Temp Outer RR,Toe In FL,Toe In FR,Toe In RL,Toe In RR,Turbo Boost,Wheel Angular Speed FL,Wheel Angular Speed FR,Wheel Angular Speed RL,Wheel Angular Speed RR,Wind Direction,Wind Speed,CG Distance,Lateral Velocity,Longitudinal Velocity,Lateral Acceleration,Longitudinal Acceleration
s,m,deg,deg,mm/s,mm/s,mm/s,mm/s,m,m,km/h,,,,,,,,,%,%,,kg/m3,C,kg,s,s,%,%,C,C,C,C,G,G,G,mm,deg,deg,deg,deg,m,m,m,,,,,,deg,deg,deg,deg/s,deg,deg/s,m/s,m/s,m/s,deg/s,%,,,rad/s,,,MJ,,,,,rpm,,l,,km/h,,,%,kJ,%,MJ,,,s,s,s,s,,l,hp,rpm,mm,mm,mm,mm,N.m,,,,,Hz,mm,mm,mm,mm,C,N.m,N.m,N.m,N.m,,s,deg,%,mm,mm,mm,mm,,,%,,,,,N,N,N,N,mm,mm,mm,mm,psi,psi,psi,psi,mm,mm,mm,mm,%,%,%,%,deg,deg,deg,deg,%,%,%,%,C,C,C,C,C,C,C,C,C,C,C,C,C,C,C,C,deg,deg,deg,deg,,rad/s,rad/s,rad/s,rad/s,deg,km/h,G,Km/h,Km/h,Km/h^2,Km/h^2
0.000,0.0,44.054634130056854,-78.681940768365251,-18.8,-85.4,95.4,170.0,3293.4,3293,164.6,0,1,1,0,1,1,0,0,0,100,1,1.186,26.0,0.0,-0.003,51.476,66.0,0.0,26.0,26.0,26.0,26.0,-0.32,0.39,0.05,379.3,-2.47,-3.05,-1.54,-1.64,-737.77,691.20,5.7,0.00,0.00,0.00,0.00,0.00,-7.49,-7.49,-0.36,1.26,-0.21,1.17,45.73,-0.19,-0.32,3.03,100.0,0,0,130.48,0,0,0.0,0,0,0,0,6960,0,30.00,4,164.6,1,0,0.0,0.0,0.0,0.0,0,0,0.014,0.014,51.476,18.985,1,110.00,435.8,8750,0.0,0.0,110.0,110.0,433.0,0.00,0,0,1,333.3,75.0,75.0,67.1,67.1,34.0,-35.21,0.99,-61.68,-0.5,2,-134.990,2.1,100.0,24.5,16.6,39.3,36.9,0,1,100.0,0.00,0.00,0.00,0.00,4537,1701,6739,4676,313.8,320.5,338.0,342.6,25.67,23.01,25.75,24.53,325.0,325.0,355.0,355.0,99.87,99.71,99.83,99.75,-0.30,-0.30,-0.44,-0.26,-0.0,-0.0,1.5,1.6,86.5,69.8,80.7,73.1,99.3,72.5,88.0,76.9,94.8,69.5,85.9,74.5,91.7,68.0,85.1,73.4,0.12,-0.14,0.06,0.06,0.00,140.39,140.02,130.48,130.48,19.5,25.8,0.5069516742254631
0.050,2.3,44.054614974506649,-78.681935642232105,-16.5,66.9,37.6,-1.6,3295.7,3296,165.2,0,1,1,0,1,1,0,0,0,100,1,1.186,26.0,0.0,-0.006,51.476,66.0,0.0,26.0,26.0,26.0,26.0,-0.25,0.33,-0.02,379.3,-2.56,-2.51,-1.91,-2.37,-737.20,689.07,5.7,0.00,0.00,0.00,0.00,0.00,-7.49,-7.49,-0.33,0.85,-0.06,2.50,45.89,-0.16,-0.35,2.37,100.0,0,0,131.51,0,0,0.0,0,0,0,0,7015,0,30.00,4,165.2,0,0,0.0,0.0,0.0,0.0,0,0,0.063,0.063,51.476,18.985,0,110.00,435.8,8750,0.0,0.0,110.0,110.0,433.0,0.00,0,0,1,333.3,72.5,72.5,63.7,63.7,34.0,-32.47,1.59,-47.00,4.1,2,-135.040,2.1,100.0,23.6,20.0,41.2,36.8,0,1,100.0,0.00,0.00,0.00,0.00,4191,3055,5729,3441,314.8,317.1,340.9,345.9,25.68,23.01,25.75,24.53,325.0,325.0,355.0,355.0,99.87,99.71,99.83,99.75,-0.30,-0.25,-0.37,-0.25,-0.1,-0.0,1.8,2.0,86.5,69.8,80.7,73.1,99.3,72.5,88.0,76.9,94.8,69.5,85.9,74.5,91.6,67.9,85.1,73.4,0.12,-0.12,0.06,0.06,0.00,140.82,140.61,131.51,131.51,19.5,25.8,0.4144876355212541,158.4447527920361,42.131900136354155
0.100,4.6,44.054594559906192,-78.681930246302471,-48.5,-3.2,-12.4,85.8,3298.0,3298,165.9,0,1,1,0,1,1,0,0,0,100,1,1.186,26.0,0.0,-0.012,51.476,66.0,0.0,26.0,26.0,26.0,26.0,-0.14,0.33,-0.02,380.8,-2.75,-2.56,-1.77,-1.93,-736.60,686.80,5.7,0.00,0.00,0.00,0.00,0.00,-7.49,-7.49,-0.27,-0.10,0.14,0.95,46.08,-0.15,-0.33,1.96,100.0,0,0,131.84,0,0,0.0,0,0,0,0,7032,0,30.00,4,165.9,1,0,0.0,0.0,0.0,0.0,0,0,0.114,0.114,51.476,18.985,1,110.00,435.8,8750,0.0,0.0,110.0,110.0,433.0,0.00,0,0,1,333.3,77.1,77.1,63.9,63.9,34.0,-7.49,3.02,-29.50,4.3,2,-135.090,1.3,100.0,21.2,19.8,40.6,41.1,0,1,100.0,0.00,0.00,0.00,0.00,1476,2917,4248,4580,321.1,317.0,344.7,342.5,25.68,23.01,25.76,24.53,325.0,325.0,355.0,355.0,99.87,99.71,99.83,99.75,-0.16,-0.22,-0.32,-0.22,0.0,-0.0,1.6,1.8,86.5,69.8,80.7,73.1,99.2,72.4,88.0,76.9,94.7,69.4,85.9,74.5,91.5,67.9,85.1,73.4,0.07,-0.10,0.05,0.04,0.00,141.27,141.22,131.84,131.84,19.5,25.8,0.35902646142032485,163.48617672562875,43.572307047683665,57.616273608061874,14.404069113295108
0.150,6.9,44.054574145305743,-78.681924760440666,-84.3,-51.3,9.8,-71.6,3300.3,3300,166.5,0,1,1,0,1,1,0,0,0,100,1,1.186,26.0,0.0,-0.009,51.476,66.0,0.0,26.0,26.0,26.0,26.0,-0.13,0.37,-0.15,384.0,-2.30,-2.43,-1.75,-1.60,-735.99,684.53,5.7,0.00,0.00,0.00,0.00,0.01,-7.49,-7.49,-0.39,-4.13,0.06,-0.46,46.27,-0.12,-0.38,0.92,100.0,0,0,132.38,0,0,0.0,0,0,0,0,7061,0,30.00,4,166.5,0,0,0.0,0.0,0.0,0.0,0,0,0.164,0.164,51.476,18.985,0,110.00,435.8,8750,0.0,0.0,110.0,110.0,433.0,0.00,0,0,1,333.3,82.1,82.1,64.3,64.3,34.0,-7.45,2.90,-25.42,6.9,2,-135.140,-0.5,100.0,17.0,17.2,41.1,37.5,0,1,100.0,0.00,0.00,0.00,0.00,1778,1660,4230,4226,320.3,320.4,343.8,343.9,25.68,23.01,25.76,24.54,325.0,325.0,355.0,355.0,99.87,99.71,99.83,99.75,-0.10,-0.13,-0.23,-0.11,-0.0,-0.1,1.8,1.8,86.5,69.8,80.7,73.1,99.1,72.4,87.9,76.9,94.6,69.4,85.9,74.4,91.4,67.9,85.0,73.4,-0.01,0.01,0.07,0.06,0.00,141.75,141.59,132.38,132.38,19.5,25.8,0.4198809355043403,164.20638015284229,43.572307047683665,-32.40915379784326,-14.404069113295108
0.200,9.2,44.054553550840964,-78.681919364511032,-1.2,-29.7,-163.3,-75.7,3302.6,3303,167.2,0,1,1,0,1,1,0,0,0,100,1,1.186,26.0,0.0,-0.012,51.476,66.0,0.0,26.0,26.0,26.0,26.0,-0.05,0.30,0.02,385.5,-2.26,-2.83,-1.81,-1.69,-735.39,682.24,5.7,0.00,0.00,0.00,0.00,0.01,-7.49,-7.49,-0.63,-4.42,0.02,-1.57,46.45,-0.10,-0.44,0.24,100.0,0,0,133.12,0,0,0.0,0,0,0,0,7101,0,30.00,4,167.2,1,0,0.0,0.0,0.0,0.0,0,0,0.216,0.216,51.476,18.985,1,110.00,435.8,8750,0.0,0.0,110.0,110.0,433.0,0.00,0,0,1,166.7,77.5,77.5,72.8,72.8,34.0,-15.26,17.66,-25.41,5.9,2,-135.190,-2.3,100.0,16.9,15.7,32.9,33.8,0,1,100.0,0.00,0.00,0.00,0.00,3581,3558,4568,3077,315.6,315.3,343.9,346.9,25.69,23.01,25.76,24.54,325.0,325.0,355.0,355.0,99.87,99.71,99.83,99.75,-0.05,0.05,-0.22,-0.07,-0.1,-0.1,2.1,2.1,86.5,69.8,80.8,73.1,99.0,72.3,87.9,76.9,94.5,69.3,85.8,74.4,91.4,67.8,85.0,73.4,-0.12,0.11,0.07,0.07,0.00,142.34,142.28,133.12,133.12,19.5,25.8,0.3047950130825634,160.24526134584443,42.131900136354155,-36.01017107616656,-14.404069113295108
0.250,11.6,44.054534125494278,-78.681914238377885,98.2,46.8,-65.2,-107.4,3305.0,3305,167.8,0,1,1,0,1,1,0,0,0,100,1,1.186,26.0,0.0,-0.015,51.476,66.0,0.0,26.0,26.0,26.0,26.0,-0.04,0.40,-0.03,384.8,-2.49,-2.58,-1.41,-1.21,-734.82,680.08,5.7,0.00,0.00,0.00,0.00,0.01,-7.49,-7.49,-0.72,0.90,0.17,5.79,46.61,-0.07,-0.43,-0.61,100.0,0,0,134.08,0,0,0.0,0,0,0,0,7152,0,30.00,4,167.8,0,0,0.0,0.0,0.0,0.0,0,0,0.264,0.264,51.476,18.985,0,110.00,435.8,8750,0.0,0.0,110.0,110.0,433.0,0.00,0,0,1,333.3,72.8,72.8,80.6,80.6,34.0,-19.29,17.02,-12.73,7.9,2,-135.240,-3.2,100.0,21.8,18.1,29.7,28.4,0,1,100.0,0.00,0.00,0.00,0.00,4444,3524,3157,5285,314.2,315.3,347.4,341.7,25.69,23.01,25.76,24.54,325.0,325.0,355.0,355.0,99.87,99.71,99.83,99.75,-0.02,0.07,-0.21,-0.05,-0.1,-0.0,2.5,2.5,86.6,69.8,80.8,73.1,98.9,72.3,87.9,76.9,94.5,69.3,85.8,74.4,91.3,67.8,85.0,73.3,-0.17,0.17,0.09,0.07,0.00,142.95,142.98,134.08,134.08,19.5,25.8,0.4031128874149275,160.60536304522563,42.131900136354155,10.803051265947659,5.690237259159403e-07
0.300,13.9,44.054513441097342,-78.681908842448252,78.1,219.7,89.7,117.3,3307.3,3307,168.4,0,1,1,0,1,1,0,0,0,100,1,1.186,26.0,0.0,-0.018,51.476,66.0,0.0,26.0,26.0,26.0,26.0,0.03,0.41,0.40,374.7,-3.15,-3.85,-1.13,-1.33,-734.22,677.78,5.7,0.00,0.00,0.00,0.00,0.01,-7.49,-7.49,-0.55,6.20,0.42,4.20,46.80,-0.01,-0.40,-1.61,100.0,0,0,133.82,0,0,0.0,0,0,0,0,7138,0,30.00,4,168.4,1,0,0.0,0.0,0.0,0.0,0,0,0.314,0.314,51.476,18.985,1,110.00,435.8,8750,0.0,0.0,110.0,110.0,433.0,0.00,0,0,1,166.7,61.6,61.6,64.2,64.2,34.0,-21.20,50.28,-17.84,19.7,2,-135.290,-3.3,100.0,25.8,29.1,34.2,34.3,0,1,100.0,0.00,0.00,0.00,0.00,4582,5855,4932,5983,313.6,308.2,342.8,339.3,25.69,23.01,25.76,24.54,325.0,325.0,355.0,355.0,99.87,99.71,99.83,99.75,0.04,0.15,-0.12,0.04,-0.1,-0.0,1.8,1.7,86.6,69.8,80.8,73.1,98.8,72.3,87.8,76.8,94.4,69.3,85.7,74.4,91.2,67.8,84.9,73.3,-0.18,0.19,0.07,0.06,0.00,143.62,143.97,133.81,133.81,19.5,25.8,0.5735852159879995,161.3255664724392,42.13190019325653,14.404068544271524,3.6010175628356222
0.350,16.3,44.054493835886333,-78.681903716315091,-64.0,-69.2,131.1,190.2,3309.7,3310,169.1,0,1,1,0,1,1,0,0,0,100,1,1.186,26.0,0.0,-0.018,51.476,66.0,0.0,26.0,26.0,26.0,26.0,0.06,0.44,0.18,374.4,-2.40,-2.32,-1.84,-0.81,-733.65,675.60,5.7,0.00,0.00,0.00,0.00,0.01,-7.49,-7.49,-0.22,4.99,0.51,0.25,46.98,0.05,-0.26,-2.31,100.0,0,0,133.64,0,0,0.0,0,0,0,0,7129,0,30.00,4,169.1,0,0,0.0,0.0,0.0,0.0,1,0,0.363,0.363,51.476,18.985,0,110.00,435.8,8750,0.0,0.0,110.0,110.0,433.0,0.00,0,0,1,333.3,74.0,74.0,54.4,54.4,34.0,-0.60,17.26,-24.91,39.5,2,-135.340,-3.3,100.0,22.6,25.6,40.7,43.8,0,1,100.0,0.00,0.00,0.00,0.00,1044,3254,6506,8278,321.8,316.7,338.5,333.6,25.70,23.01,25.77,24.54,325.0,325.0,355.0,355.0,99.87,99.71,99.83,99.75,0.22,0.17,0.02,0.19,-0.0,-0.0,1.4,1.3,86.6,69.8,80.8,73.1,98.8,72.2,87.8,76.8,94.3,69.2,85.7,74.4,91.2,67.7,84.9,73.3,-0.19,0.19,0.06,0.03,0.00,144.00,144.21,133.64,133.64,19.5,25.8,0.47916594202843754,162.04576989965278,42.49200189263772,61.21729088638574,18.005084969059695
0.400,18.6,44.054472971625074,-78.681898230453299,-199.7,-125.7,100.0,48.5,3312.0,3312,169.7,0,1,1,0,1,1,0,0,0,100,1,1.186,26.0,0.0,-0.024,51.476,66.0,0.0,26.0,26.0,26.0,26.0,0.12,0.31,-0.20,380.3,-2.78,-2.71,-1.81,-1.53,-733.04,673.28,5.7,0.00,0.00,0.00,0.00,0.01,-7.49,-7.49,-0.28,-5.06,0.27,-6.37,47.16,0.09,-0.33,-2.34,100.0,0,0,134.73,0,0,0.0,0,0,0,0,7187,0,30.00,4,169.7,1,0,0.0,0.0,0.0,0.0,1,0,0.414,0.414,51.476,18.985,1,110.00,435.8,8750,0.0,0.0,110.0,110.0,433.0,0.00,0,0,1,166.7,81.8,81.8,56.4,56.4,34.0,-3.52,13.33,-4.94,25.5,2,-135.390,-3.2,100.0,12.6,19.3,45.7,46.2,0,1,100.0,0.00,0.00,0.00,0.00,2877,2118,4481,4246,318.3,319.0,343.4,343.3,25.70,23.01,25.77,24.54,325.0,325.0,355.0,355.0,99.87,99.71,99.83,99.75,0.22,0.24,0.19,0.24,-0.1,-0.0,1.8,1.5,86.6,69.8,80.8,73.1,98.7,72.2,87.8,76.8,94.2,69.2,85.7,74.4,91.1,67.7,84.9,73.3,-0.19,0.18,0.05,0.04,0.00,144.28,144.47,134.73,134.73,19.5,25.8,0.3879432948254165,167.44729556107777,43.9324086901625,10.803051265947659,7.202033987623935
0.450,21.0,44.054452017431657,-78.681892744591508,-4.7,-94.4,-261.8,-208.9,3314.4,3314,170.4,0,1,1,0,1,1,0,0,0,100,1,1.186,26.0,0.0,-0.027,51.476,66.0,0.0,26.0,26.0,26.0,26.0,0.19,0.36,-0.44,389.4,-2.36,-2.16,-1.66,-1.24,-732.43,670.95,5.7,0.00,0.00,0.00,0.00,0.01,-7.49,-7.49,-0.57,-6.00,0.07,-3.72,47.33,0.12,-0.37,-2.17,100.0,0,0,135.85,0,0,0.0,0,0,0,0,7246,0,30.00,4,170.4,0,0,0.0,0.0,0.0,0.0,1,0,0.464,0.464,51.476,18.985,0,110.00,435.8,8750,0.0,0.0,110.0,110.0,433.0,0.00,0,0,1,333.3,87.5,87.5,73.2,73.2,34.0,0.05,14.60,-3.13,26.9,2,-135.450,-3.1,100.0,12.3,14.6,32.6,35.7,0,1,100.0,0.00,0.00,0.00,0.00,259,2553,3176,4817,324.7,319.6,347.9,341.1,25.70,23.01,25.77,24.54,325.0,325.0,355.0,355.0,99.87,99.71,99.83,99.75,0.31,0.31,0.15,0.29,-0.0,-0.1,2.3,2.3,86.6,69.8,80.8,73.1,98.6,72.2,87.7,76.8,94.1,69.2,85.7,74.4,91.0,67.6,84.8,73.3,-0.17,0.18,0.07,0.05,0.00,144.68,144.90,135.85,135.85,19.5,25.8,0.5994163828258283,163.12607502624755,43.21220529140011,14.404068544271809,10.803052119483212
0.500,23.3,44.054432232356326,-78.681887438594032,5.0,25.6,-15.4,-138.4,3316.8,3317,170.9,0,1,1,0,1,1,0,0,0,100,1,1.186,26.0,0.0,-0.030,51.476,66.0,0.0,26.0,26.0,26.0,26.0,0.14,0.27,-0.30,389.5,-2.73,-2.15,-1.55,-1.55,-731.84,668.75,5.7,0.00,0.00,0.00,0.00,0.01,-7.49,-7.49,-0.85,-5.72,-0.09,-0.68,47.49,0.13,-0.48,-1.88,100.0,0,0,136.79,0,0,0.0,0,0,0,0,7297,0,30.00,4,170.9,1,0,0.0,0.0,0.0,0.0,1,0,0.513,0.513,51.476,18.985,1,110.00,435.8,8750,0.0,0.0,110.0,110.0,433.0,0.00,0,0,1,333.3,80.8,80.8,74.3,74.3,34.0,-5.01,26.80,-2.22,12.3,2,-135.490,-2.7,100.0,12.6,15.9,31.9,28.8,0,1,100.0,0.00,0.00,0.00,0.00,3201,3817,2739,2548,317.7,315.0,347.8,348.3,25.70,23.01,25.77,24.54,325.0,325.0,355.0,355.0,99.87,99.71,99.83,99.75,0.19,0.31,0.15,0.30,-0.1,-0.1,2.6,2.4,86.6,69.8,80.8,73.1,98.5,72.1,87.7,76.8,94.0,69.1,85.6,74.3,90.9,67.6,84.8,73.3,-0.15,0.16,0.07,0.08,0.00,145.35,145.43,136.79,136.79,19.5,25.8,0.42720018726587655,168.88770241550495,45.01271390211082,61.21729088638574,21.6061031009189
0.550,25.7,44.054409839248336,-78.681881503071423,346.2,161.5,-133.7,-6.9,3319.1,3319,171.6,0,1,1,0,1,1,0,0,0,100,1,1.186,26.0,0.0,-0.033,51.476,66.0,0.0,26.0,26.0,26.0,26.0,0.13,0.39,0.07,381.1,-2.15,-3.25,-1.53,-1.22,-731.18,666.26,5.7,0.00,0.00,0.00,0.00,0.02,-7.49,-7.49,-0.84,5.17,-0.11,3.89,47.67,0.16,-0.46,-2.71,100.0,0,0,137.10,0,0,0.0,0,0,0,0,7313,0,30.00,4,171.6,0,0,0.0,0.0,0.0,0.0,1,0,0.567,0.567,51.476,18.985,0,110.00,435.8,8750,0.0,0.0,110.0,110.0,433.0,0.00,0,0,1,166.7,63.6,63.6,85.2,85.2,34.0,-6.45,27.94,-3.93,25.9,2,-135.540,-3.1,100.0,29.9,24.0,25.2,28.5,0,1,100.0,0.00,0.00,0.00,0.00,5470,3557,4015,4587,310.7,316.0,345.1,343.5,25.71,23.01,25.78,24.54,325.0,325.0,355.0,355.0,99.87,99.71,99.83,99.75,0.17,0.28,0.14,0.34,-0.0,-0.1,2.5,2.3,86.7,69.8,80.8,73.2,98.4,72.1,87.7,76.8,94.0,69.1,85.6,74.3,90.8,67.6,84.8,73.3,-0.15,0.17,0.08,0.07,0.00,146.45,146.39,137.10,137.10,19.5,25.8,0.41701318923986086,169.24780411488612,45.372815601492,-93.62644496874054,-18.005086107107076
0.600,28.1,44.054389964240848,-78.681876107141790,-202.8,-40.0,277.5,315.2,3321.5,3322,172.3,0,1,1,0,1,1,0,0,0,100,1,1.186,26.0,0.0,-0.036,51.476,66.0,0.0,26.0,26.0,26.0,26.0,0.17,0.38,0.01,377.5,-2.81,-2.40,-1.61,-1.52,-730.58,664.05,5.7,0.00,0.00,0.00,0.00,0.02,-7.49,-7.49,-0.59,2.25,0.22,6.64,47.86,0.18,-0.32,-2.72,100.0,0,0,136.50,0,0,0.0,0,0,0,0,7281,0,30.00,4,172.3,1,0,0.0,0.0,0.0,0.0,1,0,0.614,0.614,51.476,18.985,1,110.00,435.8,8750,0.0,0.0,110.0,110.0,433.0,0.00,0,0,1,333.3,77.7,77.7,55.5,55.5,34.0,0.28,20.98,-13.61,34.6,2,-135.590,-3.8,100.0,19.8,22.0,39.1,44.2,0,1,100.0,0.00,0.00,0.00,0.00,1313,3075,7596,5211,321.9,316.9,336.9,341.5,25.71,23.01,25.78,24.55,325.0,325.0,355.0,355.0,99.87,99.71,99.83,99.75,0.35,0.30,0.12,0.28,0.0,-0.0,1.6,1.4,86.7,69.8,80.9,73.2,98.3,72.1,87.6,76.8,93.9,69.1,85.6,74.3,90.8,67.6,84.7,73.3,-0.21,0.21,0.06,0.04,0.00,146.47,146.88,136.50,136.50,19.5,25.8,0.4164132562731403,159.5250579186309,43.21220529140011,-39.61118835449042,-3.60101756283548
0.650,30.5,44.054369999301194,-78.681870711212156,-28.3,62.9,8.9,-4.4,3323.9,3324,172.8,0,1,1,0,1,1,0,0,0,100,1,1.186,26.0,0.0,-0.039,51.476,66.0,0.0,26.0,26.0,26.0,26.0,0.26,0.32,0.22,377.2,-2.75,-2.37,-2.01,-1.82,-729.98,661.83,5.7,0.00,0.00,0.00,0.00,0.02,-7.49,-7.49,-0.59,0.57,0.47,1.02,48.02,0.18,-0.38,-3.18,100.0,0,0,137.49,0,0,0.0,0,0,0,0,7334,0,30.00,4,172.8,0,0,0.0,0.0,0.0,0.0,1,0,0.663,0.663,51.476,18.985,0,110.00,435.8,8750,0.0,0.0,110.0,110.0,433.0,0.00,0,0,1,333.3,71.8,71.8,62.5,62.5,34.0,-1.01,34.24,-1.96,38.1,2,-135.640,-3.5,100.0,18.3,25.1,39.5,44.0,0,1,100.0,0.00,0.00,0.00,0.00,2896,4286,2881,5158,317.5,312.5,347.3,340.5,25.71,23.01,25.78,24.55,325.0,325.0,355.0,355.0,99.87,99.71,99.83,99.75,0.29,0.32,0.25,0.30,-0.0,-0.1,1.8,1.8,86.7,69.8,80.9,73.2,98.2,72.0,87.6,76.8,93.8,69.0,85.5,74.3,90.7,67.5,84.7,73.3,-0.22,0.21,0.06,0.03,0.00,147.13,147.38,137.48,137.48,19.5,25.8,0.4673328578219169,165.28668527943708,45.01271384520845,111.631530222312,39.61118806997867
0.700,32.9,44.054348685379139,-78.681864865621719,-80.4,-189.5,-52.2,-13.7,3326.3,3326,173.5,0,1,1,0,1,1,0,0,0,100,1,1.186,26.0,0.0,-0.042,51.476,66.0,0.0,26.0,26.0,26.0,26.0,0.21,0.38,-0.02,381.5,-2.23,-2.38,-2.05,-1.65,-729.33,659.46,5.7,0.00,0.00,0.00,0.00,0.02,-7.49,-7.49,-0.60,-3.44,0.19,-6.78,48.21,0.20,-0.29,-2.14,100.0,0,0,137.12,0,0,0.0,0,0,0,0,7314,0,30.00,4,173.5,1,0,0.0,0.0,0.0,0.0,1,0,0.714,0.714,51.476,18.985,1,110.00,435.8,8750,0.0,0.0,110.0,110.0,433.0,0.00,0,0,1,333.3,84.3,84.3,65.0,65.0,34.0,0.83,3.95,-5.23,57.2,2,-135.690,-1.4,100.0,14.3,15.6,36.9,43.3,0,1,100.0,0.00,0.00,0.00,0.00,2760,746,6420,6286,318.5,322.4,339.0,338.4,25.71,23.01,25.78,24.55,325.0,325.0,355.0,355.0,99.87,99.71,99.83,99.75,0.28,0.28,0.25,0.41,-0.1,-0.1,1.6,1.3,86.7,69.8,80.9,73.2,98.2,72.0,87.6,76.8,93.7,69.0,85.5,74.3,90.6,67.5,84.7,73.3,-0.08,0.10,0.07,0.04,0.00,147.58,147.67,137.11,137.11,19.5,25.8,0.4346262762420146,170.6882109408621,47.17332409839798,57.616273892573986,25.20712009473094
0.750,35.4,44.054327371457077,-78.681858930099125,25.7,-66.1,-89.5,-178.4,3328.8,3329,174.1,0,1,1,0,1,1,0,0,0,100,1,1.186,26.0,0.0,-0.045,51.476,66.0,0.0,26.0,26.0,26.0,26.0,0.11,0.35,-0.47,388.7,-2.47,-2.82,-1.73,-1.56,-728.67,657.09,5.7,0.00,0.00,0.00,0.00,0.02,-7.49,-7.49,-0.90,-6.17,0.19,3.54,48.36,0.19,-0.41,-1.04,100.0,0,0,139.22,0,0,0.0,0,0,0,0,7426,0,30.00,4,174.1,0,0,0.0,0.0,0.0,0.0,1,0,0.764,0.764,51.476,18.985,0,110.00,435.8,8750,0.0,0.0,110.0,110.0,433.0,0.00,0,0,1,333.3,84.2,84.2,77.0,77.0,34.0,-2.15,12.62,-2.96,16.0,2,-135.740,0.1,100.0,15.6,12.3,32.4,34.4,0,1,100.0,0.00,0.00,0.00,0.00,1675,2223,3398,3188,320.1,319.3,346.5,346.6,25.71,23.01,25.78,24.55,325.0,325.0,355.0,355.0,99.87,99.71,99.83,99.75,0.18,0.19,0.18,0.29,-0.1,-0.1,2.6,2.5,86.7,69.8,80.9,73.2,98.1,71.9,87.5,76.8,93.7,69.0,85.4,74.3,90.5,67.5,84.6,73.2,0.01,-0.01,0.07,0.06,0.00,147.95,148.03,139.22,139.22,19.5,25.8,0.5962382074305537,171.04831266869448,47.533425854681546,-39.61118806997888,-7.202033987623935
0.800,37.8,44.054305967602858,-78.681852994576516,-42.6,133.9,-56.2,-120.5,3331.2,3331,174.7,0,1,1,0,1,1,0,0,0,100,1,1.186,26.0,0.0,-0.051,51.476,66.0,0.0,26.0,26.0,26.0,26.0,0.07,0.32,-0.29,389.0,-2.40,-1.92,-1.34,-1.21,-728.01,654.71,5.6,0.00,0.00,0.00,0.00,0.02,-7.49,-7.49,-1.16,-3.94,0.33,0.61,48.54,0.17,-0.47,-0.49,100.0,0,0,139.72,0,0,0.0,0,0,0,0,7453,0,30.00,4,174.7,1,0,0.0,0.0,0.0,0.0,1,0,0.816,0.816,51.476,18.985,1,110.00,435.8,8750,0.0,0.0,110.0,110.0,433.0,0.00,0,0,1,166.7,81.2,81.2,73.5,73.5,34.0,-2.88,13.97,-2.22,14.9,2,-135.790,1.8,100.0,13.5,19.0,29.6,28.4,0,1,100.0,0.00,0.00,0.00,0.00,1353,3313,3076,3267,321.2,316.3,347.1,346.5,25.72,23.01,25.79,24.55,325.0,325.0,355.0,355.0,99.87,99.71,99.83,99.75,0.09,0.11,0.13,0.29,-0.1,-0.1,2.5,2.5,86.7,69.8,80.9,73.2,98.0,71.9,87.5,76.7,93.6,68.9,85.4,74.3,90.4,67.4,84.6,73.2,0.10,-0.09,0.08,0.08,0.00,148.58,148.67,139.72,139.72,19.5,25.8,0.43749285708454716,166.7270921338642,46.45312069963558,14.404068544271524,7.202033987623722
0.850,40.2,44.054285732866724,-78.681847328850409,168.1,-13.9,-62.7,98.3,3333.6,3334,175.3,0,1,1,0,1,1,0,0,0,100,1,1.186,26.0,0.0,-0.051,51.476,66.0,0.0,26.0,26.0,26.0,26.0,0.03,0.31,0.06,381.9,-2.78,-1.98,-2.05,-1.58,-727.38,652.46,5.6,0.00,0.00,0.00,0.00,0.02,-7.49,-7.49,-1.32,-1.50,0.21,-2.96,48.71,0.15,-0.50,0.14,100.0,0,0,139.72,0,0,0.0,0,0,0,0,7452,0,30.00,4,175.3,0,0,0.0,0.0,0.0,0.0,0,0,0.864,0.864,51.476,18.985,0,110.00,435.8,8750,0.0,0.0,110.0,110.0,433.0,0.00,0,0,1,333.3,68.9,68.9,81.6,81.6,34.0,-29.72,26.91,-8.13,20.6,2,-135.840,2.6,100.0,21.9,18.3,26.5,33.3,0,1,100.0,0.00,0.00,0.00,0.00,5500,5448,3581,3735,311.6,311.1,345.9,345.3,25.72,23.01,25.79,24.55,325.0,325.0,355.0,355.0,99.87,99.71,99.83,99.76,-0.05,0.12,0.11,0.28,-0.0,-0.1,2.1,2.1,86.7,69.8,80.9,73.2,97.9,71.9,87.4,76.7,93.5,68.9,85.4,74.3,90.4,67.4,84.5,73.2,0.15,-0.16,0.09,0.06,0.00,149.41,149.31,139.71,139.71,19.5,25.8,0.3171750305430741,172.48871952312163,48.25362925344392,10.803051550459486,3.6010175628356933
0.900,42.7,44.054262890097931,-78.681840943666998,172.6,164.1,193.2,-49.1,3336.1,3336,176.0,0,1,1,0,1,1,0,0,0,100,1,1.186,26.0,0.0,-0.057,51.476,66.0,0.0,26.0,26.0,26.0,26.0,-0.04,0.39,0.16,374.5,-3.44,-3.07,-1.21,-1.06,-726.67,649.92,5.6,0.00,0.00,0.00,0.00,0.03,-7.49,-7.49,-1.03,8.67,0.19,5.88,48.90,0.10,-0.35,2.10,100.0,0,0,139.49,0,0,0.0,0,0,0,0,7441,0,30.00,4,176.0,1,0,0.0,0.0,0.0,0.0,0,0,0.919,0.919,51.476,18.985,1,110.00,435.8,8750,0.0,0.0,110.0,110.0,433.0,0.00,0,0,1,166.7,64.7,64.7,65.3,65.3,34.0,-25.55,14.66,-25.05,25.6,2,-135.900,3.2,100.0,30.5,26.5,36.1,30.8,0,1,100.0,0.00,0.00,0.00,0.00,4065,3439,6535,6429,314.5,315.8,338.7,339.4,25.72,23.01,25.79,24.55,325.0,325.0,355.0,355.0,99.87,99.71,99.83,99.76,-0.06,-0.03,-0.09,0.14,-0.0,-0.1,1.5,1.6,86.8,69.8,80.9,73.2,97.8,71.8,87.4,76.7,93.4,68.8,85.3,74.3,90.3,67.4,84.5,73.2,0.20,-0.18,0.07,0.06,0.00,150.26,150.06,139.49,139.49,19.5,25.8,0.4234383071948026,167.80739728891015,46.81322245591915,-39.61118835449099,-14.404068544271311
0.950,45.1,44.054243824479883,-78.681835637669522,-115.7,-8.1,232.2,395.4,3338.5,3339,176.6,0,1,1,0,1,1,0,0,0,100,1,1.186,26.0,0.0,-0.057,51.476,66.0,0.0,26.0,26.0,26.0,26.0,-0.09,0.33,0.31,368.5,-2.15,-2.53,-1.68,-1.54,-726.08,647.80,5.6,0.00,0.00,0.00,0.00,0.03,-7.49,-7.49,-0.77,3.21,0.36,0.09,49.06,0.04,-0.30,2.00,100.0,0,0,139.96,0,0,0.0,0,0,0,0,7466,0,30.00,4,176.6,0,0,0.0,0.0,0.0,0.0,0,0,0.963,0.963,51.476,18.985,0,110.00,435.8,8750,0.0,0.0,110.0,110.0,433.0,0.00,0,0,1,333.3,67.7,67.7,49.0,49.0,34.0,-15.17,14.24,-30.44,18.1,2,-135.940,3.2,100.0,24.7,26.1,47.7,50.6,0,1,100.0,0.00,0.00,0.00,0.00,3238,4369,6731,5398,315.9,312.8,338.0,341.2,25.72,23.01,25.79,24.56,325.0,325.0,355.0,355.0,99.87,99.71,99.83,99.76,-0.09,-0.06,-0.06,0.02,-0.1,-0.0,1.4,1.5,86.8,69.8,81.0,73.2,97.7,71.8,87.4,76.7,93.3,68.8,85.3,74.3,90.2,67.3,84.5,73.2,0.20,-0.19,0.04,0.02,0.00,150.57,150.40,139.96,139.96,19.5,25.8,0.46162755550335166,168.52760068767253,46.81322239901679,115.23254721612432,28.80813651951911
1.000,47.6,44.054220801846775,-78.681829252486125,-243.2,-192.0,-43.7,-67.9,3341.0,3341,177.3,0,1,1,0,1,1,0,0,0,100,1,1.186,26.0,0.0,-0.060,51.476,66.0,0.0,26.0,26.0,26.0,26.0,-0.06,0.38,-0.13,377.9,-2.10,-1.74,-1.78,-1.67,-725.37,645.24,5.5,0.00,0.00,0.00,0.00,0.03,-7.49,-7.49,-0.78,-5.03,0.28,-5.86,49.25,-0.02,-0.27,1.67,100.0,0,0,140.13,0,0,0.0,0,0,0,0,7475,0,30.00,4,177.3,1,0,0.0,0.0,0.0,0.0,0,0,1.017,1.017,51.476,18.985,1,110.00,435.8,8750,0.0,0.0,110.0,110.0,433.0,0.00,0,0,1,166.7,84.3,84.3,53.5,53.5,34.0,-8.72,2.24,-32.87,23.1,2,-135.990,3.1,100.0,12.6,16.5,45.6,47.2,0,1,100.0,0.00,0.00,0.00,0.00,2143,2139,6360,6182,320.0,319.1,339.5,338.5,25.73,23.01,25.80,24.56,325.0,325.0,355.0,355.0,99.87,99.71,99.83,99.76,-0.12,-0.11,-0.10,0.01,-0.1,-0.0,1.4,1.5,86.8,69.8,81.0,73.2,97.6,71.8,87.3,76.7,93.2,68.8,85.3,74.3,90.1,67.3,84.4,73.2,0.19,-0.19,0.05,0.02,0.00,150.79,150.69,140.13,140.13,19.5,25.8,0.40607881008493907,179.33065201052258,49.694036107871064,10.803051265947943,0.0
1.050,50.0,44.054199038263910,-78.681823227031359,95.6,-18.7,-217.3,-286.7,3343.4,3343,177.8,0,1,1,0,1,1,0,0,0,100,1,1.186,26.0,0.0,-0.066,51.476,66.0,0.0,26.0,26.0,26.0,26.0,-0.10,0.33,-0.44,386.3,-1.97,-2.30,-1.06,-1.10,-724.70,642.82,5.5,0.00,0.00,0.00,0.00,0.03,-7.49,-7.49,-1.12,-5.16,0.04,-2.09,49.40,-0.06,-0.44,2.36,100.0,0,0,142.34,0,0,0.0,0,0,0,0,7592,0,30.00,4,177.8,0,0,0.0,0.0,0.0,0.0,0,0,1.069,1.069,51.476,18.985,0,110.00,435.8,8750,0.0,0.0,110.0,110.0,433.0,0.00,0,0,1,166.7,80.5,80.5,75.7,75.7,34.0,-14.25,3.76,-10.14,3.8,2,-136.050,2.5,100.0,17.3,15.6,34.7,32.9,0,1,100.0,0.00,0.00,0.00,0.00,2969,2120,3378,3374,317.8,319.5,347.2,346.2,25.73,23.01,25.80,24.56,325.0,325.0,355.0,355.0,99.87,99.71,99.83,99.76,-0.16,-0.11,-0.16,-0.05,-0.0,-0.1,2.5,2.7,86.8,69.8,81.0,73.2,97.5,71.7,87.3,76.7,93.2,68.7,85.2,74.2,90.1,67.2,84.4,73.2,0.16,-0.16,0.08,0.06,0.00,151.35,151.08,142.34,142.34,19.5,25.8,0.5590169943749475,169.60790581426733,46.81322239901679,-140.43966731085504,-39.61118863900225
1.100,52.5,44.054178443799138,-78.681817561305252,234.0,174.8,-42.4,-50.5,3345.9,3346,178.4,0,1,1,0,1,1,0,0,0,100,1,1.186,26.0,0.0,-0.069,51.476,66.0,0.0,26.0,26.0,26.0,26.0,-0.15,0.33,0.29,378.2,-1.60,-2.71,-1.72,-1.74,-724.07,640.53,5.5,0.00,0.00,0.00,0.00,0.03,-7.49,-7.49,-1.21,1.99,0.01,1.64,49.56,-0.11,-0.52,2.75,100.0,0,0,142.01,0,0,0.0,0,0,0,0,7575,0,30.00,4,178.4,1,0,0.0,0.0,0.0,0.0,0,0,1.116,1.116,51.476,18.985,1,110.00,435.8,8750,0.0,0.0,110.0,110.0,433.0,0.00,0,0,1,166.7,63.7,63.7,72.1,72.1,34.0,-24.53,18.17,-33.48,3.3,2,-136.090,1.5,100.0,29.0,24.3,32.6,30.4,0,1,100.0,0.00,0.00,0.00,0.00,4898,5043,4906,2705,313.5,311.7,342.7,347.3,25.73,23.01,25.80,24.56,325.0,325.0,355.0,355.0,99.87,99.71,99.83,99.76,-0.18,-0.06,-0.30,-0.15,0.0,-0.0,1.8,2.0,86.8,69.8,81.0,73.2,97.5,71.7,87.3,76.6,93.1,68.7,85.2,74.2,90.0,67.2,84.4,73.2,0.09,-0.08,0.07,0.07,0.00,152.15,152.00,142.02,142.02,19.5,25.8,0.46421977553740645,165.28668527943708,45.73291724397084,14.404068544271524,5.690236548616667e-07
1.150,55.0,44.054157759402202,-78.681811805646973,138.3,142.1,172.3,163.8,3348.4,3348,179.0,0,1,1,0,1,1,0,0,0,100,1,1.186,26.0,0.0,-0.069,51.476,66.0,0.0,26.0,26.0,26.0,26.0,-0.25,0.30,0.62,365.9,-3.09,-3.24,-1.88,-2.15,-723.43,638.23,5.5,0.00,0.00,0.00,0.00,0.03,-7.49,-7.49,-0.85,10.31,0.14,3.79,49.73,-0.12,-0.40,2.29,100.0,0,0,141.63,0,0,0.0,0,0,0,0,7554,0,30.00,4,179.0,0,0,0.0,0.0,0.0,0.0,0,0,1.164,1.164,51.476,18.985,0,110.00,435.8,8750,0.0,0.0,110.0,110.0,433.0,0.00,0,0,1,166.7,54.4,54.4,59.2,59.2,34.0,-51.31,18.93,-65.82,16.5,2,-136.140,0.1,100.0,36.0,31.4,41.2,38.5,0,1,100.0,0.00,0.00,0.00,0.00,6340,4871,7080,6194,309.2,311.2,337.2,338.2,25.74,23.01,25.80,24.56,325.0,325.0,355.0,355.0,99.87,99.71,99.83,99.76,-0.19,-0.11,-0.35,-0.15,-0.1,-0.1,1.2,1.3,86.8,69.8,81.0,73.2,97.4,71.7,87.3,76.6,93.1,68.7,85.2,74.2,89.9,67.2,84.4,73.1,0.05,-0.01,0.05,0.04,0.00,152.98,152.71,141.63,141.63,19.5,25.8,0.7327346040688948,171.04831266869448,46.81322245591915,64.81830816470932,7.2020345566474475
1.200,57.5,44.054135726022857,-78.681805870124364,-192.8,-93.4,255.4,271.3,3350.9,3351,179.6,0,1,1,0,1,1,0,0,0,100,1,1.186,26.0,0.0,-0.072,51.476,66.0,0.0,26.0,26.0,26.0,26.0,-0.12,0.33,0.48,364.1,-2.65,-3.30,-2.07,-2.27,-722.77,635.78,5.5,0.00,0.00,0.00,0.00,0.03,-7.49,-7.49,-0.48,3.81,0.29,1.57,49.91,-0.10,-0.30,0.57,100.0,0,0,142.06,0,0,0.0,0,0,0,0,7578,0,30.00,4,179.6,1,0,0.0,0.0,0.0,0.0,0,0,1.214,1.214,51.476,18.985,1,110.00,435.8,8750,0.0,0.0,110.0,110.0,433.0,0.00,0,0,1,166.7,64.6,64.6,43.0,43.0,34.0,-27.10,24.16,-53.60,24.7,2,-136.190,-1.3,100.0,26.3,26.8,54.0,52.1,0,1,100.0,0.00,0.00,0.00,0.00,4791,4853,7210,7316,313.2,311.3,337.0,336.3,25.74,23.01,25.81,24.56,325.0,325.0,355.0,355.0,99.87,99.71,99.83,99.76,-0.10,-0.04,-0.19,-0.12,-0.0,-0.1,1.2,1.2,86.9,69.8,81.0,73.3,97.3,71.6,87.2,76.6,93.0,68.6,85.2,74.2,89.9,67.1,84.3,73.1,-0.05,0.05,0.03,0.01,0.00,153.16,153.15,142.06,142.06,19.5,25.8,0.5947268280479703,171.768516095908,46.45312069963558,14.404068544271524,-5.690236548616667e-07
1.250,60.0,44.054114861761597,-78.681800204398257,43.9,16.7,-161.0,-73.8,3353.4,3353,180.2,0,1,1,0,1,1,0,0,0,100,1,1.186,26.0,0.0,-0.075,51.476,66.0,0.0,26.0,26.0,26.0,26.0,-0.07,0.42,0.15,368.8,-2.66,-2.77,-2.26,-1.67,-722.14,633.46,5.5,0.00,0.00,0.00,0.00,0.04,-7.49,-7.49,-0.28,5.04,0.38,0.20,50.06,-0.06,-0.30,-0.74,100.0,0,0,142.76,0,0,0.0,0,0,0,0,7615,0,30.00,4,180.2,0,0,0.0,0.0,0.0,0.0,0,0,1.263,1.263,51.476,18.985,0,110.00,435.8,8750,0.0,0.0,110.0,110.0,433.0,0.00,0,0,1,333.3,64.6,64.6,54.6,54.6,34.0,-16.66,19.06,-36.25,21.8,2,-136.240,-2.4,100.0,28.5,27.6,45.9,48.4,0,1,100.0,0.00,0.00,0.00,0.00,4167,3888,5821,6909,315.0,313.9,340.1,337.4,25.74,23.01,25.81,24.56,325.0,325.0,355.0,355.0,99.87,99.71,99.83,99.76,0.01,0.04,-0.11,-0.03,-0.0,-0.1,1.5,1.5,86.9,69.8,81.0,73.3,97.3,71.6,87.2,76.6,92.9,68.6,85.1,74.2,89.8,67.1,84.3,73.1,-0.14,0.13,0.04,0.02,0.00,153.56,153.63,142.76,142.76,19.5,25.8,0.45144213361182844,172.48871952312163,46.81322239901679,61.21729088638631,18.00508553808335
1.300,62.5,44.054092648517930,-78.681794178943491,-31.5,1.5,74.3,38.6,3355.9,3356,180.8,0,1,1,0,1,1,0,0,0,100,1,1.186,26.0,0.0,-0.078,51.476,66.0,0.0,26.0,26.0,26.0,26.0,0.05,0.31,0.40,368.2,-2.11,-1.82,-1.84,-1.65,-721.47,630.99,5.5,0.00,0.00,0.00,0.00,0.04,-7.49,-7.49,-0.13,1.53,0.48,1.45,50.23,-0.01,-0.34,-1.44,100.0,0,0,143.09,0,0,0.0,0,0,0,0,7633,0,30.00,4,180.8,1,0,0.0,0.0,0.0,0.0,0,0,1.314,1.314,51.476,18.985,1,110.00,435.8,8750,0.0,0.0,110.0,110.0,433.0,0.00,0,0,1,333.3,64.3,64.3,49.3,49.3,34.0,-8.52,29.42,-22.82,25.5,2,-136.290,-2.7,100.0,26.9,27.7,49.6,50.4,0,1,100.0,0.00,0.00,0.00,0.00,3477,5655,5197,6240,316.6,309.8,341.7,338.2,25.74,23.01,25.81,24.57,325.0,325.0,355.0,355.0,99.87,99.71,99.83,99.76,0.06,0.15,-0.04,0.03,-0.0,-0.1,1.3,1.3,86.9,69.8,81.1,73.3,97.2,71.6,87.2,76.6,92.8,68.6,85.1,74.2,89.7,67.1,84.3,73.1,-0.14,0.16,0.05,0.02,0.00,153.95,154.22,143.09,143.09,19.5,25.8,0.5085272854036449,177.89024518454664,48.25362925344392,57.616273608061874,14.404068544271311
1.350,65.0,44.054070435274262,-78.681788153488739,-108.1,-32.1,-47.8,-68.6,3358.4,3358,181.3,0,1,1,0,1,1,0,0,0,100,1,1.186,26.0,0.0,-0.081,51.476,66.0,0.0,26.0,26.0,26.0,26.0,0.20,0.19,0.29,371.3,-2.08,-2.31,-0.30,-1.74,-720.80,628.52,5.5,0.00,0.00,0.00,0.00,0.04,-7.49,-7.49,-0.08,-0.56,0.46,-1.45,50.35,0.04,-0.37,-1.76,100.0,0,0,141.98,0,0,0.0,0,0,0,0,7573,0,30.00,4,181.3,0,0,0.0,0.0,0.0,0.0,1,0,1.364,1.364,51.476,18.985,0,110.00,435.8,8750,0.0,0.0,110.0,110.0,433.0,0.00,0,0,1,333.3,68.2,68.2,49.9,49.9,34.0,-4.83,36.43,0.10,43.0,2,-136.340,-2.4,100.0,21.5,26.1,47.2,46.9,0,1,18.3,0.00,0.00,0.00,0.00,3093,5647,5120,6585,316.9,309.6,341.7,336.8,25.75,23.02,25.81,24.57,325.0,325.0,355.0,355.0,99.87,99.71,99.83,99.76,0.13,0.18,0.05,0.14,-0.0,-0.0,0.7,0.7,86.9,69.8,81.1,73.3,97.1,71.5,87.1,76.6,92.8,68.6,85.1,74.2,89.7,67.1,84.2,73.1,-0.14,0.15,0.05,0.04,0.00,154.29,154.43,141.98,141.98,19.5,25.8,0.40024992192379,178.25034688392782,48.25362925344392,-50.414239620438366,-10.803050981435689
1.400,67.5,44.054048132098437,-78.681782128033973,228.7,216.7,-125.7,-121.0,3361.0,3361,181.0,0,1,1,0,1,1,0,0,0,100,1,1.186,26.0,0.0,-0.084,51.476,66.0,0.0,26.0,26.0,26.0,26.0,0.21,-0.26,0.38,367.1,-2.69,-3.03,-0.78,-1.62,-720.13,626.04,5.5,0.00,0.00,0.00,0.00,0.04,-7.49,-7.49,-0.04,5.39,0.13,-6.98,50.26,0.05,-0.50,-2.26,100.0,0,0,141.01,0,0,0.0,0,0,0,0,7522,0,30.00,4,181.0,1,0,0.0,0.0,0.0,0.0,1,0,1.416,1.416,51.476,18.985,1,110.00,435.8,8750,0.0,0.0,110.0,110.0,433.0,0.00,0,0,1,166.7,49.9,49.9,56.3,56.3,34.0,-20.87,65.31,0.74,37.7,2,-136.390,-2.6,100.0,33.0,36.9,40.9,40.9,0,1,0.0,0.00,0.00,0.00,0.00,6373,7248,5325,5442,309.2,305.2,341.2,341.6,25.75,23.02,25.82,24.57,325.0,325.0,355.0,355.0,99.87,99.71,99.83,99.76,0.10,0.26,0.13,0.23,0.0,-0.0,-0.2,-0.4,86.9,69.9,81.1,73.3,97.0,71.5,87.1,76.6,92.7,68.6,85.0,74.1,89.6,67.1,84.2,73.1,-0.11,0.17,0.05,0.05,0.00,154.37,154.43,141.01,141.01,19.5,25.8,0.5060632371551999,172.8488212225028,47.17332415530035,-57.616273892573986,-7.202033987623722
1.450,70.1,44.054027267837178,-78.681776372375694,168.3,22.3,142.3,200.8,3363.5,3363,180.6,0,1,1,0,1,1,0,0,0,100,1,1.186,26.0,0.0,-0.087,51.476,66.0,0.0,26.0,26.0,26.0,26.0,0.15,-0.23,0.81,359.3,-5.17,-3.65,-1.94,-2.03,-719.49,623.72,5.5,0.00,0.00,0.00,0.00,0.04,-7.49,-7.49,0.43,11.60,-0.01,0.65,50.15,0.06,-0.46,-1.93,100.0,0,0,140.86,0,0,0.0,0,0,0,0,7513,0,30.00,4,180.6,0,0,0.0,0.0,0.0,0.0,1,0,1.464,1.464,51.476,18.985,0,110.00,435.8,8750,0.0,0.0,110.0,110.0,433.0,0.00,0,0,1,333.3,47.3,47.3,48.1,48.1,34.0,-44.04,56.74,-34.36,57.2,2,-136.440,-2.8,100.0,41.4,38.0,48.1,50.9,0,1,0.0,0.00,0.00,0.00,0.00,6038,6226,7520,7217,310.2,307.6,336.0,336.1,25.75,23.02,25.82,24.57,325.0,325.0,355.0,355.0,99.87,99.71,99.83,99.76,0.09,0.21,0.03,0.17,0.0,-0.0,-0.2,-0.3,87.0,69.9,81.1,73.3,97.0,71.5,87.0,76.6,92.6,68.5,85.0,74.1,89.6,67.1,84.1,73.1,-0.10,0.18,0.03,0.03,0.00,154.05,154.26,140.86,140.86,19.5,25.8,0.8552777326693359,172.48871949467042,47.533425854681546,43.212205063790634,18.005084969059695
1.500,72.6,44.054005054593517,-78.681770256988770,-339.1,-303.9,172.6,59.5,3366.0,3366,180.2,0,1,1,0,1,1,0,0,0,100,1,1.186,26.0,0.0,-0.087,51.476,66.0,0.0,26.0,26.0,26.0,26.0,0.09,-0.16,0.24,370.8,-2.94,-2.22,-1.99,-2.00,-718.81,621.25,5.6,0.00,0.00,0.00,0.00,0.04,-7.49,-7.49,0.75,-0.70,0.12,6.46,50.04,0.07,-0.41,-1.26,100.0,0,0,140.30,0,0,0.0,0,0,0,0,7484,0,30.00,4,180.2,1,0,0.0,0.0,0.0,0.0,1,0,1.514,1.514,51.476,18.985,1,110.00,435.8,8750,0.0,0.0,110.0,110.0,433.0,0.00,0,0,1,333.3,74.9,74.9,43.7,43.7,34.0,-4.38,9.51,-26.54,54.9,2,-136.490,-2.7,100.0,24.4,22.8,56.7,53.9,0,1,0.0,0.00,0.00,0.00,0.00,2114,2237,6491,7667,319.3,318.7,337.6,335.7,25.76,23.02,25.82,24.57,325.0,325.0,355.0,355.0,99.87,99.71,99.83,99.76,0.17,0.10,0.07,0.13,0.1,0.0,-0.1,-0.2,87.0,69.9,81.1,73.3,96.9,71.5,87.0,76.5,92.6,68.5,84.9,74.1,89.5,67.0,84.1,73.0,-0.15,0.14,0.02,0.01,0.00,153.36,153.38,140.30,140.30,19.5,25.8,0.3021588985947625,177.17004172888187,48.97383265220632,-10.803050981435547,-5.690237259159403e-07
1.550,75.1,44.053983021214172,-78.681764141601860,-279.6,-161.7,-394.6,-233.2,3368.5,3368,179.8,0,1,1,0,1,1,0,0,0,100,1,1.186,26.0,0.0,-0.090,51.476,66.0,0.0,26.0,26.0,26.0,26.0,0.08,-0.18,-0.57,390.7,-1.67,-1.48,-2.01,-1.14,-718.13,618.80,5.6,0.00,0.00,0.00,0.00,0.05,-7.49,-7.49,0.36,-11.00,0.21,-3.71,49.95,0.08,-0.58,-1.32,100.0,0,0,139.54,0,0,0.0,0,0,0,0,7443,0,30.00,4,179.8,0,0,0.0,0.0,0.0,0.0,1,0,1.566,1.566,51.476,18.985,0,110.00,435.8,8750,0.0,0.0,110.0,110.0,433.0,0.00,0,0,1,166.7,87.1,87.1,67.7,67.7,34.0,0.09,15.76,-7.90,8.5,2,-136.540,-2.6,100.0,10.4,14.8,37.0,42.2,0,1,0.0,0.00,0.00,0.00,0.00,447,2957,2883,2193,323.9,316.8,347.7,349.2,25.76,23.02,25.82,24.57,325.0,325.0,355.0,355.0,99.87,99.71,99.83,99.76,0.22,0.26,0.10,0.15,0.1,-0.0,-0.3,-0.5,87.0,69.9,81.1,73.3,96.8,71.4,86.9,76.5,92.5,68.5,84.9,74.1,89.4,67.0,84.0,73.0,-0.14,0.15,0.06,0.06,0.00,152.77,152.83,139.54,139.54,19.5,25.8,0.6030754513325841,171.40841439652687,47.533425797779174,-57.61627332355005,-14.404067975247727
1.600,77.5,44.053962246885071,-78.681758385943581,197.8,107.4,-306.2,-427.3,3371.0,3371,179.5,0,1,1,0,1,1,0,0,0,100,1,1.186,26.0,0.0,-0.090,51.476,66.0,2.1,26.0,26.0,26.0,26.0,0.14,-0.24,-0.34,391.9,-2.02,-3.32,-1.26,-0.69,-717.49,616.49,5.7,0.00,0.00,0.00,0.00,0.05,-7.49,-7.49,-0.06,-4.12,-0.01,-2.99,49.84,0.11,-0.69,-2.21,100.0,0,0,139.05,0,0,0.0,0,0,0,0,7417,0,30.00,4,179.5,1,0,0.0,0.0,0.0,0.0,1,0,1.614,1.614,51.476,18.985,1,110.00,435.8,8750,0.0,0.0,110.0,110.0,433.0,0.00,0,0,1,333.3,69.7,69.7,89.1,89.1,34.0,-7.05,48.20,-1.06,13.8,2,-136.590,-2.2,100.0,20.3,20.1,21.6,20.9,0,1,0.0,0.00,0.00,0.00,0.00,4517,5240,1303,2895,313.7,310.7,351.5,348.0,25.76,23.02,25.82,24.57,325.0,325.0,355.0,355.0,99.87,99.71,99.83,99.76,0.13,0.30,0.11,0.30,-0.1,-0.1,-0.6,-0.7,87.0,69.9,81.1,73.3,96.7,71.4,86.8,76.4,92.4,68.4,84.8,74.0,89.3,66.9,83.9,72.9,-0.14,0.14,0.10,0.09,0.00,152.71,152.71,139.05,139.05,19.5,25.8,0.439089968002003,171.40841439652687,47.533425854681546,-10.80305155045977,5.690237259159403e-07
1.650,80.0,44.053940213505726,-78.681752270556657,197.0,90.8,90.2,88.8,3373.4,3373,178.9,0,1,1,0,1,1,0,0,0,100,1,1.186,26.0,0.0,-0.093,51.476,66.0,18.9,26.0,26.0,26.0,26.0,0.13,-0.47,0.23,381.7,-2.57,-2.60,-1.11,-1.32,-716.81,614.04,5.7,0.00,0.00,0.00,0.00,0.05,-7.49,-7.49,-0.00,3.78,-0.11,3.68,49.66,0.14,-0.60,-2.41,100.0,0,0,138.70,0,0,0.0,0,0,0,0,7399,0,30.00,4,178.9,0,0,0.0,0.0,0.0,0.0,1,0,1.664,1.664,51.476,18.985,0,110.00,435.8,8750,0.0,0.0,110.0,110.0,433.0,0.00,0,0,1,333.3,60.6,60.6,81.5,81.5,34.0,-21.92,31.84,-9.56,28.5,2,-136.650,-1.8,100.0,30.2,24.7,26.2,25.3,0,1,0.0,0.00,0.00,0.00,0.00,6777,4571,5016,3948,308.2,312.8,342.3,344.6,25.76,23.02,25.82,24.57,325.0,325.0,355.0,355.0,99.87,99.71,99.83,99.76,0.09,0.24,0.04,0.34,-0.5,-0.8,-0.4,-0.6,87.0,69.9,81.2,73.3,96.7,71.4,86.8,76.4,92.3,68.4,84.7,74.0,89.3,66.9,83.9,72.9,-0.08,0.11,0.09,0.08,0.00,151.58,151.30,138.70,138.70,19.5,25.8,0.5391660226683428,170.3281092414809,47.533425854681546,-28.808137088543333,0.0
1.700,82.5,44.053919708973112,-78.681746514898379,-101.0,-17.7,154.0,233.6,3375.9,3376,177.5,0,1,1,0,1,1,0,0,0,100,1,1.186,26.0,0.0,-0.096,51.476,66.0,91.8,26.0,26.0,26.0,26.0,0.05,-1.13,-0.13,381.8,-2.56,-2.94,-2.23,-1.18,-716.17,611.76,5.7,0.00,0.00,0.00,0.00,0.05,-7.49,-7.49,0.12,-0.56,0.27,8.28,49.27,0.16,-0.55,-1.84,100.0,0,0,136.00,0,0,0.0,0,0,0,0,7255,0,30.00,4,177.5,1,0,0.0,0.0,0.0,0.0,1,0,1.713,1.713,51.476,18.985,1,110.00,435.8,8750,0.0,0.0,110.0,110.0,433.0,0.00,0,0,1,333.3,72.4,72.4,70.4,70.4,34.0,-1.62,2.10,-21.43,26.4,2,-136.690,-1.8,100.0,25.1,23.8,33.9,37.0,0,1,0.0,0.00,0.00,0.00,0.00,2922,1542,5406,5012,317.7,319.3,341.5,342.9,25.76,23.02,25.83,24.58,325.0,325.0,355.0,355.0,99.87,99.71,99.83,99.76,0.17,0.09,0.05,0.24,-5.2,-6.2,-1.5,-1.6,87.0,69.9,81.2,73.4,96.6,71.4,86.7,76.4,92.3,68.4,84.7,73.9,89.2,66.9,83.8,72.9,-0.10,0.09,0.08,0.06,0.00,141.33,139.15,136.00,136.00,19.5,25.8,1.1385517116055817,168.52760068767253,47.533425854681546,10.803051265947659,7.202033987623722
1.750,84.9,44.053898125254570,-78.681740399511455,-130.6,6.6,-52.1,-13.6,3378.3,3378,174.9,0,1,1,0,1,1,0,0,0,100,1,1.186,26.0,0.0,-0.096,51.476,66.0,100.0,26.0,26.0,26.0,26.0,0.07,-1.65,-0.16,384.9,-3.42,-2.35,-0.75,-0.44,-715.49,609.36,5.8,0.00,0.00,0.00,0.00,0.05,-7.49,-7.49,-0.24,-10.10,0.44,-3.45,48.52,0.12,-0.80,0.90,100.0,0,0,130.94,0,0,0.0,0,0,0,0,6985,0,30.00,4,174.9,0,0,0.0,0.0,0.0,0.0,1,0,1.764,1.764,51.476,18.985,0,110.00,435.8,8750,0.0,0.0,110.0,110.0,433.0,0.00,0,0,1,333.3,68.9,68.9,76.8,76.8,34.0,-0.35,2.50,-0.55,3.2,2,-136.740,-1.8,100.0,18.6,24.1,31.2,36.3,0,1,0.0,0.00,0.00,0.00,0.00,4334,4727,1888,1789,313.3,311.2,349.9,349.7,25.77,23.02,25.83,24.58,325.0,325.0,355.0,355.0,99.87,99.71,99.83,99.76,0.29,0.30,0.07,0.18,-8.6,-8.5,-3.4,-3.5,87.0,69.9,81.2,73.4,96.6,71.5,86.7,76.3,92.3,68.5,84.6,73.9,89.2,67.0,83.8,72.9,-0.11,0.09,0.08,0.04,0.00,135.08,135.09,130.94,130.94,19.5,25.8,1.6592166826548,171.40841436807565,48.25362925344392,-46.81322234211393,-14.404068544271524
1.800,87.3,44.053876901264672,-78.681734463988860,65.7,74.0,-265.6,-286.2,3380.7,3381,172.0,0,1,1,0,1,1,0,0,0,100,1,1.186,26.0,0.0,-0.099,51.476,66.0,100.0,26.0,26.0,26.0,26.0,0.06,-1.81,-0.25,388.8,-2.50,-2.84,-1.94,-1.20,-714.83,607.00,5.8,0.00,0.00,0.00,0.00,0.05,-7.49,-7.49,-0.66,-6.32,-0.00,-13.67,47.70,0.00,-1.00,2.37,100.0,0,0,124.29,0,0,0.0,0,0,0,0,6630,0,30.00,4,172.0,1,0,0.0,0.0,0.0,0.0,1,0,1.814,1.814,51.476,18.985,1,110.00,435.8,8750,0.0,0.0,110.0,110.0,433.0,0.00,0,0,1,333.3,63.8,63.8,85.4,85.4,34.0,-0.14,2.06,-1.63,1.0,2,-136.790,-1.4,100.0,21.9,27.8,18.0,22.0,0,1,0.0,0.00,0.00,0.00,0.00,5022,6207,3269,1418,313.3,307.9,347.5,351.6,25.77,23.02,25.83,24.58,325.0,325.0,355.0,355.0,99.87,99.71,99.83,99.76,0.19,0.33,-0.09,0.14,-9.2,-9.1,-7.9,-6.5,87.0,69.9,81.2,73.4,96.7,71.7,86.6,76.3,92.4,68.7,84.6,73.9,89.3,67.2,83.7,72.8,-0.08,0.09,0.10,0.08,0.00,132.50,132.96,124.25,124.33,19.5,25.8,1.8281684823888635,163.84627845346114,46.093019000254394,-104.42949595017694,-28.808137088542765
1.850,89.7,44.053857206121499,-78.681728888194897,176.7,-3.4,-6.3,-138.8,3383.1,3383,169.0,1,1,1,0,1,1,0,0,0,100,1,1.186,26.0,0.0,-0.099,51.476,66.0,100.0,26.0,26.0,26.0,26.0,0.01,-1.50,-0.32,390.3,-2.12,-2.46,-1.39,-1.51,-714.21,604.81,5.8,0.00,0.00,0.00,0.00,0.05,-7.49,-7.49,-0.84,-1.35,-0.38,-3.41,46.88,-0.01,-1.05,-0.77,100.0,0,0,118.39,0,0,0.0,0,0,0,0,6315,0,30.00,4,169.0,0,0,0.0,0.0,0.0,0.0,0,0,1.863,1.863,51.476,18.985,0,110.00,435.8,8750,0.0,0.0,110.0,110.0,433.0,0.00,0,0,1,333.3,61.9,61.9,98.5,98.5,34.0,-4.72,0.60,-0.57,-0.2,2,-136.840,-1.9,100.0,30.7,27.6,17.7,15.1,0,1,0.0,0.00,0.00,0.00,0.00,5594,3202,1739,1591,310.9,316.0,351.0,351.2,25.77,23.02,25.83,24.58,325.0,325.0,355.0,355.0,99.87,99.71,99.83,99.76,0.04,0.13,-0.06,0.18,-6.0,-9.0,-7.7,-12.2,87.1,69.9,81.2,73.3,96.8,71.8,86.6,76.3,92.4,68.8,84.6,73.9,89.3,67.3,83.7,72.8,-0.09,0.10,0.09,0.10,0.00,134.96,129.17,121.27,115.51,19.5,25.8,1.5337861650177969,160.96546477305796,45.37281554458964,-14.404068544272093,-5.690237259159403e-07
1.900,92.0,44.053836701588885,-78.681723132536632,-78.7,-52.9,76.3,18.3,3385.4,3385,166.0,0,1,1,0,1,1,0,0,0,100,1,1.186,26.0,0.0,-0.102,51.476,66.0,100.0,26.0,26.0,26.0,26.0,0.00,-1.92,-0.15,387.6,-3.33,-3.00,-1.09,-1.48,-713.57,602.53,5.8,0.00,0.00,0.00,0.00,0.06,-7.49,-7.49,-0.97,-3.09,-0.30,4.55,46.03,0.08,-1.02,-2.91,100.0,0,0,117.56,0,0,0.0,0,0,0,0,6271,0,30.00,4,166.0,1,0,0.0,0.0,0.0,0.0,0,0,1.914,1.914,51.476,18.985,1,110.00,435.8,8750,0.0,0.0,110.0,110.0,433.0,0.00,0,0,1,166.7,60.6,60.6,90.9,90.9,34.0,-16.24,-1.48,-0.66,-0.4,2,-136.890,-2.0,100.0,26.8,25.0,21.5,16.0,0,1,0.0,0.00,0.00,0.00,0.00,6406,6253,1947,2055,308.7,308.5,350.3,349.8,25.77,23.02,25.83,24.58,325.0,325.0,355.0,355.0,99.88,99.71,99.83,99.76,0.01,0.18,0.01,0.28,-4.7,-11.3,-6.8,-11.4,87.1,69.9,81.2,73.3,96.8,72.0,86.6,76.3,92.5,69.0,84.5,73.9,89.4,67.4,83.7,72.9,-0.11,0.12,0.11,0.11,0.00,134.43,125.45,120.34,114.77,19.5,25.8,1.925850461484484,162.40587159903393,46.09301894335202,-14.404068544270672,5.690235838073932e-07
1.950,94.2,44.053816646717074,-78.681717376878353,13.9,79.2,-154.4,-15.6,3387.6,3388,163.0,0,1,1,0,1,1,0,0,0,100,1,1.186,26.0,0.0,-0.102,51.476,66.0,100.0,26.0,26.0,26.0,26.0,0.05,-1.78,-0.22,388.8,-2.97,-2.37,-2.23,-0.48,-712.93,600.30,5.8,0.00,0.00,0.00,0.00,0.06,-7.49,-7.49,-0.95,2.73,-0.15,0.19,45.20,0.16,-0.89,-1.57,100.0,0,0,113.76,0,0,0.0,0,0,0,0,6068,0,30.00,4,163.0,0,0,0.0,0.0,0.0,0.0,0,0,1.964,1.964,51.476,18.985,0,110.00,435.8,8750,0.0,0.0,110.0,110.0,433.0,0.00,0,0,1,166.7,61.5,61.5,95.6,95.6,34.0,-0.02,-0.55,0.14,-0.7,2,-136.940,-1.9,100.0,27.5,28.9,13.7,15.2,0,1,0.0,0.00,0.00,0.00,0.00,4941,4927,2335,3887,312.8,311.3,350.5,345.7,25.78,23.02,25.83,24.58,325.0,325.0,355.0,355.0,99.88,99.71,99.83,99.76,0.19,0.29,0.06,0.39,-9.7,-10.3,-10.5,-11.9,87.1,69.9,81.2,73.3,96.9,72.2,86.6,76.4,92.6,69.2,84.5,73.9,89.5,67.6,83.7,72.9,-0.10,0.11,0.12,0.10,0.00,124.92,128.77,115.06,112.46,19.5,25.8,1.7942407865166816,159.5250579186309,45.372815601492,-61.21729088638517,-18.005084969059695
2.000,96.4,44.053796861641743,-78.681711801084390,-14.9,18.3,148.0,179.0,3389.8,3390,159.4,0,1,1,0,1,1,0,0,0,100,1,1.186,26.0,0.0,-0.102,51.476,66.0,100.0,26.0,26.0,26.0,26.0,0.11,-1.91,-0.01,384.5,-3.00,-3.29,-1.83,-0.69,-712.31,598.10,5.8,0.00,0.00,0.00,0.00,0.06,-7.49,-7.49,-0.92,-0.44,-0.29,-5.21,44.22,0.15,-0.86,-0.83,100.0,0,0,116.29,0,0,0.0,0,0,0,0,6203,0,30.00,4,159.4,1,0,0.0,0.0,0.0,0.0,0,0,2.016,2.016,51.476,18.985,1,110.00,435.8,8750,0.0,0.0,110.0,110.0,433.0,0.00,0,0,1,166.7,60.2,60.2,84.0,84.0,34.0,0.17,6.35,-1.22,2.0,2,-136.990,-1.4,100.0,26.7,29.9,21.1,24.1,0,1,0.0,0.00,0.00,0.00,0.00,4621,5839,2785,1807,312.9,308.4,348.2,349.8,25.78,23.02,25.83,24.58,325.0,325.0,355.0,355.0,99.88,99.71,99.83,99.76,0.26,0.33,0.14,0.36,-11.1,-7.9,-6.3,-6.7,87.1,69.9,81.2,73.3,97.0,72.3,86.6,76.4,92.6,69.3,84.5,74.0,89.5,67.8,83.7,72.9,-0.08,0.09,0.10,0.09,0.00,119.94,124.88,116.79,115.78,19.5,25.8,1.9131910516203028,156.2841425103954,44.29251044644605,-111.6315305068241,-32.40915408235473
2.050,98.6,44.053777616159380,-78.681706315222598,-2.3,-42.7,24.1,-15.4,3392.0,3392,156.2,0,1,1,0,1,1,0,0,0,100,1,1.186,26.0,0.0,-0.102,51.476,66.0,100.0,26.0,26.0,26.0,26.0,0.13,-1.94,-0.03,383.5,-2.35,-2.70,-1.70,-1.27,-711.70,595.96,5.8,0.00,0.00,0.00,0.00,0.06,-7.49,-7.49,-1.00,-2.76,-0.47,-2.79,43.32,0.15,-0.86,-1.08,100.0,0,0,116.24,0,0,0.0,0,0,0,0,6200,0,30.00,4,156.2,0,0,0.0,0.0,0.0,0.0,0,0,2.067,2.067,51.476,18.985,0,110.00,435.8,8750,0.0,0.0,110.0,110.0,433.0,0.00,0,0,1,166.7,59.3,59.3,86.0,86.0,34.0,0.36,5.30,-1.76,10.0,2,-137.040,-1.2,100.0,26.6,27.7,22.4,23.4,0,1,0.0,0.00,0.00,0.00,0.00,6603,6168,2826,2804,309.3,308.4,348.3,347.8,25.78,23.02,25.83,24.57,325.0,325.0,355.0,355.0,99.88,99.71,99.83,99.76,0.15,0.32,0.14,0.37,-11.9,-8.1,-4.9,-4.2,87.1,69.9,81.2,73.3,97.1,72.5,86.6,76.4,92.7,69.4,84.5,74.0,89.6,67.9,83.7,72.9,-0.06,0.07,0.10,0.09,0.00,117.63,122.29,116.07,116.41,19.5,25.8,1.9445822173412983,148.36190486794848,42.13190019325653,-154.84373557061502,-39.61118806997874
2.100,100.7,44.053759809591583,-78.681701279021595,171.9,100.1,-62.1,-48.6,3394.1,3394,152.9,0,1,1,0,1,1,0,0,0,100,1,1.186,26.0,0.0,-0.102,51.476,66.0,100.0,26.0,26.0,26.0,26.0,0.07,-1.80,0.11,381.2,-2.40,-2.50,-1.91,-1.04,-711.14,593.98,5.8,0.00,0.00,0.00,0.00,0.06,-7.49,-7.49,-1.03,3.65,-0.45,2.22,42.39,0.16,-0.95,-2.05,100.0,0,0,112.36,0,0,0.0,0,0,0,0,5993,0,30.00,4,152.9,1,0,0.0,0.0,0.0,0.0,0,0,2.114,2.114,51.476,18.985,1,110.00,435.8,8750,0.0,0.0,110.0,110.0,433.0,0.00,0,0,1,166.7,50.3,50.3,91.0,91.0,34.0,-10.37,24.74,-1.91,3.0,2,-137.090,-1.2,100.0,35.2,32.7,19.2,20.9,0,1,0.0,0.00,0.00,0.00,0.00,7230,7212,2608,2182,307.0,306.4,348.9,350.0,25.78,23.03,25.83,24.57,325.0,325.0,355.0,355.0,99.88,99.71,99.83,99.76,0.11,0.30,0.12,0.37,-4.0,-5.2,-5.5,-6.3,87.1,69.9,81.2,73.3,97.2,72.6,86.5,76.4,92.8,69.5,84.5,74.0,89.7,68.0,83.6,72.9,-0.03,0.07,0.11,0.09,0.00,125.13,123.99,112.87,111.85,19.5,25.8,1.804716044146558,140.7997689533339,40.33139163944818,-61.2172906018742,-10.803051550459557
2.150,102.8,44.053742452684588,-78.681696242820607,-112.9,44.7,143.8,91.2,3396.2,3396,149.6,0,1,1,0,1,1,0,0,0,100,1,1.186,26.0,0.0,-0.102,51.476,66.0,100.0,26.0,26.0,26.0,26.0,0.16,-1.76,0.17,379.6,-3.35,-2.40,-1.01,-0.01,-710.58,592.05,5.9,0.00,0.00,0.00,0.00,0.06,-7.49,-7.49,-0.72,5.41,-0.31,1.46,41.49,0.16,-0.81,-1.44,100.0,0,0,113.58,0,0,0.0,0,0,0,0,6059,0,30.00,4,149.6,0,0,0.0,0.0,0.0,0.0,0,0,2.163,2.163,51.476,18.985,0,110.00,435.8,8750,0.0,0.0,110.0,110.0,433.0,0.00,0,0,1,166.7,57.9,57.9,73.6,73.6,34.0,0.06,18.30,-1.28,14.3,2,-137.140,-0.7,100.0,29.6,35.0,26.4,25.5,0,1,0.0,0.00,0.00,0.00,0.00,4057,5914,3447,4201,315.1,308.5,345.5,344.5,25.79,23.03,25.83,24.57,325.0,325.0,355.0,355.0,99.88,99.71,99.83,99.76,0.19,0.26,0.12,0.36,-9.9,-5.2,-2.8,-2.9,87.2,69.9,81.2,73.3,97.2,72.7,86.5,76.4,92.8,69.6,84.5,74.0,89.7,68.0,83.6,72.9,-0.05,0.05,0.09,0.08,0.00,113.83,120.69,113.40,113.77,19.5,25.8,1.7754154443397185,142.24017580776106,41.05159503821057,28.808136804030653,10.803050981435973
2.200,104.9,44.053724286388146,-78.681691026755288,-200.5,-250.8,44.4,86.4,3398.3,3398,146.9,0,1,1,0,1,1,0,0,0,100,1,1.186,26.0,0.0,-0.102,51.476,66.0,100.0,26.0,26.0,26.0,26.0,0.04,-1.52,-0.23,385.8,-2.16,-2.69,-0.72,-1.03,-710.00,590.03,5.9,0.00,0.00,0.00,0.00,0.06,-7.49,-7.49,-0.66,-3.38,-0.47,-4.37,40.76,0.11,-0.72,0.38,100.0,0,0,110.76,0,0,0.0,0,0,0,0,5908,0,30.00,4,146.9,1,0,0.0,0.0,0.0,0.0,0,0,2.214,2.214,51.476,18.985,1,110.00,435.8,8750,0.0,0.0,110.0,110.0,433.0,0.00,0,0,1,333.3,70.5,70.5,80.7,80.7,34.0,-9.59,-0.68,-0.10,9.8,2,-137.190,1.8,100.0,19.6,22.4,28.7,29.8,0,1,0.0,0.00,0.00,0.00,0.00,5908,3656,2881,3009,311.0,315.2,347.3,348.3,25.79,23.03,25.83,24.58,325.0,325.0,355.0,355.0,99.88,99.71,99.83,99.76,0.04,0.14,0.11,0.28,-4.1,-11.5,-2.7,-3.4,87.2,69.9,81.2,73.3,97.2,72.7,86.5,76.4,92.9,69.7,84.4,74.0,89.7,68.1,83.6,72.9,0.08,-0.09,0.08,0.07,0.00,120.41,109.04,110.93,110.59,19.5,25.8,1.5378231367748374,143.68058263373698,41.411696737591775,-54.01525689876223,-14.404068544271311
2.250,106.9,44.053706569752514,-78.681685900622142,157.8,28.2,-195.0,-138.0,3400.3,3400,144.1,0,1,1,0,1,1,0,0,0,100,1,1.186,26.0,0.0,-0.102,51.476,66.0,100.0,26.0,26.0,26.0,26.0,0.04,-1.79,-0.08,386.9,-2.86,-2.51,-0.57,-2.09,-709.43,588.06,5.9,0.00,0.00,0.00,0.00,0.06,-7.49,-7.49,-0.86,-2.40,-0.64,-2.61,39.96,0.06,-0.79,0.65,100.0,0,0,104.32,0,0,0.0,0,0,0,0,5565,0,30.00,4,144.1,0,0,0.0,0.0,0.0,0.0,0,0,2.264,2.264,51.476,18.985,0,110.00,435.8,8750,0.0,0.0,110.0,110.0,433.0,0.00,0,0,1,333.3,58.9,58.9,97.9,97.9,34.0,-5.15,1.92,-0.04,1.2,2,-137.240,1.0,100.0,27.4,23.8,18.9,22.9,0,1,0.0,0.00,0.00,0.00,0.00,7701,6131,803,863,305.9,308.6,353.1,352.3,25.79,23.03,25.83,24.57,325.0,325.0,355.0,355.0,99.88,99.71,99.83,99.76,-0.07,0.17,0.04,0.15,-7.9,-8.9,-7.6,-5.7,87.2,69.9,81.2,73.3,97.3,72.9,86.4,76.4,92.9,69.8,84.4,73.9,89.8,68.2,83.5,72.9,0.08,-0.07,0.10,0.10,0.00,114.36,111.88,103.48,105.17,19.5,25.8,1.7922332437492616,136.83865011788484,39.61118818378344,-97.22746167804019,-25.207119525707355
2.300,108.8,44.053690112167125,-78.681681134217627,101.0,89.1,21.5,-123.3,3402.2,3402,141.1,1,1,1,0,1,1,0,0,0,100,1,1.186,26.0,0.0,-0.105,51.476,66.0,100.0,26.0,26.0,26.0,26.0,-0.01,-1.55,-0.23,387.4,-3.19,-4.10,-1.21,-1.28,-708.90,586.23,5.9,0.00,0.00,0.00,0.00,0.07,-7.49,-7.49,-0.76,3.60,-0.49,7.36,39.13,0.08,-0.72,-0.30,100.0,0,0,101.43,0,0,0.0,0,0,0,0,5410,0,30.00,4,141.1,1,0,0.0,0.0,0.0,0.0,0,0,2.313,2.313,51.476,18.985,1,110.00,435.8,8750,0.0,0.0,110.0,110.0,433.0,0.00,0,0,1,333.3,62.0,62.0,95.4,95.4,34.0,-5.56,-0.43,-1.19,-0.1,2,-137.290,-0.1,100.0,32.5,28.3,20.0,16.8,0,1,0.0,0.00,0.00,0.00,0.00,5401,2679,1766,3485,312.4,317.4,350.6,346.4,25.79,23.03,25.83,24.57,325.0,325.0,355.0,355.0,99.88,99.71,99.83,99.76,-0.04,0.03,-0.05,0.19,-7.0,-14.2,-6.1,-9.9,87.2,69.9,81.2,73.3,97.3,73.0,86.4,76.4,93.0,69.9,84.3,73.9,89.8,68.3,83.5,72.9,0.02,-0.00,0.10,0.09,0.00,111.22,100.90,102.71,100.15,19.5,25.8,1.5670035098875819,133.95783646593296,38.89098478502104,-21.606102531895033,-3.6010169938120384
2.350,110.7,44.053673114988769,-78.681676187948796,-129.1,15.4,154.6,289.3,3404.1,3404,137.7,0,1,1,0,1,1,0,0,0,100,1,1.186,26.0,0.0,-0.105,51.476,66.0,100.0,26.0,26.0,26.0,26.0,0.08,-1.73,0.23,380.9,-2.93,-2.15,-2.45,-2.51,-708.35,584.34,5.9,0.00,0.00,0.00,0.00,0.07,-7.49,-7.49,-0.77,-3.57,-0.12,2.75,38.18,0.07,-0.77,0.36,100.0,0,0,104.19,0,0,0.0,0,0,0,0,5558,0,30.00,4,137.7,0,0,0.0,0.0,0.0,0.0,1,0,2.364,2.364,51.476,18.985,0,110.00,435.8,8750,0.0,0.0,110.0,110.0,433.0,0.00,0,0,1,333.3,62.0,62.0,75.6,75.6,34.0,-1.81,9.07,-13.28,18.3,2,-137.340,-2.3,100.0,26.0,29.1,27.7,31.2,0,1,0.0,0.00,0.00,0.00,0.00,3844,6272,3210,3462,315.2,307.9,347.1,345.9,25.79,23.03,25.83,24.57,325.0,325.0,355.0,355.0,99.88,99.71,99.83,99.76,0.16,0.27,-0.06,0.15,-6.8,-7.0,-2.7,-2.6,87.2,69.9,81.2,73.3,97.4,73.1,86.4,76.4,93.0,70.0,84.3,74.0,89.9,68.4,83.5,72.9,-0.10,0.12,0.09,0.07,0.00,108.02,109.22,104.19,104.19,19.5,25.8,1.7470546642850076,134.67803986469534,39.25108648440224,-61.21729117089785,-18.00508553808335
2.400,112.6,44.053656477539064,-78.681671331612122,-70.1,66.4,-123.9,-261.2,3406.0,3406,134.8,1,1,1,0,1,1,0,0,0,100,1,1.186,26.0,0.0,-0.105,51.476,66.0,100.0,26.0,26.0,26.0,26.0,0.10,-1.86,-0.05,385.7,-2.91,-1.59,-1.81,-0.58,-707.81,582.49,5.9,0.00,0.00,0.00,0.00,0.07,-7.49,-7.49,-0.88,-1.05,-0.36,-8.91,37.39,-0.01,-0.78,1.12,100.0,0,0,98.94,0,0,0.0,0,0,0,0,5278,0,30.00,4,134.8,1,0,0.0,0.0,0.0,0.0,1,0,2.414,2.414,51.476,18.985,1,110.00,435.8,8750,0.0,0.0,110.0,110.0,433.0,0.00,0,0,1,333.3,60.9,60.9,79.1,79.1,34.0,0.32,15.23,-3.30,2.5,2,-137.400,-1.8,100.0,22.5,32.4,21.5,18.2,0,1,0.0,0.00,0.00,0.00,0.00,4143,7327,2423,3173,314.8,305.6,349.3,346.9,25.80,23.03,25.83,24.57,325.0,325.0,355.0,355.0,99.88,99.71,99.83,99.76,0.15,0.31,-0.07,0.19,-12.2,-6.1,-5.6,-6.6,87.2,69.9,81.2,73.3,97.4,73.2,86.3,76.4,93.0,70.1,84.3,73.9,89.9,68.5,83.5,72.9,-0.11,0.12,0.10,0.09,0.00,99.92,108.49,99.00,98.89,19.5,25.8,1.863357185297548,127.83610734884317,37.090476231212705,-97.2274616780409,-28.808137088542765
2.450,114.4,44.053641189071762,-78.681666924936252,82.3,-18.4,-22.3,31.8,3407.8,3408,131.8,0,1,1,0,1,1,0,0,0,100,1,1.186,26.0,0.0,-0.105,51.476,66.0,100.0,26.0,26.0,26.0,26.0,0.06,-1.69,0.00,385.5,-2.92,-1.94,-1.31,-1.41,-707.32,580.79,5.9,0.00,0.00,0.00,0.00,0.07,-7.49,-7.49,-0.90,0.43,-1.00,-14.45,36.55,-0.07,-0.81,0.07,100.0,0,0,97.44,0,0,0.0,0,0,0,0,5197,0,30.00,4,131.8,0,0,0.0,0.0,0.0,0.0,1,0,2.463,2.463,51.476,18.985,0,110.00,435.8,8750,0.0,0.0,110.0,110.0,433.0,0.00,0,0,1,333.3,58.9,58.9,89.8,89.8,34.0,0.44,3.46,-1.77,3.8,2,-137.440,-1.9,100.0,26.7,31.5,20.4,19.7,0,1,0.0,0.00,0.00,0.00,0.00,7329,5064,2099,1645,308.1,312.0,350.0,349.7,25.80,23.03,25.83,24.57,325.0,325.0,355.0,355.0,99.88,99.71,99.83,99.76,-0.02,0.21,-0.06,0.17,-10.1,-7.8,-5.9,-4.2,87.2,69.9,81.2,73.3,97.5,73.2,86.3,76.4,93.1,70.1,84.3,73.9,89.9,68.5,83.4,72.9,-0.09,0.10,0.10,0.09,0.00,101.87,102.60,96.96,97.92,19.5,25.8,1.6910647533432892,124.95529369689125,36.37027277554796,14.404068544271809,7.202033987623864
2.500,116.2,44.053625271079333,-78.681662248463908,165.7,-69.9,13.8,5.5,3409.6,3410,128.5,0,1,1,0,1,1,0,0,0,100,1,1.186,26.0,0.0,-0.108,51.476,66.0,100.0,26.0,26.0,26.0,26.0,-0.01,-1.82,0.20,383.0,-2.42,-2.66,-1.54,-1.16,-706.80,579.02,5.9,0.00,0.00,0.00,0.00,0.07,-7.49,-7.49,-0.78,3.22,-1.24,2.18,35.65,0.00,-0.77,-1.96,100.0,0,0,95.06,0,0,0.0,0,0,0,0,5071,0,30.00,4,128.5,1,0,0.0,0.0,0.0,0.0,1,0,2.514,2.514,51.476,18.985,1,110.00,435.8,8750,0.0,0.0,110.0,110.0,433.0,0.00,0,0,1,166.7,55.2,55.2,93.8,93.8,34.0,-15.98,-1.08,-5.05,2.5,2,-137.490,-5.0,100.0,34.9,28.0,21.1,20.0,0,1,0.0,0.00,0.00,0.00,0.00,7324,5093,2620,2340,306.8,311.3,348.5,348.7,25.80,23.03,25.83,24.57,325.0,325.0,355.0,355.0,99.88,99.71,99.83,99.76,0.03,0.22,-0.07,0.20,-3.9,-11.0,-4.2,-6.4,87.3,69.9,81.2,73.3,97.5,73.3,86.3,76.4,93.1,70.2,84.2,73.9,90.0,68.6,83.4,72.9,-0.23,0.26,0.10,0.09,0.00,105.40,96.99,95.91,94.22,19.5,25.8,1.8309833423600557,129.27651420327035,37.81067962997509,-61.21729117089771,-14.40406797524794
2.550,118.0,44.053608903426110,-78.681657482059393,-146.9,6.9,89.6,10.8,3411.4,3411,125.2,0,1,1,0,1,1,0,0,0,100,1,1.186,26.0,0.0,-0.108,51.476,66.0,100.0,26.0,26.0,26.0,26.0,0.09,-1.71,0.07,384.9,-2.63,-3.02,-0.99,-1.27,-706.27,577.20,6.0,0.00,0.00,0.00,0.00,0.07,-7.49,-7.49,-0.59,2.12,-0.93,8.16,34.73,0.05,-0.67,-3.07,100.0,0,0,94.37,0,0,0.0,0,0,0,0,5034,0,30.00,4,125.2,0,0,0.0,0.0,0.0,0.0,1,0,2.569,2.569,51.476,18.985,0,110.00,435.8,8750,0.0,0.0,110.0,110.0,433.0,0.00,0,0,1,166.7,63.3,63.3,79.9,79.9,34.0,-0.17,-1.78,-4.75,9.4,2,-137.550,-10.8,100.0,27.6,28.3,25.6,20.6,0,1,0.0,0.00,0.00,0.00,0.00,3654,4982,2775,3465,315.5,310.9,347.5,346.4,25.80,23.03,25.84,24.57,325.0,325.0,355.0,355.0,99.88,99.71,99.83,99.76,0.43,0.45,-0.03,0.24,-11.4,-12.0,-2.6,-4.4,87.3,70.0,81.2,73.3,97.5,73.5,86.3,76.3,93.2,70.3,84.2,73.9,90.0,68.7,83.4,72.9,-0.57,0.57,0.09,0.08,0.00,93.14,93.31,94.31,94.43,19.5,25.8,1.7137969541342988,118.83356457980148,34.929865978023166,-165.64678683656268,-43.212205063790634
2.600,119.7,44.053595593466341,-78.681653525044325,-179.1,-43.3,-25.2,103.2,3413.1,3413,122.9,1,1,1,0,1,1,0,0,0,100,1,1.186,26.0,0.0,-0.108,51.476,66.0,100.0,26.0,26.0,26.0,26.0,0.16,-1.36,-0.08,387.7,-1.75,-1.97,-1.89,-0.92,-705.83,575.72,6.0,0.00,0.00,0.00,0.00,0.07,-7.49,-7.49,-0.63,-3.65,-0.78,-1.89,34.08,0.05,-0.64,-1.70,100.0,0,0,92.59,0,0,0.0,0,0,0,0,4939,0,30.00,4,122.9,1,0,0.0,0.0,0.0,0.0,1,0,2.613,2.613,51.476,18.985,1,110.00,435.8,8750,0.0,0.0,110.0,110.0,433.0,0.00,0,0,1,333.3,70.7,70.7,82.0,82.0,34.0,-0.77,-1.67,-3.03,16.5,2,-137.590,-15.5,100.0,18.6,26.1,24.3,25.7,0,1,0.0,0.00,0.00,0.00,0.00,3996,4204,2021,3851,315.7,314.2,349.8,344.8,25.81,23.03,25.84,24.57,325.0,325.0,355.0,355.0,99.88,99.71,99.83,99.76,0.80,0.91,0.07,0.27,-13.5,-13.9,-3.7,-2.5,87.3,70.0,81.2,73.3,97.6,73.5,86.2,76.3,93.2,70.4,84.2,73.9,90.0,68.8,83.3,72.9,-0.86,0.85,0.10,0.07,0.00,89.27,88.78,91.73,93.46,19.5,25.8,1.3717142559585798,112.71183551961408,33.48945912359603,-14.404068259759697,-5.690236548616667e-07
2.650,121.3,44.053580754659841,-78.681649118368455,126.9,-13.6,-149.8,-63.7,3414.7,3415,120.1,0,1,1,0,1,1,0,0,0,100,1,1.186,26.0,0.0,-0.108,51.476,66.0,100.0,26.0,26.0,26.0,26.0,0.31,-1.58,-0.11,387.8,-2.83,-2.63,-1.37,-0.53,-705.34,574.07,6.0,0.00,0.00,0.00,0.00,0.07,-7.49,-7.49,-0.82,-2.40,-0.89,-1.55,33.30,0.02,-0.70,-4.11,100.0,0,0,86.59,0,0,0.0,0,0,0,0,4619,0,30.00,4,120.1,0,0,0.0,0.0,0.0,0.0,1,0,2.664,2.664,51.476,18.985,0,110.00,435.8,8750,0.0,0.0,110.0,110.0,433.0,0.00,0,0,1,333.3,60.6,60.6,96.6,96.6,34.0,21.53,9.41,0.00,4.0,2,-137.640,-21.0,100.0,25.0,25.5,16.8,22.5,0,1,0.0,0.00,0.00,0.00,0.00,6562,6571,416,2084,308.8,307.8,353.9,349.9,25.81,23.03,25.84,24.57,325.0,325.0,355.0,355.0,99.88,99.72,99.83,99.76,0.95,1.15,0.16,0.31,-4.9,-8.2,-9.2,-4.7,87.3,70.0,81.2,73.3,97.6,73.7,86.2,76.3,93.2,70.5,84.1,73.9,90.0,68.9,83.3,72.8,-1.17,1.17,0.11,0.08,0.00,97.11,93.98,83.81,89.38,19.5,25.8,1.613877318757532,117.3931577538255,34.9298659211208,-18.005085822595248,0.0
2.700,123.0,44.053566275581986,-78.681644801624756,22.9,34.8,7.5,-81.5,3416.4,3416,117.2,0,1,1,0,1,1,0,0,0,100,1,1.186,26.0,0.0,-0.108,51.476,66.0,100.0,26.0,26.0,26.0,26.0,0.33,-1.65,-0.03,389.0,-3.07,-3.69,-0.55,-1.44,-704.86,572.46,6.0,0.00,0.00,0.00,0.00,0.07,-7.49,-7.49,-0.80,0.74,-0.97,0.63,32.50,0.05,-0.63,-7.62,100.0,0,0,84.83,0,0,0.0,0,0,0,0,4525,0,30.00,4,117.2,1,0,0.0,0.0,0.0,0.0,1,0,2.714,2.714,51.476,18.985,1,110.00,435.8,8750,0.0,0.0,110.0,110.0,433.0,0.00,0,0,1,333.3,63.4,63.4,90.2,90.2,34.0,6.56,4.51,0.72,0.6,2,-137.690,-27.5,100.0,26.1,27.2,17.2,18.5,0,1,0.0,0.00,0.00,0.00,0.00,4290,5171,1904,1465,314.2,310.5,349.7,350.7,25.81,23.03,25.84,24.57,325.0,325.0,355.0,355.0,99.88,99.72,99.83,99.76,1.24,1.29,0.18,0.49,-7.2,-8.6,-5.5,-8.6,87.3,70.0,81.2,73.3,97.6,73.8,86.2,76.3,93.2,70.6,84.1,73.9,90.1,69.0,83.3,72.8,-1.52,1.51,0.11,0.11,0.00,91.08,90.66,86.07,83.59,19.5,25.8,1.6829438493306899,110.91132693735456,33.48945912359603,-93.62644496874054,-14.404067975247727
2.750,124.5,44.053553055554382,-78.681640754677517,-63.5,-35.1,99.9,103.0,3418.0,3418,114.6,1,1,1,0,1,1,0,0,0,100,1,1.186,26.0,0.0,-0.111,51.476,66.0,100.0,26.0,26.0,26.0,26.0,0.32,-1.25,0.02,387.6,-2.85,-2.24,-1.69,-1.26,-704.41,570.99,6.0,0.00,0.00,0.00,0.00,0.07,-7.49,-7.49,-0.84,-3.57,-0.86,3.41,31.79,0.12,-0.60,-8.62,100.0,0,0,86.36,0,0,0.0,0,0,0,0,5330,0,30.00,0,114.6,0,0,0.0,0.0,0.0,0.0,1,0,2.763,2.763,51.476,18.985,0,110.00,435.8,8750,0.0,0.0,110.0,110.0,433.0,0.00,0,0,1,333.3,68.8,68.8,84.0,84.0,34.0,-1.39,-3.90,2.86,29.4,2,-137.740,-35.8,100.0,23.0,25.4,22.2,23.6,0,1,50.0,0.00,0.00,0.00,0.00,3148,4532,2252,3163,317.2,313.1,348.7,346.1,25.81,23.03,25.84,24.57,325.0,325.0,355.0,355.0,99.88,99.72,99.83,99.76,1.75,1.79,0.40,0.69,-12.7,-11.7,-2.3,-1.9,87.3,70.0,81.2,73.3,97.7,73.8,86.1,76.3,93.3,70.7,84.1,73.9,90.1,69.1,83.3,72.8,-2.02,1.98,0.10,0.09,0.00,83.00,90.02,85.76,86.96,19.5,25.8,1.2904650324592295,108.03051325695145,33.48945912359603,10.803051550459344,21.606102531895317
