Time,Distance,GPS Latitude,GPS Longitude,Damper Velocity (Calc) FL,Damper Velocity (Calc) FR,Damper Velocity (Calc) RL,Damper Velocity (Calc) RR,Corr Dist,Corr Dist (Unstretched),Corr Speed,ABS Active,ABS Enabled,AID Allow Tire Blankets,AID Auto Blip,AID Auto Clutch,AID Auto Shift,AID Fuel Rate,AID Ideal Line,AID Mech Damage,AID Stability,AID Tire Wear Rate,Air Density,Air Temp,Ballast,Best Lap Delta,Best Lap Time,Brake Bias,Brake Pos,Brake Temp FL,Brake Temp FR,Brake Temp RL,Brake Temp RR,CG Accel Lateral,CG Accel Longitudinal,CG Accel Vertical,CG Height,Camber FL,Camber FR,Camber RL,Camber RR,Car Coord X,Car Coord Y,Car Coord Z,Car Damage Front,Car Damage Left,Car Damage Rear,Car Damage Right,Car Pos Norm,Caster FL,Caster FR,Chassis Pitch Angle,Chassis Pitch Rate,Chassis Roll Angle,Chassis Roll Rate,Chassis Velocity X,Chassis Velocity Y,Chassis Velocity Z,Chassis Yaw Rate,Clutch Pos,DRS Active,DRS Available,Drive Train Speed,ERS Heat Charging,ERS Is Charging,ERS Max Energy,ERS Power Level,ERS Recovery Level,Engine Brake Setting,Engine Limiter,Engine RPM,Flags,Fuel Level,Gear,Ground Speed,HR Sample Clock,In Pit,KERS Charge,KERS Deployed Energy,KERS Input,KERS Max Energy,LR Sample Clock,Lap Invalidated,Lap Time,Lap Time2,Last Lap Time,Last Sector Time,MR Sample Clock,Max Fuel,Max Power,Max RPM,Max Sus Travel FL,Max Sus Travel FR,Max Sus Travel RL,Max Sus Travel RR,Max Torque,Max Turbo Boost,Num Tires Off Track,Penalties Enabled,Position,Raw Data Sample Rate,Ride Height FL,Ride Height FR,Ride Height RL,Ride Height RR,Road Temp,Self Align Torque FL,Self Align Torque FR,Self Align Torque RL,Self Align Torque RR,Session Lap Count,Session Time Left,Steering Angle,Surface Grip,Suspension Travel FL,Suspension Travel FR,Suspension Travel RL,Suspension Travel RR,TC Active,TC Enabled,Throttle Pos,Tire Dirt Level FL,Tire Dirt Level FR,Tire Dirt Level RL,Tire Dirt Level RR,Tire Load FL,Tire Load FR,Tire Load RL,Tire Load RR,Tire Loaded Radius FL,Tire Loaded Radius FR,Tire Loaded Radius RL,Tire Loaded Radius RR,Tire Pressure FL,Tire Pressure FR,Tire Pressure RL,Tire Pressure RR,Tire Radius FL,Tire Radius FR,Tire Radius RL,Tire Radius RR,Tire Rubber Grip FL,Tire Rubber Grip FR,Tire Rubber Grip RL,Tire Rubber Grip RR,Tire Slip Angle FL,Tire Slip Angle FR,Tire Slip Angle RL,Tire Slip Angle RR,Tire Slip Ratio FL,Tire Slip Ratio FR,Tire Slip Ratio RL,Tire Slip Ratio RR,Tire Temp Core FL,Tire Temp Core FR,Tire Temp Core RL,Tire Temp Core RR,Tire Temp Inner FL,Tire Temp Inner FR,Tire Temp Inner RL,Tire Temp Inner RR,Tire Temp Middle FL,Tire Temp Middle FR,Tire Temp Middle RL,Tire Temp Middle RR,Tire Temp Outer FL,Tire Temp Outer FR,Tire Temp Outer RL,Tire Temp Outer RR,Toe In FL,Toe In FR,Toe In RL,Toe In RR,Turbo Boost,Wheel Angular Speed FL,Wheel Angular Speed FR,Wheel Angular Speed RL,Wheel Angular Speed RR,Wind Direction,Wind Speed,CG Distance,Lateral Velocity,Longitudinal Velocity,Lateral Acceleration,Longitudinal Acceleration
s,m,deg,deg,mm/s,mm/s,mm/s,mm/s,m,m,km/h,,,,,,,,,%,%,,kg/m3,C,kg,s,s,%,%,C,C,C,C,G,G,G,mm,deg,deg,deg,deg,m,m,m,,,,,,deg,deg,deg,deg/s,deg,deg/s,m/s,m/s,m/s,deg/s,%,,,rad/s,,,MJ,,,,,rpm,,l,,km/h,,,%,kJ,%,MJ,,,s,s,s,s,,l,hp,rpm,mm,mm,mm,mm,N.m,,,,,Hz,mm,mm,mm,mm,C,N.m,N.m,N.m,N.m,,s,deg,%,mm,mm,mm,mm,,,%,,,,,N,N,N,N,mm,mm,mm,mm,psi,psi,psi,psi,mm,mm,mm,mm,%,%,%,%,deg,deg,deg,deg,%,%,%,%,C,C,C,C,C,C,C,C,C,C,C,C,C,C,C,C,deg,deg,deg,deg,,rad/s,rad/s,rad/s,rad/s,deg,km/h,G,Km/h,Km/h,Km/h^2,Km/h^2
0.000,0.0,44.054629183788023,-78.681934832842657,-21.8,-30.1,198.6,96.6,6815.0,6815,158.4,0,1,1,0,1,1,0,0,0,100,1,1.186,26.0,0.0,0.000,57.136,66.0,0.0,26.0,26.0,26.0,26.0,-0.42,0.39,0.34,374.6,-2.44,-2.79,-1.43,-2.38,-737.11,690.65,5.7,0.00,0.00,0.00,0.00,0.00,-7.49,-7.49,-0.33,1.62,-0.29,1.83,44.00,-0.21,-0.33,4.01,100.0,0,0,125.68,0,0,0.0,0,0,0,0,8425,0,30.00,3,158.4,0,0,0.0,0.0,0.0,0.0,1,0,0.030,0.030,57.136,20.534,0,110.00,435.8,8750,0.0,0.0,110.0,110.0,433.0,0.00,0,0,1,166.7,68.7,68.7,60.9,60.9,34.0,-58.75,-3.17,-60.5,1.9,4,-297.260,4.5,100.0,25.0,19.3,44.7,36.3,0,1,100.0,0.00,0.00,0.00,0.00,5672,3215,6373,5546,309.6,315.4,338.7,340.2,24.07,21.94,25.47,24.17,325.0,325.0,355.0,355.0,100.00,99.91,100.00,100.00,-0.47,-0.40,-0.50,-0.34,-0.1,-0.1,1.5,1.8,76.4,63.1,79.0,70.8,81.0,63.4,83.1,73.1,77.5,60.7,81.2,70.7,75.4,59.6,80.4,69.7,0.27,-0.26,0.04,0.06,0.00,135.13,134.84,125.68,125.68,152.3,2.9,0.6664082832618454
0.050,2.2,44.054611017491581,-78.681929346980866,-14.1,-4.0,-47.1,-0.4,6817.2,6817,159.0,0,1,1,0,1,1,0,0,0,100,1,1.186,26.0,0.0,-0.003,57.136,66.0,0.0,26.0,26.0,26.0,26.0,-0.34,0.44,-0.01,378.3,-2.75,-2.84,-1.55,-2.86,-736.50,688.63,5.7,0.00,0.00,0.00,0.00,0.00,-7.49,-7.49,-0.24,1.57,-0.18,3.57,44.18,-0.21,-0.30,4.07,100.0,0,0,126.50,0,0,0.0,0,0,0,0,8480,0,30.00,3,159.0,1,0,0.0,0.0,0.0,0.0,1,0,0.078,0.078,57.136,20.534,1,110.00,435.8,8750,0.0,0.0,110.0,110.0,433.0,0.00,0,0,1,333.3,73.6,73.6,62.2,62.2,34.0,-30.89,-2.68,-53.9,5.6,4,-297.310,4.5,100.0,24.3,19.1,42.3,36.3,0,1,100.0,0.00,0.00,0.00,0.00,3425,2528,5982,5151,315.8,318.1,339.6,341.7,24.07,21.94,25.47,24.18,325.0,325.0,355.0,355.0,100.00,99.91,100.00,100.00,-0.42,-0.43,-0.48,-0.35,-0.1,-0.1,1.8,2.1,76.4,63.1,79.0,70.8,80.9,63.4,83.1,73.1,77.5,60.7,81.2,70.7,75.3,59.6,80.4,69.7,0.26,-0.28,0.05,0.05,0.00,135.66,135.30,126.50,126.50,152.3,2.9,0.5561474624593733,150.88261684897032,45.37281554458964
0.100,4.4,44.054591502212737,-78.681923501390429,-130.7,-38.8,5.8,61.0,6819.4,6819,159.7,0,1,1,0,1,1,0,0,0,100,1,1.186,26.0,0.0,0.000,57.136,66.0,0.0,26.0,26.0,26.0,26.0,-0.20,-0.01,-0.15,381.8,-2.37,-3.00,-1.23,-2.68,-735.85,686.46,5.7,0.00,0.00,0.00,0.00,0.00,-7.49,-7.49,-0.30,-4.11,-0.13,-1.27,44.34,-0.19,-0.33,2.66,100.0,0,0,123.72,0,0,0.0,0,0,0,0,8409,0,30.00,0,159.7,0,0,0.0,0.0,0.0,0.0,1,0,0.128,0.128,57.136,20.534,0,110.00,435.8,8750,0.0,0.0,110.0,110.0,433.0,0.00,0,0,1,333.3,80.8,80.8,58.2,58.2,34.0,-9.42,-2.36,-50.1,7.2,4,-297.360,4.8,100.0,17.8,17.2,42.6,39.3,0,1,0.0,0.00,0.00,0.00,0.00,1443,2646,5797,3814,321.1,317.7,340.4,344.4,24.07,21.94,25.48,24.18,325.0,325.0,355.0,355.0,100.00,99.91,100.00,100.00,-0.38,-0.43,-0.39,-0.28,0.0,-0.0,-0.3,-0.3,76.4,63.1,79.0,70.9,80.9,63.4,83.1,73.1,77.4,60.7,81.2,70.7,75.3,59.5,80.4,69.7,0.28,-0.30,0.06,0.05,0.00,135.90,135.77,123.77,123.68,152.3,2.9,0.2501999200639361,151.60282027618393,45.01271384520845,3.60101727832415,-7.202033987623935
0.150,6.6,44.054573156051973,-78.681918105460795,53.3,10.5,-66.3,-125.3,6821.6,6822,159.4,0,1,1,0,1,1,0,0,0,100,1,1.186,26.0,0.0,0.000,57.136,66.0,0.0,26.0,26.0,26.0,26.0,-0.28,-0.11,-0.31,384.4,-0.82,-3.36,-1.62,-1.93,-735.25,684.42,5.7,0.00,0.00,0.00,0.00,0.01,-7.49,-7.49,-0.56,-5.45,-0.27,-1.43,44.28,-0.17,-0.45,3.00,100.0,0,0,124.31,0,0,0.0,0,0,0,0,8046,0,30.00,0,159.4,1,0,0.0,0.0,0.0,0.0,1,0,0.176,0.176,57.136,20.534,1,110.00,435.8,8750,0.0,0.0,110.0,110.0,433.0,0.00,0,0,1,166.7,76.8,76.8,72.0,72.0,34.0,-24.91,-0.34,-29.9,1.7,4,-297.410,5.3,100.0,20.5,17.7,39.3,33.0,0,1,0.0,0.00,0.00,0.00,0.00,3617,1443,3798,2407,314.3,320.8,345.1,348.5,24.07,21.94,25.48,24.18,325.0,325.0,355.0,355.0,100.00,99.91,100.00,100.00,-0.42,-0.41,-0.33,-0.24,-0.0,0.0,-0.1,0.0,76.4,63.1,79.0,70.9,80.9,63.3,83.0,73.0,77.4,60.7,81.1,70.7,75.2,59.5,80.3,69.7,0.30,-0.31,0.06,0.07,0.00,135.75,135.53,124.38,124.24,152.3,2.9,0.43197222132910357,151.24271857680273,44.65261214582725,43.21220534830218,3.60101756283548
0.200,8.9,44.054553730705287,-78.681912349802516,40.9,9.3,-112.0,-53.6,6823.8,6824,159.3,0,1,1,0,1,1,0,0,0,100,1,1.186,26.0,0.0,-0.003,57.136,66.0,0.0,26.0,26.0,26.0,26.0,-0.32,0.55,0.19,381.9,-2.81,-3.09,-1.52,-2.85,-734.61,682.26,5.7,0.00,0.00,0.00,0.00,0.01,-7.49,-7.49,-0.83,-4.35,-0.32,-0.56,44.27,-0.17,-0.55,4.29,100.0,0,0,130.57,0,0,0.0,0,0,0,0,6964,0,30.00,4,159.3,0,0,0.0,0.0,0.0,0.0,1,0,0.228,0.228,57.136,20.534,0,110.00,435.8,8750,0.0,0.0,110.0,110.0,433.0,0.00,0,0,1,333.3,69.1,69.1,77.6,77.6,34.0,-77.23,0.46,-16.0,2.2,4,-297.460,5.2,100.0,22.5,18.2,33.7,30.4,0,1,0.0,0.00,0.00,0.00,0.00,6970,3343,4110,3109,307.7,315.2,344.0,346.3,24.07,21.94,25.48,24.18,325.0,325.0,355.0,355.0,100.00,99.91,100.00,100.00,-0.49,-0.34,-0.43,-0.28,-0.1,-0.1,5.2,5.9,76.5,63.1,79.0,70.9,80.8,63.3,83.0,73.0,77.4,60.6,81.1,70.6,75.2,59.5,80.3,69.6,0.30,-0.32,0.07,0.07,0.00,135.74,135.48,130.23,130.89,152.3,2.9,0.6640783086353597,155.92404081101415,45.372815601492,7.202034272135904,-14.404067975247727
0.250,11.1,44.054534215426436,-78.681906774008553,151.9,101.0,-78.4,-71.0,6826.0,6826,159.4,0,1,1,0,1,1,0,0,0,100,1,1.186,26.0,0.0,0.000,57.136,66.0,0.0,26.0,26.0,26.0,26.0,-0.44,-0.19,0.14,378.8,-2.89,-3.05,-1.18,-1.34,-733.99,680.09,5.7,0.00,0.00,0.00,0.00,0.01,-7.49,-7.49,-0.82,3.64,-0.01,6.87,44.28,-0.20,-0.52,5.27,100.0,0,0,124.15,0,0,0.0,0,0,0,0,6622,0,30.00,4,159.4,1,0,0.0,0.0,0.0,0.0,1,0,0.280,0.280,57.136,20.534,1,110.00,435.8,8750,0.0,0.0,110.0,110.0,433.0,0.00,0,0,1,333.3,61.8,61.8,80.6,80.6,34.0,-68.38,0.26,-41.3,-14.4,4,-297.510,4.1,100.0,30.1,23.2,29.8,26.8,0,1,0.0,0.00,0.00,0.00,0.00,6223,4197,4216,5396,308.7,313.1,344.4,340.9,24.07,21.94,25.48,24.18,325.0,325.0,355.0,355.0,100.00,99.91,100.00,100.00,-0.47,-0.35,-0.58,-0.39,-0.0,0.0,-0.4,-0.2,76.5,63.1,79.0,70.8,80.8,63.3,83.0,73.0,77.3,60.6,81.1,70.6,75.2,59.5,80.3,69.6,0.27,-0.25,0.08,0.08,0.00,136.21,135.82,124.25,124.05,152.3,2.9,0.49929950931279715,151.96292200401632,43.212205348302476,-43.21220534830218,-25.20712009473087
0.300,13.3,44.054515779333514,-78.681901557943235,-52.6,102.5,200.8,104.5,6828.2,6828,159.1,0,1,1,0,1,1,0,0,0,100,1,1.186,26.0,0.0,0.000,57.136,66.0,0.0,26.0,26.0,26.0,26.0,-0.29,-0.22,0.18,373.7,-2.28,-2.52,-1.84,-1.94,-733.41,678.04,5.7,0.00,0.00,0.00,0.00,0.01,-7.49,-7.49,-0.59,4.95,0.12,0.26,44.19,-0.20,-0.44,3.54,100.0,0,0,124.03,0,0,0.0,0,0,0,0,6616,0,30.00,4,159.1,0,0,0.0,0.0,0.0,0.0,1,0,0.326,0.326,57.136,20.534,0,110.00,435.8,8750,0.0,0.0,110.0,110.0,433.0,0.00,0,0,1,333.3,61.5,61.5,60.9,60.9,34.0,-37.74,3.52,-53.0,1.9,4,-297.560,2.6,100.0,27.5,28.4,39.8,32.0,0,1,0.0,0.00,0.00,0.00,0.00,4608,5631,5221,6047,312.7,309.7,342.2,339.6,24.07,21.94,25.48,24.18,325.0,325.0,355.0,355.0,100.00,99.91,100.00,100.00,-0.35,-0.25,-0.46,-0.28,-0.1,-0.0,-0.4,-0.1,76.5,63.1,79.0,70.9,80.8,63.3,82.9,72.9,77.3,60.6,81.0,70.6,75.2,59.5,80.2,69.6,0.17,-0.14,0.06,0.06,0.00,135.90,135.54,124.18,123.88,152.3,2.9,0.40607881008493907,151.60282027618393,42.85210359201891,86.4244104120931,18.005084969059766
0.350,15.5,44.054496353986828,-78.681896072081443,2.8,-86.8,64.9,166.8,6830.4,6830,158.8,0,1,1,0,1,1,0,0,0,100,1,1.186,26.0,0.0,0.000,57.136,66.0,0.0,26.0,26.0,26.0,26.0,-0.22,-0.17,0.12,375.0,-3.71,-2.68,-1.51,-2.28,-732.80,675.88,5.7,0.00,0.00,0.00,0.00,0.01,-7.49,-7.49,-0.39,2.57,-0.09,-4.45,44.10,-0.18,-0.41,2.60,100.0,0,0,123.72,0,0,0.0,0,0,0,0,6599,0,30.00,4,158.8,1,0,0.0,0.0,0.0,0.0,1,0,0.378,0.378,57.136,20.534,1,110.00,435.8,8750,0.0,0.0,110.0,110.0,433.0,0.00,0,0,1,333.3,68.5,68.5,63.7,63.7,34.0,-32.23,2.57,-40.7,11.1,4,-297.610,1.3,100.0,27.6,24.0,43.1,40.4,0,1,0.0,0.00,0.00,0.00,0.00,3724,2463,5072,5220,314.2,317.8,342.2,341.0,24.08,21.94,25.48,24.18,325.0,325.0,355.0,355.0,100.00,99.91,100.00,100.00,-0.23,-0.23,-0.33,-0.21,-0.0,-0.0,-0.3,-0.1,76.5,63.1,79.0,70.9,80.7,63.3,82.9,72.9,77.3,60.6,81.0,70.6,75.1,59.5,80.2,69.6,0.10,-0.10,0.05,0.05,0.00,135.51,135.16,123.72,123.72,152.3,2.9,0.3028200785945344,160.60536304522563,45.01271384520845,3.6010169938120384,-7.202033987623864
0.400,17.7,44.054475669589891,-78.681890316423164,-166.9,-130.2,14.7,-51.3,6832.6,6833,159.1,0,1,1,0,1,1,0,0,0,100,1,1.186,26.0,0.0,-0.003,57.136,66.0,0.0,26.0,26.0,26.0,26.0,-0.14,0.36,-0.15,380.9,-2.13,-3.19,-1.84,-3.25,-732.16,673.58,5.7,0.00,0.00,0.00,0.00,0.01,-7.49,-7.49,-0.47,-3.79,-0.27,-1.40,44.21,-0.17,-0.45,1.56,100.0,0,0,126.71,0,0,0.0,0,0,0,0,6759,0,30.00,4,159.1,0,0,0.0,0.0,0.0,0.0,0,0,0.432,0.432,57.136,20.534,0,110.00,435.8,8750,0.0,0.0,110.0,110.0,433.0,0.00,0,0,1,166.7,78.2,78.2,58.8,58.8,34.0,-13.14,5.40,-42.9,10.7,4,-297.670,0.5,100.0,19.3,17.5,43.8,37.8,0,1,100.0,0.00,0.00,0.00,0.00,2541,2523,5782,3358,318.2,316.8,340.4,346.3,24.08,21.94,25.48,24.18,325.0,325.0,355.0,355.0,100.00,99.91,100.00,100.00,-0.19,-0.21,-0.32,-0.20,-0.1,-0.0,2.0,2.0,76.5,63.1,79.0,70.9,80.7,63.2,82.9,72.9,77.2,60.6,81.0,70.5,75.1,59.4,80.2,69.5,0.04,-0.05,0.05,0.06,0.00,135.44,135.33,126.71,126.71,152.3,2.9,0.4143669871020132,151.96292197556514,42.13190019325653,-126.0355987665838,-43.212205063790705
0.450,19.9,44.054458402615062,-78.681885550018649,-36.9,-73.5,-168.1,-169.9,6834.9,6835,159.7,0,1,1,0,1,1,0,0,0,100,1,1.186,26.0,0.0,-0.003,57.136,66.0,0.0,26.0,26.0,26.0,26.0,-0.12,0.35,-0.46,388.9,-2.45,-1.39,-1.32,-1.65,-731.63,671.66,5.7,0.00,0.00,0.00,0.00,0.01,-7.49,-7.49,-0.64,-3.72,-0.12,5.99,44.36,-0.15,-0.42,1.56,100.0,0,0,127.36,0,0,0.0,0,0,0,0,6794,0,30.00,4,159.7,1,0,0.0,0.0,0.0,0.0,0,0,0.476,0.476,57.136,20.534,1,110.00,435.8,8750,0.0,0.0,110.0,110.0,433.0,0.00,0,0,1,333.3,83.4,83.4,75.5,75.5,34.0,-10.22,-0.36,-17.1,1.1,4,-297.710,-0.5,100.0,17.4,13.8,35.4,29.3,0,1,84.8,0.00,0.00,0.00,0.00,1906,1875,3090,4125,319.9,320.9,347.1,344.5,24.08,21.94,25.48,24.18,325.0,325.0,355.0,355.0,100.00,99.91,100.00,100.00,-0.20,-0.18,-0.36,-0.23,-0.1,-0.1,2.3,2.5,76.5,63.1,79.0,70.9,80.6,63.2,82.9,72.9,77.2,60.5,81.0,70.5,75.0,59.4,80.2,69.5,-0.01,0.01,0.07,0.07,0.00,135.90,135.72,127.36,127.36,152.3,2.9,0.5903388857258177,148.00180316856725,40.69149333882938,57.6162738925737,10.803050981435831
0.500,22.1,44.054438707471888,-78.681880154089015,-68.3,22.4,-99.6,-0.9,6837.1,6837,160.2,0,1,1,0,1,1,0,0,0,100,1,1.186,26.0,0.0,0.000,57.136,66.0,0.0,26.0,26.0,26.0,26.0,-0.12,0.23,-0.16,388.1,-1.74,-2.30,-1.16,-1.83,-731.03,669.47,5.7,0.00,0.00,0.00,0.00,0.01,-7.49,-7.49,-0.87,-4.67,-0.10,-1.79,44.50,-0.14,-0.43,0.61,100.0,0,0,126.75,0,0,0.0,0,0,0,0,6761,0,30.00,4,160.2,0,0,0.0,0.0,0.0,0.0,0,0,0.528,0.528,57.136,20.534,0,110.00,435.8,8750,0.0,0.0,110.0,110.0,433.0,0.00,0,0,1,333.3,79.3,79.3,75.7,75.7,34.0,-18.74,8.09,-20.8,4.9,4,-297.760,-1.1,100.0,14.0,14.9,30.4,29.3,0,1,49.6,0.00,0.00,0.00,0.00,3955,3193,3795,2697,315.1,315.6,345.1,347.4,24.08,21.94,25.48,24.18,325.0,325.0,355.0,355.0,100.00,99.91,100.00,100.00,-0.16,-0.07,-0.28,-0.12,-0.1,-0.1,1.5,1.5,76.5,63.1,79.0,70.9,80.6,63.2,82.8,72.9,77.1,60.5,80.9,70.5,75.0,59.4,80.1,69.5,-0.04,0.04,0.08,0.08,0.00,136.38,136.32,126.75,126.75,152.3,2.9,0.3047950130825634,157.7245493648225,43.21220529140011,50.41423962043808,10.803050981435831
0.550,24.4,44.054419012328722,-78.681874758159381,298.8,191.3,-61.2,-30.8,6839.3,6839,160.4,0,1,1,0,1,1,0,0,0,100,1,1.186,26.0,0.0,0.000,57.136,66.0,0.0,26.0,26.0,26.0,26.0,-0.12,-0.07,0.03,380.0,-2.25,-2.63,-1.41,-0.90,-730.43,667.28,5.7,0.00,0.00,0.00,0.00,0.02,-7.49,-7.49,-0.89,4.12,-0.12,-0.24,44.54,-0.10,-0.44,0.04,100.0,0,0,124.89,0,0,0.0,0,0,0,0,6662,0,30.00,4,160.4,1,0,0.0,0.0,0.0,0.0,0,0,0.578,0.578,57.136,20.534,1,110.00,435.8,8750,0.0,0.0,110.0,110.0,433.0,0.00,0,0,1,166.7,61.4,61.4,80.6,80.6,34.0,-29.00,24.16,-24.0,4.1,4,-297.810,-2.2,100.0,29.0,24.5,27.4,27.7,0,1,0.0,0.00,0.00,0.00,0.00,5599,5153,3899,3888,310.4,311.2,345.5,345.1,24.08,21.94,25.49,24.18,325.0,325.0,355.0,355.0,100.00,99.91,100.00,100.00,-0.10,0.04,-0.24,-0.06,-0.0,-0.0,-0.1,-0.0,76.5,63.1,79.0,70.9,80.5,63.2,82.8,72.8,77.1,60.5,80.9,70.5,74.9,59.4,80.1,69.5,-0.10,0.11,0.09,0.07,0.00,136.82,136.78,124.89,124.89,152.3,2.9,0.14212670403551897,153.04322713061106,41.771798436972965,-50.414239335926254,-18.00508553808335
0.600,26.6,44.054400486303635,-78.681869721958392,7.9,26.4,296.6,237.0,6841.5,6842,160.1,0,1,1,0,1,1,0,0,0,100,1,1.186,26.0,0.0,-0.003,57.136,66.0,0.0,26.0,26.0,26.0,26.0,-0.06,-0.18,0.22,373.1,-2.55,-3.29,-1.06,-1.19,-729.87,665.22,5.7,0.00,0.00,0.00,0.00,0.02,-7.49,-7.49,-0.60,4.44,-0.02,4.78,44.45,-0.05,-0.35,-0.92,100.0,0,0,124.73,0,0,0.0,0,0,0,0,6653,0,30.00,4,160.1,0,0,0.0,0.0,0.0,0.0,0,0,0.626,0.626,57.136,20.534,0,110.00,435.8,8750,0.0,0.0,110.0,110.0,433.0,0.00,0,0,1,333.3,67.5,67.5,60.1,60.1,34.0,-13.04,12.00,-35.2,18.8,4,-297.860,-1.8,100.0,29.3,25.8,42.2,39.6,0,1,0.0,0.00,0.00,0.00,0.00,3237,2682,6179,6085,316.3,317.3,339.4,339.2,24.08,21.94,25.49,24.18,325.0,325.0,355.0,355.0,100.00,99.91,100.00,100.00,-0.01,-0.01,-0.20,0.01,0.1,0.0,-0.2,-0.2,76.5,63.1,79.0,70.9,80.5,63.1,82.7,72.8,77.1,60.5,80.8,70.4,74.9,59.3,80.0,69.4,-0.10,0.13,0.05,0.04,0.00,136.38,136.54,124.73,124.73,152.3,2.9,0.290516780926679,152.68312543122988,41.411696737591775,43.212205063790634,7.202034556647519
0.650,28.8,44.054380881092627,-78.681864415960916,-237.3,-111.1,82.2,131.5,6843.8,6844,159.8,0,1,1,0,1,1,0,0,0,100,1,1.186,26.0,0.0,-0.003,57.136,66.0,0.0,26.0,26.0,26.0,26.0,0.03,-0.14,0.12,375.5,-2.96,-1.86,-0.90,-2.39,-729.28,663.04,5.7,0.00,0.00,0.00,0.00,0.02,-7.49,-7.49,-0.71,-6.60,0.18,1.99,44.37,0.00,-0.47,-1.29,100.0,0,0,124.15,0,0,0.0,0,0,0,0,6622,0,30.00,4,159.8,1,0,0.0,0.0,0.0,0.0,0,0,0.678,0.678,57.136,20.534,1,110.00,435.8,8750,0.0,0.0,110.0,110.0,433.0,0.00,0,0,1,333.3,72.4,72.4,55.8,55.8,34.0,-16.19,25.62,-9.1,24.8,4,-297.910,-1.7,100.0,17.5,20.3,46.3,46.2,0,1,0.0,0.00,0.00,0.00,0.00,3549,5798,3863,4109,315.7,309.4,344.7,343.5,24.08,21.94,25.49,24.18,325.0,325.0,355.0,355.0,100.00,99.91,100.00,100.00,-0.00,0.10,-0.02,0.05,0.0,-0.0,-0.2,-0.3,76.5,63.1,79.1,70.9,80.4,63.1,82.7,72.8,77.0,60.5,80.8,70.4,74.8,59.3,80.0,69.4,-0.10,0.09,0.03,0.05,0.00,135.89,135.97,124.14,124.15,152.3,2.9,0.18681541692269404,157.36444763699012,42.49200189263772,-3.6010172783235816,0.0
0.700,31.0,44.054361185949460,-78.681859109963440,110.8,65.1,-393.4,-297.5,6846.0,6846,159.4,0,1,1,0,1,1,0,0,0,100,1,1.186,26.0,0.0,-0.003,57.136,66.0,0.0,26.0,26.0,26.0,26.0,0.01,-0.17,-0.42,384.4,-2.95,-2.05,-2.19,-1.19,-728.69,660.85,5.7,0.00,0.00,0.00,0.00,0.02,-7.49,-7.49,-0.88,-0.08,0.13,-2.46,44.28,0.03,-0.51,-0.96,100.0,0,0,124.13,0,0,0.0,0,0,0,0,6621,0,30.00,4,159.4,0,0,0.0,0.0,0.0,0.0,0,0,0.728,0.728,57.136,20.534,0,110.00,435.8,8750,0.0,0.0,110.0,110.0,433.0,0.00,0,0,1,166.7,71.8,71.8,77.8,77.8,34.0,-8.38,13.65,-20.8,17.0,4,-297.960,-1.3,100.0,23.0,23.5,26.6,31.3,0,1,0.0,0.00,0.00,0.00,0.00,2581,3200,4295,3652,317.8,316.3,344.8,345.4,24.08,21.94,25.49,24.18,325.0,325.0,355.0,355.0,100.00,99.91,100.00,100.00,0.09,0.11,-0.01,0.16,0.0,0.0,-0.3,-0.3,76.5,63.1,79.1,70.9,80.4,63.1,82.6,72.7,77.0,60.4,80.7,70.4,74.8,59.3,79.9,69.4,-0.07,0.06,0.09,0.08,0.00,135.74,135.80,124.13,124.14,152.3,2.9,0.45321076774498636,152.32302370339752,41.411696737591775,-54.01525632973801,-10.803051550459415
0.750,33.2,44.054342839788696,-78.681854073762452,-20.9,-114.2,141.3,87.4,6848.2,6848,159.2,0,1,1,0,1,1,0,0,0,100,1,1.186,26.0,0.0,-0.003,57.136,66.0,0.0,26.0,26.0,26.0,26.0,-0.04,-0.20,-0.09,381.6,-3.58,-2.06,-1.58,-1.29,-728.13,658.81,5.7,0.00,0.00,0.00,0.00,0.02,-7.49,-7.49,-1.00,-4.66,0.02,1.06,44.21,0.05,-0.55,-0.63,100.0,0,0,123.67,0,0,0.0,0,0,0,0,6597,0,30.00,4,159.2,1,0,0.0,0.0,0.0,0.0,0,0,0.776,0.776,57.136,20.534,1,110.00,435.8,8750,0.0,0.0,110.0,110.0,433.0,0.00,0,0,1,333.3,72.4,72.4,74.2,74.2,34.0,-24.50,17.15,-18.1,12.0,4,-298.010,-1.1,100.0,22.0,17.8,33.7,35.7,0,1,0.0,0.00,0.00,0.00,0.00,4654,3548,4693,2788,312.5,315.7,342.6,347.2,24.08,21.93,25.49,24.18,325.0,325.0,355.0,355.0,100.00,99.91,100.00,100.00,0.04,0.15,-0.01,0.13,-0.0,-0.0,-0.2,-0.3,76.5,63.1,79.1,70.9,80.3,63.1,82.6,72.7,76.9,60.4,80.7,70.3,74.8,59.3,79.9,69.4,-0.06,0.06,0.07,0.05,0.00,135.45,135.42,123.67,123.67,152.3,2.9,0.22293496809607954,151.96292200401632,41.411696737591775,43.21220506379035,14.404068544271382
0.800,35.4,44.054323234577687,-78.681848767764976,-110.8,53.3,-122.6,-148.8,6850.4,6850,158.9,0,1,1,0,1,1,0,0,0,100,1,1.186,26.0,0.0,-0.006,57.136,66.0,0.0,26.0,26.0,26.0,26.0,0.04,-0.16,-0.31,388.8,-3.03,-2.88,-1.69,-2.08,-727.54,656.63,5.7,0.00,0.00,0.00,0.00,0.02,-7.49,-7.49,-1.18,-2.81,0.15,-0.67,44.12,0.06,-0.53,-0.85,100.0,0,0,123.53,0,0,0.0,0,0,0,0,6589,0,30.00,4,158.9,0,0,0.0,0.0,0.0,0.0,0,0,0.828,0.828,57.136,20.534,0,110.00,435.8,8750,0.0,0.0,110.0,110.0,433.0,0.00,0,0,1,333.3,79.6,79.6,74.6,74.6,34.0,-6.12,11.32,-17.5,13.6,4,-298.060,-0.1,100.0,16.4,20.5,27.6,28.2,0,1,0.0,0.00,0.00,0.00,0.00,1881,2362,4252,2435,320.7,318.0,344.4,348.4,24.08,21.93,25.49,24.18,325.0,325.0,355.0,355.0,100.00,99.91,100.00,100.00,0.04,0.07,-0.03,0.15,0.0,-0.0,-0.3,-0.4,76.5,63.1,79.1,70.9,80.3,63.0,82.5,72.7,76.8,60.4,80.6,70.3,74.7,59.2,79.8,69.3,-0.01,0.01,0.09,0.08,0.00,135.13,135.34,123.53,123.53,152.3,2.9,0.35114099732158877,156.64424420977656,42.85210359201891,-7.202034556647732,0.0
0.850,37.6,44.054303719298844,-78.681843371835342,16.3,-43.5,-1.7,5.4,6852.6,6853,158.6,0,1,1,0,1,1,0,0,0,100,1,1.186,26.0,0.0,-0.006,57.136,66.0,0.0,26.0,26.0,26.0,26.0,0.08,-0.15,-0.50,388.2,-1.61,-2.11,-1.38,-0.40,-726.94,654.46,5.6,0.00,0.00,0.00,0.00,0.02,-7.49,-7.49,-1.37,-4.01,0.17,0.01,44.04,0.07,-0.53,-0.49,100.0,0,0,123.22,0,0,0.0,0,0,0,0,6573,0,30.00,4,158.6,1,0,0.0,0.0,0.0,0.0,0,0,0.878,0.878,57.136,20.534,1,110.00,435.8,8750,0.0,0.0,110.0,110.0,433.0,0.00,0,0,1,333.3,77.6,77.6,83.3,83.3,34.0,-6.74,11.99,-3.5,14.8,4,-298.110,0.5,100.0,17.3,18.3,27.5,28.5,0,1,0.0,0.00,0.00,0.00,0.00,3156,2937,1866,4240,317.0,317.5,350.0,345.0,24.08,21.93,25.49,24.18,325.0,325.0,355.0,355.0,100.00,99.91,100.00,100.00,0.02,0.10,0.05,0.20,-0.0,0.0,-0.3,-0.4,76.5,63.1,79.1,70.9,80.2,63.0,82.5,72.6,76.8,60.4,80.6,70.3,74.7,59.2,79.8,69.3,0.03,-0.02,0.09,0.07,0.00,134.93,134.94,123.22,123.22,152.3,2.9,0.5281098370604357,151.24271854835155,41.411696737591775,-57.61627332355005,-18.00508553808342
0.900,39.8,44.054285463070244,-78.681838425566511,250.8,151.7,-15.2,0.6,6854.8,6855,158.3,0,1,1,0,1,1,0,0,0,100,1,1.186,26.0,0.0,-0.006,57.136,66.0,0.0,26.0,26.0,26.0,26.0,-0.04,-0.20,0.18,377.6,-2.63,-2.68,-1.32,-0.59,-726.39,652.43,5.6,0.00,0.00,0.00,0.00,0.02,-7.49,-7.49,-1.44,1.96,0.16,2.30,43.96,0.07,-0.56,0.11,100.0,0,0,123.12,0,0,0.0,0,0,0,0,6568,0,30.00,4,158.3,0,0,0.0,0.0,0.0,0.0,1,0,0.926,0.926,57.136,20.534,0,110.00,435.8,8750,0.0,0.0,110.0,110.0,433.0,0.00,0,0,1,333.3,56.8,56.8,84.9,84.9,34.0,-46.27,30.78,-8.8,13.3,4,-298.160,1.2,100.0,29.8,25.9,26.7,28.5,0,1,0.0,0.00,0.00,0.00,0.00,7139,5353,3023,3859,305.3,309.8,347.4,345.3,24.08,21.93,25.49,24.18,325.0,325.0,355.0,355.0,100.00,99.91,100.00,100.00,-0.11,0.10,-0.02,0.17,-0.1,-0.0,-0.4,-0.4,76.5,63.1,79.1,70.9,80.2,63.0,82.4,72.6,76.8,60.4,80.5,70.2,74.6,59.2,79.7,69.2,0.09,-0.06,0.09,0.07,0.00,135.17,135.11,123.12,123.13,152.3,2.9,0.2720294101747089,150.88261687742155,41.05159503821057,43.21220563281457,10.803051550459415
0.950,42.0,44.054266037723551,-78.681833119569035,1.5,138.0,168.9,85.6,6857.0,6857,158.0,0,1,1,0,1,1,0,0,0,100,1,1.186,26.0,0.0,-0.009,57.136,66.0,0.0,26.0,26.0,26.0,26.0,0.05,-0.14,0.20,372.4,-4.29,-2.96,-1.50,-1.78,-725.80,650.27,5.6,0.00,0.00,0.00,0.00,0.03,-7.49,-7.49,-1.08,8.28,0.31,2.84,43.87,0.05,-0.40,0.61,100.0,0,0,123.22,0,0,0.0,0,0,0,0,6573,0,30.00,4,158.0,1,0,0.0,0.0,0.0,0.0,1,0,0.978,0.978,57.136,20.534,1,110.00,435.8,8750,0.0,0.0,110.0,110.0,433.0,0.00,0,0,1,333.3,61.3,61.3,60.2,60.2,34.0,-21.54,23.96,-32.0,45.0,4,-298.210,1.3,100.0,29.9,32.8,35.2,32.8,0,1,0.0,0.00,0.00,0.00,0.00,3342,4749,6023,6807,317.6,311.2,340.1,337.3,24.08,21.93,25.49,24.18,325.0,325.0,355.0,355.0,100.00,99.91,100.00,100.00,-0.07,0.02,-0.11,0.14,0.0,0.0,-0.2,-0.2,76.5,63.1,79.1,70.9,80.1,63.0,82.3,72.5,76.7,60.3,80.5,70.2,74.6,59.2,79.7,69.2,0.09,-0.07,0.07,0.05,0.00,134.74,134.85,123.22,123.22,152.3,2.9,0.24919871588754228,155.563939111633,42.49200189263772,-2.8451239586502197e-07,0.0
1.000,44.2,44.054246612376865,-78.681827813571559,-91.1,-127.1,226.1,331.2,6859.2,6859,157.7,0,1,1,0,1,1,0,0,0,100,1,1.186,26.0,0.0,-0.009,57.136,66.0,0.0,26.0,26.0,26.0,26.0,-0.05,-0.18,0.14,371.8,-3.05,-1.81,-2.30,-2.07,-725.21,648.11,5.6,0.00,0.00,0.00,0.00,0.03,-7.49,-7.49,-0.89,0.25,0.35,-1.40,43.79,0.03,-0.41,0.80,100.0,0,0,122.81,0,0,0.0,0,0,0,0,6551,0,30.00,4,157.7,0,0,0.0,0.0,0.0,0.0,1,0,1.028,1.028,57.136,20.534,0,110.00,435.8,8750,0.0,0.0,110.0,110.0,433.0,0.00,0,0,1,333.3,69.4,69.4,58.0,58.0,34.0,-13.27,7.86,-22.1,31.9,4,-298.260,1.0,100.0,25.3,26.4,46.5,49.4,0,1,0.0,0.00,0.00,0.00,0.00,3074,2654,4361,5328,316.5,317.1,343.5,341.5,24.08,21.93,25.49,24.18,325.0,325.0,355.0,355.0,100.00,99.91,100.00,100.00,0.02,0.03,0.01,0.09,-0.0,0.0,-0.2,-0.2,76.5,63.1,79.1,70.9,80.1,63.0,82.3,72.5,76.7,60.3,80.4,70.2,74.5,59.2,79.6,69.2,0.06,-0.05,0.04,0.02,0.00,134.36,134.28,122.81,122.81,152.3,2.9,0.23345235059857505,150.88261684897032,41.05159503821057,-50.414239620438366,-14.404068544271453
1.050,46.4,44.054228356148265,-78.681822867302728,-104.1,-123.7,-96.0,-158.2,6861.4,6861,157.4,0,1,1,0,1,1,0,0,0,100,1,1.186,26.0,0.0,-0.009,57.136,66.0,0.0,26.0,26.0,26.0,26.0,-0.02,-0.14,-0.11,379.3,-1.91,-2.17,-1.58,-0.77,-724.66,646.08,5.5,0.00,0.00,0.00,0.00,0.03,-7.49,-7.49,-0.99,-4.25,0.20,-2.37,43.72,0.01,-0.43,0.80,100.0,0,0,122.44,0,0,0.0,0,0,0,0,6531,0,30.00,4,157.4,1,0,0.0,0.0,0.0,0.0,1,0,1.076,1.076,57.136,20.534,1,110.00,435.8,8750,0.0,0.0,110.0,110.0,433.0,0.00,0,0,1,333.3,77.2,77.2,65.0,65.0,34.0,-6.56,4.63,-17.4,12.7,4,-298.310,1.0,100.0,20.1,20.3,41.7,41.4,0,1,0.0,0.00,0.00,0.00,0.00,2406,1776,4193,4754,318.1,319.6,344.4,342.2,24.08,21.93,25.49,24.18,325.0,325.0,355.0,355.0,100.00,99.91,100.00,100.00,0.01,-0.02,-0.04,0.06,0.0,0.0,-0.2,-0.2,76.5,63.1,79.1,70.9,80.0,62.9,82.3,72.5,76.6,60.3,80.4,70.1,74.5,59.2,79.6,69.2,0.06,-0.05,0.05,0.04,0.00,134.01,133.88,122.43,122.44,152.3,2.9,0.17916472867168917,150.52251514958917,41.05159503821057,36.01017107616741,10.803051550459557
1.100,48.6,44.054209020733737,-78.681817561305252,-34.0,-57.5,-176.0,-148.2,6863.5,6864,157.1,0,1,1,0,1,1,0,0,0,100,1,1.186,26.0,0.0,-0.009,57.136,66.0,0.0,26.0,26.0,26.0,26.0,-0.05,-0.16,-0.25,384.1,-2.47,-2.50,-1.60,-2.36,-724.07,643.93,5.5,0.00,0.00,0.00,0.00,0.03,-7.49,-7.49,-1.31,-6.25,0.15,-1.40,43.64,-0.00,-0.54,0.79,100.0,0,0,122.08,0,0,0.0,0,0,0,0,6512,0,30.00,4,157.1,0,0,0.0,0.0,0.0,0.0,1,0,1.128,1.128,57.136,20.534,0,110.00,435.8,8750,0.0,0.0,110.0,110.0,433.0,0.00,0,0,1,333.3,75.6,75.6,75.0,75.0,34.0,-18.83,12.34,-17.9,12.2,4,-298.360,1.0,100.0,18.4,17.4,32.9,34.0,0,1,0.0,0.00,0.00,0.00,0.00,3971,3289,3988,2397,314.8,315.6,345.3,347.9,24.08,21.93,25.49,24.18,325.0,325.0,355.0,355.0,100.00,99.91,100.00,100.00,-0.07,0.00,-0.08,0.04,-0.0,0.0,-0.3,-0.3,76.5,63.1,79.1,70.9,80.0,62.9,82.2,72.4,76.6,60.3,80.3,70.1,74.4,59.1,79.5,69.1,0.05,-0.07,0.08,0.06,0.00,133.69,133.60,122.07,122.08,152.3,2.9,0.3009983388658482,154.48363395658706,42.13190019325653,-7.202034272135904,-3.6010169938118963
1.150,50.8,44.054189775251373,-78.681812345239933,173.3,95.2,-126.2,-152.4,6865.7,6866,156.8,0,1,1,0,1,1,0,0,0,100,1,1.186,26.0,0.0,-0.009,57.136,66.0,0.0,26.0,26.0,26.0,26.0,-0.02,-0.18,0.05,380.6,-2.33,-3.06,-1.57,-1.63,-723.49,641.79,5.5,0.00,0.00,0.00,0.00,0.03,-7.49,-7.49,-1.46,1.00,0.32,6.02,43.55,0.00,-0.56,0.72,100.0,0,0,122.01,0,0,0.0,0,0,0,0,6508,0,30.00,4,156.8,1,0,0.0,0.0,0.0,0.0,1,0,1.178,1.178,57.136,20.534,1,110.00,435.8,8750,0.0,0.0,110.0,110.0,433.0,0.00,0,0,1,333.3,62.0,62.0,85.1,85.1,34.0,-41.09,29.90,-13.9,15.8,4,-298.410,0.5,100.0,27.1,22.1,26.6,26.4,0,1,0.0,0.00,0.00,0.00,0.00,6385,5622,2788,4016,308.4,309.9,348.1,344.3,24.08,21.93,25.49,24.18,325.0,325.0,355.0,355.0,100.00,99.91,100.00,100.00,-0.16,0.02,-0.17,0.03,-0.0,-0.0,-0.4,-0.3,76.5,63.1,79.1,70.9,79.9,62.9,82.1,72.4,76.5,60.3,80.3,70.1,74.4,59.1,79.5,69.1,0.05,-0.04,0.09,0.08,0.00,133.76,133.75,122.01,122.01,152.3,2.9,0.18788294228055935,149.80231172237558,40.69149333882938,-50.414239335926254,-14.404068544271453
1.200,52.9,44.054171608954931,-78.681807398971102,130.6,243.8,118.6,76.6,6867.9,6868,156.5,0,1,1,0,1,1,0,0,0,100,1,1.186,26.0,0.0,-0.012,57.136,66.0,0.0,26.0,26.0,26.0,26.0,-0.05,-0.20,0.32,371.2,-2.54,-2.59,-0.65,-1.20,-722.94,639.77,5.5,0.00,0.00,0.00,0.00,0.03,-7.49,-7.49,-1.17,9.70,0.49,3.72,43.46,-0.00,-0.50,0.60,100.0,0,0,122.12,0,0,0.0,0,0,0,0,6514,0,30.00,4,156.5,0,0,0.0,0.0,0.0,0.0,1,0,1.226,1.226,57.136,20.534,0,110.00,435.8,8750,0.0,0.0,110.0,110.0,433.0,0.00,0,0,1,333.3,51.1,51.1,69.4,69.4,34.0,-41.33,32.64,-18.2,15.3,4,-298.460,0.3,100.0,33.6,34.3,32.5,30.2,0,1,0.0,0.00,0.00,0.00,0.00,6634,6499,4750,4792,307.7,307.3,343.0,343.2,24.08,21.93,25.49,24.18,325.0,325.0,355.0,355.0,100.00,99.91,100.00,100.00,-0.12,0.04,-0.16,0.04,-0.0,-0.0,-0.3,-0.3,76.5,63.1,79.1,70.9,79.9,62.9,82.1,72.4,76.5,60.3,80.2,70.0,74.4,59.1,79.4,69.0,0.06,0.01,0.08,0.07,0.00,133.74,133.66,122.12,122.13,152.3,2.9,0.38065732621348564,149.44221002299443,40.69149333882938,39.61118835449099,10.803051550459486
1.250,55.1,44.054152453404726,-78.681802182905784,-89.3,-66.7,264.4,402.1,6870.1,6870,156.2,0,1,1,0,1,1,0,0,0,100,1,1.186,26.0,0.0,-0.012,57.136,66.0,0.0,26.0,26.0,26.0,26.0,0.00,-0.17,0.37,367.0,-2.52,-2.65,-1.55,-1.86,-722.36,637.64,5.5,0.00,0.00,0.00,0.00,0.03,-7.49,-7.49,-0.65,7.19,0.47,-4.91,43.38,-0.02,-0.35,0.39,100.0,0,0,121.89,0,0,0.0,0,0,0,0,6502,0,30.00,4,156.2,1,0,0.0,0.0,0.0,0.0,1,0,1.278,1.278,57.136,20.534,1,110.00,435.8,8750,0.0,0.0,110.0,110.0,433.0,0.00,0,0,1,333.3,63.6,63.6,49.3,49.3,34.0,-9.41,21.00,-34.8,32.4,4,-298.510,0.5,100.0,29.1,31.0,45.7,50.4,0,1,0.0,0.00,0.00,0.00,0.00,2661,4571,6713,5872,317.7,312.4,338.1,339.3,24.08,21.93,25.50,24.18,325.0,325.0,355.0,355.0,100.00,99.91,100.00,100.00,0.01,0.03,-0.08,0.06,0.1,-0.0,-0.2,-0.2,76.5,63.1,79.1,70.9,79.9,62.9,82.0,72.3,76.5,60.2,80.2,70.0,74.3,59.1,79.4,69.0,0.04,-0.01,0.04,0.02,0.00,133.30,133.18,121.89,121.89,152.3,2.9,0.40718546143004664,153.76343055782468,41.77179849387533,-3.601017278323866,-3.6010169938120384
1.300,57.3,44.054133207922355,-78.681796966840466,-90.5,-115.3,80.6,-10.0,6872.2,6872,155.9,0,1,1,0,1,1,0,0,0,100,1,1.186,26.0,0.0,-0.009,57.136,66.0,0.0,26.0,26.0,26.0,26.0,0.03,-0.15,0.36,369.9,-2.62,-2.99,-3.12,-2.89,-721.78,635.50,5.5,0.00,0.00,0.00,0.00,0.04,-7.49,-7.49,-0.55,-0.57,0.17,-5.99,43.30,-0.02,-0.41,0.40,100.0,0,0,121.38,0,0,0.0,0,0,0,0,6475,0,30.00,4,155.9,0,0,0.0,0.0,0.0,0.0,1,0,1.328,1.328,57.136,20.534,0,110.00,435.8,8750,0.0,0.0,110.0,110.0,433.0,0.00,0,0,1,333.3,65.9,65.9,52.7,52.7,34.0,-25.28,19.52,-45.4,22.2,4,-298.560,0.6,100.0,24.6,25.2,49.7,49.9,0,1,0.0,0.00,0.00,0.00,0.00,5005,4071,5731,3516,312.0,312.7,340.9,344.7,24.08,21.93,25.50,24.18,325.0,325.0,355.0,355.0,100.00,99.91,100.00,100.00,-0.05,0.00,-0.05,0.01,-0.0,-0.0,-0.2,-0.2,76.5,63.1,79.1,70.9,79.8,62.9,82.0,72.3,76.4,60.2,80.1,70.0,74.3,59.1,79.3,69.0,0.05,-0.04,0.04,0.03,0.00,132.85,132.84,121.38,121.39,152.3,2.9,0.39115214431215894,149.08210829516204,40.33139163944818,-7.2020345566474475,-3.601017562835551
1.350,59.4,44.054115221490243,-78.681792110503793,108.8,-2.1,-196.4,-221.0,6874.4,6874,155.6,0,1,1,0,1,1,0,0,0,100,1,1.186,26.0,0.0,-0.012,57.136,66.0,0.0,26.0,26.0,26.0,26.0,-0.11,-0.17,0.04,374.1,-2.54,-2.81,-1.29,-0.97,-721.24,633.50,5.5,0.00,0.00,0.00,0.00,0.04,-7.49,-7.49,-0.49,2.58,0.09,2.77,43.22,-0.02,-0.42,0.76,100.0,0,0,121.31,0,0,0.0,0,0,0,0,6471,0,30.00,4,155.6,1,0,0.0,0.0,0.0,0.0,1,0,1.376,1.376,57.136,20.534,1,110.00,435.8,8750,0.0,0.0,110.0,110.0,433.0,0.00,0,0,1,166.7,63.7,63.7,66.1,66.1,34.0,-29.86,11.91,-30.9,7.6,4,-298.610,0.8,100.0,30.1,25.1,39.9,38.8,0,1,0.0,0.00,0.00,0.00,0.00,5278,3180,5804,4403,311.0,316.0,340.3,344.1,24.08,21.93,25.50,24.18,325.0,325.0,355.0,355.0,100.00,99.91,100.00,100.00,-0.10,-0.03,-0.14,-0.03,-0.0,-0.0,-0.2,-0.2,76.5,63.1,79.1,70.9,79.8,62.8,82.0,72.3,76.4,60.2,80.1,69.9,74.3,59.1,79.3,69.0,0.06,-0.03,0.06,0.04,0.00,132.68,132.62,121.31,121.32,152.3,2.9,0.20639767440550294,153.04322710215993,41.411696737591775,39.61118835449014,7.202033987623935
1.400,61.6,44.054094986754109,-78.681786624642001,25.9,19.9,40.0,57.4,6876.5,6877,155.3,0,1,1,0,1,1,0,0,0,100,1,1.186,26.0,0.0,-0.012,57.136,66.0,0.0,26.0,26.0,26.0,26.0,-0.12,-0.19,0.15,372.9,-3.28,-1.93,-1.47,-1.51,-720.63,631.25,5.5,0.00,0.00,0.00,0.00,0.04,-7.49,-7.49,-0.37,2.05,0.44,7.83,43.12,0.01,-0.48,0.72,100.0,0,0,120.97,0,0,0.0,0,0,0,0,6452,0,30.00,4,155.3,0,0,0.0,0.0,0.0,0.0,0,0,1.430,1.430,57.136,20.534,0,110.00,435.8,8750,0.0,0.0,110.0,110.0,433.0,0.00,0,0,1,166.7,62.4,62.4,65.9,65.9,34.0,-33.42,9.56,-24.7,14.9,4,-298.660,0.5,100.0,31.3,26.1,41.9,41.7,0,1,0.0,0.00,0.00,0.00,0.00,4844,3752,4590,4683,312.2,314.4,343.2,342.6,24.08,21.93,25.50,24.18,325.0,325.0,355.0,355.0,100.00,99.91,100.00,100.00,-0.12,-0.04,-0.14,-0.02,-0.0,0.0,-0.3,-0.2,76.5,63.1,79.1,70.9,79.8,62.8,81.9,72.2,76.4,60.2,80.0,69.9,74.2,59.0,79.2,68.9,0.05,-0.03,0.06,0.04,0.00,132.37,132.32,120.96,120.97,152.3,2.9,0.27018512172212594,153.04322713061106,41.05159503821057,-93.62644468422957,-32.409154082354874
1.450,63.7,44.054077000321989,-78.681781858237485,-160.1,-41.5,-12.0,-4.5,6878.7,6879,155.0,0,1,1,0,1,1,0,0,0,100,1,1.186,26.0,0.0,-0.015,57.136,66.0,0.0,26.0,26.0,26.0,26.0,-0.02,-0.17,0.10,376.5,-2.77,-1.90,-1.23,-1.49,-720.10,629.25,5.5,0.00,0.00,0.00,0.00,0.04,-7.49,-7.49,-0.34,-1.84,0.70,3.64,43.04,0.02,-0.47,0.36,100.0,0,0,120.66,0,0,0.0,0,0,0,0,6436,0,30.00,4,155.0,1,0,0.0,0.0,0.0,0.0,0,0,1.478,1.478,57.136,20.534,1,110.00,435.8,8750,0.0,0.0,110.0,110.0,433.0,0.00,0,0,1,333.3,70.9,70.9,61.2,61.2,34.0,-10.93,11.92,-19.5,23.3,4,-298.710,0.3,100.0,23.3,24.1,41.3,41.5,0,1,0.0,0.00,0.00,0.00,0.00,2477,3988,4574,5754,317.8,314.4,343.1,339.6,24.08,21.93,25.50,24.18,325.0,325.0,355.0,355.0,100.00,99.91,100.00,100.00,-0.03,0.01,-0.10,0.03,0.0,0.0,-0.2,-0.2,76.5,63.1,79.1,70.9,79.7,62.8,81.9,72.2,76.3,60.2,80.0,69.9,74.2,59.0,79.2,68.9,0.03,-0.01,0.06,0.03,0.00,132.00,131.97,120.66,120.67,152.3,2.9,0.19824227601599012,143.68058263373698,38.17078132935629,-7.202034272135336,0.0
1.500,65.9,44.054059103822034,-78.681777091832984,29.1,192.0,-125.2,-106.2,6880.8,6881,154.7,0,1,1,0,1,1,0,0,0,100,1,1.186,26.0,0.0,-0.012,57.136,66.0,0.0,26.0,26.0,26.0,26.0,0.01,-0.23,0.19,374.8,-2.79,-1.11,-1.30,-0.94,-719.57,627.26,5.5,0.00,0.00,0.00,0.00,0.04,-7.49,-7.49,-0.39,2.35,0.46,-11.42,42.96,0.01,-0.56,-0.42,100.0,0,0,120.44,0,0,0.0,0,0,0,0,6424,0,30.00,4,154.7,0,0,0.0,0.0,0.0,0.0,0,0,1.526,1.526,57.136,20.534,0,110.00,435.8,8750,0.0,0.0,110.0,110.0,433.0,0.00,0,0,1,333.3,55.9,55.9,61.6,61.6,34.0,-24.63,37.17,-8.7,7.6,4,-298.760,0.3,100.0,24.8,33.7,35.1,36.1,0,1,0.0,0.00,0.00,0.00,0.00,5075,8231,4102,2212,311.3,302.6,345.1,348.8,24.08,21.93,25.50,24.18,325.0,325.0,355.0,355.0,100.00,99.91,100.00,100.00,-0.01,0.17,0.05,0.14,-0.1,-0.1,-0.3,-0.4,76.5,63.1,79.1,70.9,79.7,62.8,81.8,72.2,76.3,60.2,79.9,69.9,74.2,59.0,79.1,68.9,0.01,0.02,0.07,0.05,0.00,132.06,131.94,120.44,120.44,152.3,2.9,0.29849623113198603,152.32302370339752,41.05159503821057,82.82339370279345,28.808137088542836
1.550,68.0,44.054038959018058,-78.681771605971178,307.7,88.1,62.2,52.1,6883.0,6883,154.3,0,1,1,0,1,1,0,0,0,100,1,1.186,26.0,0.0,-0.015,57.136,66.0,0.0,26.0,26.0,26.0,26.0,0.07,-0.21,0.92,364.4,-3.30,-3.50,-1.10,-1.50,-718.96,625.02,5.5,0.00,0.00,0.00,0.00,0.04,-7.49,-7.49,0.10,15.00,-0.07,-7.41,42.84,-0.01,-0.47,0.47,100.0,0,0,120.56,0,0,0.0,0,0,0,0,6431,0,30.00,4,154.3,1,0,0.0,0.0,0.0,0.0,0,0,1.582,1.582,57.136,20.534,1,110.00,435.8,8750,0.0,0.0,110.0,110.0,433.0,0.00,0,0,1,166.7,44.5,44.5,60.2,60.2,34.0,-48.77,50.55,-22.5,33.5,4,-298.810,0.3,100.0,40.2,38.1,38.2,38.7,0,1,0.0,0.00,0.00,0.00,0.00,7363,6596,6697,5776,306.0,305.5,338.5,340.4,24.09,21.93,25.50,24.18,325.0,325.0,355.0,355.0,100.00,99.91,100.00,100.00,-0.05,0.11,-0.04,0.15,-0.0,-0.1,-0.2,-0.2,76.5,63.1,79.1,70.9,79.6,62.8,81.8,72.1,76.3,60.2,79.9,69.8,74.1,59.0,79.1,68.8,0.05,0.02,0.06,0.04,0.00,132.18,131.95,120.56,120.56,152.3,2.9,0.946255779374689,151.96292200401632,41.05159503821057,-97.22746196255287,-28.808137088542836
1.600,70.2,44.054021152450261,-78.681766839566677,-210.5,-185.3,353.6,204.1,6885.1,6885,154.0,0,1,1,0,1,1,0,0,0,100,1,1.186,26.0,0.0,-0.015,57.136,66.0,0.0,26.0,26.0,26.0,26.0,0.00,-0.15,0.45,367.5,-2.46,-3.85,-1.31,-2.11,-718.43,623.04,5.5,0.00,0.00,0.00,0.00,0.04,-7.49,-7.49,0.77,9.78,-0.27,-0.42,42.76,-0.03,-0.24,0.56,100.0,0,0,120.28,0,0,0.0,0,0,0,0,6416,0,30.00,4,154.0,0,0,0.0,0.0,0.0,0.0,0,0,1.628,1.628,57.136,20.534,0,110.00,435.8,8750,0.0,0.0,110.0,110.0,433.0,0.00,0,0,1,333.3,67.9,67.9,41.8,41.8,34.0,-9.14,8.51,-38.3,39.4,4,-298.870,0.3,100.0,29.7,28.8,55.9,48.9,0,1,0.0,0.00,0.00,0.00,0.00,2707,1999,7572,7151,317.3,318.8,335.6,335.8,24.09,21.93,25.50,24.18,325.0,325.0,355.0,355.0,100.00,99.91,100.00,100.00,0.03,-0.08,-0.09,0.00,0.0,0.1,-0.1,-0.2,76.5,63.1,79.1,70.9,79.6,62.8,81.7,72.1,76.2,60.2,79.9,69.8,74.1,59.0,79.1,68.8,0.02,-0.01,0.03,0.01,0.00,131.44,131.38,120.28,120.28,152.3,2.9,0.4743416490252569,142.60027750714224,38.17078132935629,-50.41423962043808,-18.00508553808335
1.650,72.3,44.054003345882464,-78.681762073162162,-292.5,-348.4,-36.8,85.6,6887.3,6887,153.7,0,1,1,0,1,1,0,0,0,100,1,1.186,26.0,0.0,-0.015,57.136,66.0,0.0,26.0,26.0,26.0,26.0,-0.03,-0.15,-0.11,379.6,-2.06,-2.38,-1.36,-1.61,-717.90,621.06,5.6,0.00,0.00,0.00,0.00,0.04,-7.49,-7.49,0.75,-9.02,-0.08,5.79,42.69,0.00,-0.32,-0.03,100.0,0,0,119.48,0,0,0.0,0,0,0,0,6373,0,30.00,4,153.7,1,0,0.0,0.0,0.0,0.0,0,0,1.676,1.676,57.136,20.534,1,110.00,435.8,8750,0.0,0.0,110.0,110.0,433.0,0.00,0,0,1,333.3,87.3,87.3,53.2,53.2,34.0,-5.85,1.37,-21.4,18.5,4,-298.910,0.3,100.0,15.0,11.4,54.0,53.2,0,1,0.0,0.00,0.00,0.00,0.00,1725,837,5057,5714,320.4,322.1,341.7,339.7,24.09,21.93,25.50,24.19,325.0,325.0,355.0,355.0,100.00,99.91,100.00,100.00,-0.06,-0.11,-0.06,-0.04,0.1,0.1,-0.2,-0.1,76.5,63.1,79.1,70.9,79.5,62.8,81.7,72.1,76.2,60.1,79.8,69.8,74.0,59.0,79.0,68.8,0.03,-0.04,0.03,0.01,0.00,130.66,130.72,119.48,119.48,152.3,2.9,0.18841443681416772,146.9214980419725,39.25108648440224,86.42441069660492,21.6061031009189
1.700,74.4,44.053984460128738,-78.681757036961173,-35.4,6.4,-517.4,-453.1,6889.4,6889,153.4,0,1,1,0,1,1,0,0,0,100,1,1.186,26.0,0.0,-0.018,57.136,66.0,0.0,26.0,26.0,26.0,26.0,-0.04,-0.16,-0.67,394.4,-2.17,-2.12,-1.47,-1.10,-717.34,618.96,5.6,0.00,0.00,0.00,0.00,0.05,-7.49,-7.49,0.11,-11.54,0.12,2.89,42.61,0.01,-0.52,0.09,100.0,0,0,119.04,0,0,0.0,0,0,0,0,6349,0,30.00,4,153.4,0,0,0.0,0.0,0.0,0.0,0,0,1.728,1.728,57.136,20.534,0,110.00,435.8,8750,0.0,0.0,110.0,110.0,433.0,0.00,0,0,1,333.3,84.4,84.4,82.0,82.0,34.0,-8.45,7.53,-12.2,3.2,4,-298.960,-0.1,100.0,13.3,11.7,28.1,30.6,0,1,0.0,0.00,0.00,0.00,0.00,2476,2380,3032,1703,318.6,318.6,347.3,350.5,24.09,21.93,25.50,24.19,325.0,325.0,355.0,355.0,100.00,99.91,100.00,100.00,-0.03,0.03,-0.08,0.01,-0.0,-0.0,-0.4,-0.5,76.5,63.1,79.1,70.9,79.5,62.7,81.6,72.1,76.1,60.1,79.8,69.7,74.0,59.0,79.0,68.8,0.00,0.00,0.09,0.06,0.00,130.31,130.28,119.04,119.04,152.3,2.9,0.6900000000000001,151.24271857680273,40.33139163944818,-3.601017278323866,0.0
1.750,76.6,44.053965574375013,-78.681752000760170,200.2,293.4,-147.2,-186.4,6891.5,6892,153.1,0,1,1,0,1,1,0,0,0,100,1,1.186,26.0,0.0,-0.015,57.136,66.0,0.0,26.0,26.0,26.0,26.0,-0.02,-0.16,-0.09,389.1,-3.25,-2.38,-3.07,-1.43,-716.78,616.86,5.7,0.00,0.00,0.00,0.00,0.05,-7.49,-7.49,-0.25,-2.39,0.16,-1.58,42.51,0.01,-0.66,0.07,100.0,0,0,118.72,0,0,0.0,0,0,0,0,6333,0,30.00,4,153.1,1,0,0.0,0.0,0.0,0.0,0,0,1.778,1.778,57.136,20.534,1,110.00,435.8,8750,0.0,0.0,110.0,110.0,433.0,0.00,0,0,1,333.3,62.5,62.5,90.6,90.6,34.0,-33.75,33.64,-3.5,5.8,4,-299.010,-0.1,100.0,23.3,26.4,20.8,21.3,0,1,0.0,0.00,0.00,0.00,0.00,5237,5819,858,1655,311.0,309.1,353.4,350.9,24.09,21.93,25.50,24.18,325.0,325.0,355.0,355.0,100.00,99.91,100.00,100.00,-0.07,0.13,-0.08,0.12,-0.1,-0.0,-0.6,-0.6,76.5,63.1,79.1,70.9,79.4,62.7,81.6,72.0,76.1,60.1,79.7,69.7,74.0,58.9,78.9,68.7,-0.01,-0.00,0.09,0.08,0.00,130.53,130.42,118.72,118.72,152.3,2.9,0.1846618531261939,146.56139631414013,39.25108648440224,-50.414239620438366,-10.803051550459415
1.800,78.7,44.053947857739381,-78.681747234355669,156.0,106.8,38.7,83.8,6893.6,6894,152.7,0,1,1,0,1,1,0,0,0,100,1,1.186,26.0,0.0,-0.018,57.136,66.0,0.0,26.0,26.0,26.0,26.0,0.04,-0.19,0.36,377.4,-2.64,-3.42,-1.25,-0.75,-716.25,614.89,5.7,0.00,0.00,0.00,0.00,0.05,-7.49,-7.49,-0.05,8.48,0.11,-1.75,42.41,0.02,-0.54,-0.10,100.0,0,0,119.12,0,0,0.0,0,0,0,0,6354,0,30.00,4,152.7,0,0,0.0,0.0,0.0,0.0,0,0,1.826,1.826,57.136,20.534,0,110.00,435.8,8750,0.0,0.0,110.0,110.0,433.0,0.00,0,0,1,333.3,53.5,53.5,78.1,78.1,34.0,-33.22,52.71,-22.4,26.3,4,-299.060,-0.5,100.0,31.1,31.7,22.7,25.4,0,1,0.0,0.00,0.00,0.00,0.00,6386,6715,4950,5677,308.4,306.3,342.7,340.1,24.09,21.93,25.50,24.18,325.0,325.0,355.0,355.0,100.00,99.91,100.00,100.00,-0.04,0.15,-0.11,0.19,-0.0,-0.0,-0.2,-0.2,76.5,63.1,79.1,70.9,79.4,62.7,81.5,72.0,76.0,60.1,79.7,69.7,73.9,58.9,78.9,68.7,-0.01,0.04,0.10,0.07,0.00,130.51,130.50,119.12,119.13,152.3,2.9,0.4090232267243512,146.2012946147589,39.25108648440224,36.01017136067867,7.202034556647519
1.850,80.8,44.053929061917813,-78.681742198154666,-22.0,-120.8,348.4,272.4,6895.8,6896,152.4,0,1,1,0,1,1,0,0,0,100,1,1.186,26.0,0.0,-0.018,57.136,66.0,0.0,26.0,26.0,26.0,26.0,-0.00,-0.19,0.11,375.9,-3.71,-2.32,-1.13,-1.25,-715.69,612.80,5.7,0.00,0.00,0.00,0.00,0.05,-7.49,-7.49,0.42,7.58,0.13,4.87,42.32,0.04,-0.37,-0.11,100.0,0,0,119.01,0,0,0.0,0,0,0,0,6348,0,30.00,4,152.4,1,0,0.0,0.0,0.0,0.0,0,0,1.878,1.878,57.136,20.534,1,110.00,435.8,8750,0.0,0.0,110.0,110.0,433.0,0.00,0,0,1,166.7,68.9,68.9,62.6,62.6,34.0,-15.29,7.73,-23.6,29.7,4,-299.110,-0.8,100.0,30.0,25.7,40.1,39.1,0,1,0.0,0.00,0.00,0.00,0.00,3080,2321,6076,6580,318.1,318.3,340.1,337.6,24.09,21.93,25.50,24.18,325.0,325.0,355.0,355.0,100.00,99.91,100.00,100.00,-0.00,0.01,-0.07,0.09,0.1,0.0,-0.2,-0.2,76.5,63.1,79.1,70.9,79.4,62.7,81.5,71.9,76.0,60.1,79.6,69.6,73.9,58.9,78.8,68.7,-0.02,0.03,0.05,0.05,0.00,129.96,130.06,119.01,119.01,152.3,2.9,0.21954498400100148,150.162413450208,39.97128994006699,-7.202034272134767,-3.6010175628356222
1.900,82.9,44.053910356028410,-78.681737251885835,-349.6,-232.6,110.0,156.0,6897.9,6898,152.1,0,1,1,0,1,1,0,0,0,100,1,1.186,26.0,0.0,-0.018,57.136,66.0,0.0,26.0,26.0,26.0,26.0,0.03,-0.15,-0.15,383.0,-2.18,-1.97,-1.45,-1.54,-715.14,610.72,5.7,0.00,0.00,0.00,0.00,0.05,-7.49,-7.49,0.44,-6.32,0.42,6.00,42.25,0.04,-0.34,-0.52,100.0,0,0,118.32,0,0,0.0,0,0,0,0,6311,0,30.00,4,152.1,0,0,0.0,0.0,0.0,0.0,1,0,1.928,1.928,57.136,20.534,0,110.00,435.8,8750,0.0,0.0,110.0,110.0,433.0,0.00,0,0,1,166.7,86.7,86.7,55.1,55.1,34.0,-0.38,10.81,-19.9,22.0,4,-299.160,-1.5,100.0,12.5,14.0,45.6,46.9,0,1,0.0,0.00,0.00,0.00,0.00,461,2793,4751,4991,323.7,317.3,342.4,341.7,24.09,21.93,25.50,24.18,325.0,325.0,355.0,355.0,100.00,99.91,100.00,100.00,0.15,0.10,-0.05,0.05,0.2,-0.0,-0.1,-0.2,76.5,63.1,79.2,70.9,79.3,62.7,81.4,71.9,75.9,60.0,79.6,69.6,73.8,58.9,78.8,68.6,-0.07,0.07,0.06,0.04,0.00,129.37,129.45,118.32,118.32,152.3,2.9,0.2142428528562855,145.48109118754542,38.890984728118674,-50.414239620438366,-10.803051550459486
1.950,85.0,44.053892729324936,-78.681732485481334,-86.7,21.5,-249.1,-297.8,6900.0,6900,151.9,0,1,1,0,1,1,0,0,0,100,1,1.186,26.0,0.0,-0.018,57.136,66.0,0.1,26.0,26.0,26.0,26.0,0.06,-0.15,-0.45,392.2,-2.87,-1.86,-2.28,-0.85,-714.61,608.76,5.8,0.00,0.00,0.00,0.00,0.05,-7.49,-7.49,-0.02,-10.57,0.42,-3.07,42.17,0.05,-0.47,-1.18,100.0,0,0,117.82,0,0,0.0,0,0,0,0,6284,0,30.00,4,151.9,1,0,0.0,0.0,0.0,0.0,1,0,1.976,1.976,57.136,20.534,1,110.00,435.8,8750,0.0,0.0,110.0,110.0,433.0,0.00,0,0,1,333.3,84.0,84.0,70.5,70.5,34.0,-5.20,22.53,-7.9,6.6,4,-299.210,-1.8,100.0,8.2,15.1,33.2,32.0,0,1,0.0,0.00,0.00,0.00,0.00,2005,4071,2368,1971,320.4,313.4,348.8,350.0,24.09,21.93,25.50,24.18,325.0,325.0,355.0,355.0,100.00,99.91,100.00,100.00,0.09,0.21,0.08,0.17,0.0,-0.1,-0.3,-0.4,76.5,63.0,79.1,70.9,79.2,62.6,81.4,71.9,75.9,60.0,79.5,69.6,73.8,58.9,78.7,68.6,-0.08,0.09,0.08,0.07,0.00,128.95,129.09,117.82,117.82,152.3,2.9,0.47812132351527686,145.12098948816416,38.89098478502104,36.01017107616627,10.80305211948314
2.000,87.1,44.053874113367691,-78.681727539212488,206.2,124.0,-263.6,-173.6,6902.1,6902,151.5,0,1,1,0,1,1,0,0,0,100,1,1.186,26.0,0.0,-0.021,57.136,66.0,0.4,26.0,26.0,26.0,26.0,0.08,-0.17,-0.29,390.9,-1.82,-2.35,-1.88,-0.12,-714.06,606.69,5.8,0.00,0.00,0.00,0.00,0.05,-7.49,-7.49,-0.37,-2.90,0.06,-9.13,42.08,0.05,-0.55,-1.51,100.0,0,0,117.69,0,0,0.0,0,0,0,0,6278,0,30.00,4,151.5,0,0,0.0,0.0,0.0,0.0,1,0,2.028,2.028,57.136,20.534,0,110.00,435.8,8750,0.0,0.0,110.0,110.0,433.0,0.00,0,0,1,333.3,71.5,71.5,86.9,86.9,34.0,-5.03,26.93,-7.8,7.2,4,-299.260,-2.0,100.0,18.5,21.3,20.0,23.3,0,1,0.0,0.00,0.00,0.00,0.00,4550,4019,2859,2284,313.7,313.5,347.9,349.5,24.09,21.93,25.50,24.18,325.0,325.0,355.0,355.0,100.00,99.91,100.00,100.00,0.13,0.25,0.08,0.27,-0.0,-0.1,-0.4,-0.6,76.5,63.0,79.1,70.9,79.2,62.6,81.3,71.8,75.8,60.0,79.5,69.5,73.7,58.9,78.7,68.6,-0.11,0.11,0.10,0.08,0.00,128.91,129.07,117.69,117.69,152.3,2.9,0.3455430508634199,149.08210829516204,39.97128994006699,-3.601017278323866,3.6010169938119674
2.050,89.2,44.053855497410453,-78.681722503011500,104.7,-0.5,173.5,40.2,6904.2,6904,151.2,0,1,1,0,1,1,0,0,0,100,1,1.186,26.0,0.0,-0.021,57.136,66.0,0.9,26.0,26.0,26.0,26.0,0.07,-0.20,-0.03,385.9,-2.47,-3.36,-1.42,-1.33,-713.50,604.62,5.8,0.00,0.00,0.00,0.00,0.05,-7.49,-7.49,-0.37,0.47,-0.19,0.56,41.99,0.06,-0.51,-1.81,100.0,0,0,117.67,0,0,0.0,0,0,0,0,6277,0,30.00,4,151.2,1,0,0.0,0.0,0.0,0.0,1,0,2.078,2.078,57.136,20.534,1,110.00,435.8,8750,0.0,0.0,110.0,110.0,433.0,0.00,0,0,1,333.3,72.0,72.0,78.4,78.4,34.0,-6.92,17.61,-13.5,25.0,4,-299.310,-2.8,100.0,23.7,21.3,28.7,25.3,0,1,0.0,0.00,0.00,0.00,0.00,3521,2685,4426,3927,315.1,317.5,343.8,344.6,24.09,21.93,25.50,24.18,325.0,325.0,355.0,355.0,100.00,99.91,100.00,100.00,0.14,0.18,0.01,0.27,-0.0,-0.1,-0.2,-0.3,76.5,63.0,79.1,70.9,79.2,62.6,81.3,71.8,75.8,60.0,79.4,69.5,73.7,58.8,78.6,68.5,-0.15,0.14,0.09,0.08,0.00,128.76,128.77,117.67,117.67,152.3,2.9,0.21400934559032697,144.76088776033177,39.25108648440224,-46.8132223421145,-7.202034556647519
2.100,91.3,44.053837960639136,-78.681717736606984,-122.6,-4.8,54.8,125.2,6906.3,6906,150.9,0,1,1,0,1,1,0,0,0,100,1,1.186,26.0,0.0,-0.021,57.136,66.0,2.6,26.0,26.0,26.0,26.0,0.13,-0.22,-0.01,383.6,-2.54,-2.33,-1.14,-1.68,-712.97,602.67,5.8,0.00,0.00,0.00,0.00,0.06,-7.49,-7.49,-0.46,-3.07,-0.15,-1.23,41.90,0.05,-0.52,-1.54,100.0,0,0,117.28,0,0,0.0,0,0,0,0,6256,0,30.00,4,150.9,0,0,0.0,0.0,0.0,0.0,1,0,2.126,2.126,57.136,20.534,0,110.00,435.8,8750,0.0,0.0,110.0,110.0,433.0,0.00,0,0,1,333.3,72.3,72.3,71.8,71.8,34.0,-8.38,31.35,-7.7,29.3,4,-299.360,-3.5,100.0,17.6,21.0,31.4,31.6,0,1,0.0,0.00,0.00,0.00,0.00,4015,4565,4115,4242,314.3,312.2,344.9,343.2,24.09,21.93,25.50,24.18,325.0,325.0,355.0,355.0,100.00,99.91,100.00,100.00,0.15,0.25,0.04,0.23,-0.1,-0.1,-0.3,-0.3,76.5,63.0,79.1,70.9,79.1,62.6,81.2,71.8,75.8,60.0,79.4,69.5,73.6,58.8,78.6,68.5,-0.19,0.18,0.08,0.06,0.00,128.37,128.37,117.28,117.28,152.3,2.9,0.25573423705088844,144.4007860609506,39.25108648440224,32.4091540823548,10.803050981435831
2.150,93.4,44.053819434614056,-78.681712700405996,92.1,62.7,-169.2,-51.3,6908.4,6908,150.4,0,1,1,0,1,1,0,0,0,100,1,1.186,26.0,0.0,-0.024,57.136,66.0,6.6,26.0,26.0,26.0,26.0,0.13,-0.32,-0.30,385.9,-2.98,-2.48,-2.65,-1.22,-712.41,600.61,5.8,0.00,0.00,0.00,0.00,0.06,-7.49,-7.49,-0.49,1.60,-0.14,-3.11,41.78,0.05,-0.48,-2.08,100.0,0,0,117.02,0,0,0.0,0,0,0,0,6242,0,30.00,4,150.4,1,0,0.0,0.0,0.0,0.0,1,0,2.178,2.178,57.136,20.534,1,110.00,435.8,8750,0.0,0.0,110.0,110.0,433.0,0.00,0,0,1,333.3,70.3,70.3,81.7,81.7,34.0,-5.33,26.91,-15.0,25.8,4,-299.410,-4.1,100.0,22.2,24.2,23.0,29.0,0,1,0.0,0.00,0.00,0.00,0.00,3097,3882,3491,4428,317.3,313.9,347.1,343.4,24.09,21.93,25.50,24.18,325.0,325.0,355.0,355.0,100.00,99.91,100.00,100.00,0.21,0.25,0.07,0.23,-0.3,-0.3,-0.6,-0.5,76.5,63.0,79.1,70.9,79.1,62.6,81.2,71.7,75.7,60.0,79.3,69.4,73.6,58.8,78.5,68.5,-0.23,0.22,0.10,0.07,0.00,127.74,127.91,117.02,117.02,152.3,2.9,0.45749316934791495,148.00180316856725,40.33139158254582,-14.404068259759697,3.6010169938120384
2.200,95.5,44.053800998521133,-78.681707664205007,-14.7,7.3,243.5,95.6,6910.4,6910,149.9,0,1,1,0,1,1,0,0,0,100,1,1.186,26.0,0.0,-0.024,57.136,66.0,16.2,26.0,26.0,26.0,26.0,0.18,-0.38,0.00,381.9,-2.52,-2.76,-1.65,-1.42,-711.85,598.56,5.8,0.00,0.00,0.00,0.00,0.06,-7.49,-7.49,-0.44,-0.76,-0.34,-3.77,41.62,0.06,-0.47,-2.68,100.0,0,0,116.27,0,0,0.0,0,0,0,0,6202,0,30.00,4,149.9,0,0,0.0,0.0,0.0,0.0,1,0,2.228,2.228,57.136,20.534,0,110.00,435.8,8750,0.0,0.0,110.0,110.0,433.0,0.00,0,0,1,333.3,70.9,70.9,68.9,68.9,34.0,-2.21,29.98,-5.5,28.1,4,-299.460,-4.1,100.0,21.4,24.5,35.1,33.8,0,1,0.0,0.00,0.00,0.00,0.00,2832,3987,3185,4148,317.7,313.5,346.9,343.9,24.08,21.93,25.50,24.18,325.0,325.0,355.0,355.0,100.00,99.91,100.00,100.00,0.22,0.29,0.12,0.28,-0.8,-0.7,-0.5,-0.5,76.5,63.0,79.1,70.9,79.0,62.6,81.1,71.7,75.7,59.9,79.3,69.4,73.6,58.8,78.5,68.4,-0.23,0.23,0.07,0.06,0.00,126.37,126.77,116.23,116.31,152.3,2.9,0.4204759208325728,142.96037923497462,39.61118818378344,-18.005085538083563,7.202034556647519
2.250,97.6,44.053783731546297,-78.681702807868334,-43.0,-92.1,-8.5,-19.6,6912.5,6913,149.1,0,1,1,0,1,1,0,0,0,100,1,1.186,26.0,0.0,-0.027,57.136,66.0,23.9,26.0,26.0,26.0,26.0,0.18,-0.59,-0.04,382.0,-2.62,-2.20,-1.50,-1.11,-711.31,596.64,5.8,0.00,0.00,0.00,0.00,0.06,-7.49,-7.49,-0.57,-5.05,-0.47,0.29,41.39,0.07,-0.50,-2.51,100.0,0,0,115.38,0,0,0.0,0,0,0,0,6155,0,30.00,4,149.1,1,0,0.0,0.0,0.0,0.0,1,0,2.276,2.276,57.136,20.534,1,110.00,435.8,8750,0.0,0.0,110.0,110.0,433.0,0.00,0,0,1,166.7,71.3,71.3,72.1,72.1,34.0,-7.24,30.61,-4.5,29.1,4,-299.510,-4.3,100.0,19.3,19.9,34.7,32.8,0,1,0.0,0.00,0.00,0.00,0.00,4843,4637,3237,4674,313.2,312.5,346.3,342.8,24.08,21.93,25.50,24.18,325.0,325.0,355.0,355.0,100.00,99.91,100.00,100.00,0.19,0.30,0.13,0.28,-1.2,-1.3,-0.5,-0.7,76.5,63.0,79.1,70.9,79.0,62.6,81.1,71.7,75.6,59.9,79.2,69.4,73.5,58.8,78.4,68.4,-0.24,0.24,0.07,0.05,0.00,125.53,125.70,115.38,115.39,152.3,2.9,0.6181423784210236,146.2012946147589,41.05159503821057,21.606102531895317,10.803051550459415
2.300,99.6,44.053764486063933,-78.681697411938700,276.1,179.6,-177.8,-53.3,6914.6,6915,147.9,0,1,1,0,1,1,0,0,0,100,1,1.186,26.0,0.0,-0.033,57.136,66.0,27.3,26.0,26.0,26.0,26.0,0.16,-0.64,0.07,378.7,-1.75,-2.78,-1.07,-1.57,-710.71,594.50,5.8,0.00,0.00,0.00,0.00,0.06,-7.49,-7.49,-0.64,3.32,-0.38,4.59,41.07,0.09,-0.61,-3.30,100.0,0,0,114.33,0,0,0.0,0,0,0,0,6099,0,30.00,4,147.9,0,0,0.0,0.0,0.0,0.0,1,0,2.332,2.332,57.136,20.534,0,110.00,435.8,8750,0.0,0.0,110.0,110.0,433.0,0.00,0,0,1,166.7,54.5,54.5,83.2,83.2,34.0,-2.89,47.16,-2.4,11.8,4,-299.570,-4.3,100.0,33.1,28.9,25.8,30.1,0,1,0.0,0.00,0.00,0.00,0.00,6099,5767,2994,2396,308.2,308.3,346.9,349.4,24.09,21.93,25.50,24.18,325.0,325.0,355.0,355.0,100.00,99.91,100.00,100.00,0.17,0.30,0.10,0.25,-0.8,-1.1,-0.8,-1.4,76.5,63.0,79.1,70.9,79.0,62.6,81.0,71.7,75.6,60.0,79.2,69.4,73.5,58.8,78.4,68.4,-0.23,0.26,0.09,0.07,0.00,124.88,125.11,114.28,114.39,152.3,2.9,0.6634003316248794,145.12098948816416,40.69149333882938,-64.8183078801975,-18.00508553808335
2.350,101.7,44.053747488885577,-78.681692645534184,-124.1,29.4,208.2,180.3,6916.6,6917,146.8,0,1,1,0,1,1,0,0,0,100,1,1.186,26.0,0.0,-0.033,57.136,66.0,29.1,26.0,26.0,26.0,26.0,0.23,-0.61,0.35,375.2,-3.82,-2.24,-1.76,-1.34,-710.18,592.61,5.8,0.00,0.00,0.00,0.00,0.06,-7.49,-7.49,-0.42,3.03,-0.12,3.46,40.76,0.12,-0.55,-3.18,100.0,0,0,113.74,0,0,0.0,0,0,0,0,6067,0,30.00,4,146.8,1,0,0.0,0.0,0.0,0.0,1,0,2.378,2.378,57.136,20.534,1,110.00,435.8,8750,0.0,0.0,110.0,110.0,433.0,0.00,0,0,1,166.7,62.5,62.5,63.2,63.2,34.0,-5.87,44.08,-8.8,34.3,4,-299.610,-4.4,100.0,26.9,30.4,36.2,39.1,0,1,0.0,0.00,0.00,0.00,0.00,3065,5876,4108,4549,316.8,308.6,344.7,342.3,24.09,21.93,25.50,24.18,325.0,325.0,355.0,355.0,100.00,99.91,100.00,100.00,0.27,0.32,0.12,0.33,-1.5,-1.2,-0.6,-0.7,76.5,63.0,79.1,70.9,78.9,62.6,81.0,71.6,75.6,60.0,79.1,69.3,73.5,58.8,78.3,68.4,-0.25,0.27,0.06,0.06,0.00,122.87,124.01,113.74,113.74,152.3,2.9,0.7399324293474371,139.71946382673914,39.25108648440224,-64.81830816470932,-10.803051550459415
2.400,103.7,44.053729592385622,-78.681687609333196,-186.4,-73.4,-5.8,-16.0,6918.6,6919,145.7,0,1,1,0,1,1,0,0,0,100,1,1.186,26.0,0.0,-0.039,57.136,66.0,29.5,26.0,26.0,26.0,26.0,0.21,-0.67,-0.07,381.0,-1.96,-1.95,-1.63,-0.50,-709.62,590.62,5.9,0.00,0.00,0.00,0.00,0.06,-7.49,-7.49,-0.40,-2.25,-0.18,-5.58,40.44,0.12,-0.54,-3.19,100.0,0,0,112.76,0,0,0.0,0,0,0,0,6015,0,30.00,4,145.7,0,0,0.0,0.0,0.0,0.0,0,0,2.430,2.430,57.136,20.534,0,110.00,435.8,8750,0.0,0.0,110.0,110.0,433.0,0.00,0,0,1,166.7,72.5,72.5,67.7,67.7,34.0,2.77,14.77,0.2,31.7,4,-299.660,-4.2,100.0,17.6,26.7,36.0,38.3,0,1,0.0,0.00,0.00,0.00,0.00,3748,2614,3325,4791,315.5,316.7,346.5,342.3,24.08,21.93,25.50,24.18,325.0,325.0,355.0,355.0,100.00,99.91,100.00,100.00,0.30,0.30,0.25,0.41,-1.9,-1.6,-0.7,-0.8,76.5,63.0,79.1,70.9,78.9,62.6,80.9,71.6,75.6,60.0,79.1,69.3,73.5,58.8,78.3,68.4,-0.24,0.23,0.08,0.05,0.00,122.31,121.61,112.76,112.76,152.3,2.9,0.7056202944927251,138.63915867169322,39.61118818378344,-25.2071198102189,7.202034556647519
2.450,105.7,44.053712865003753,-78.681682752996522,136.2,-76.1,-161.0,-57.0,6920.6,6921,144.5,0,1,1,0,1,1,0,0,0,100,1,1.186,26.0,0.0,-0.045,57.136,66.0,37.4,26.0,26.0,26.0,26.0,0.22,-0.78,-0.20,383.3,-2.69,-1.98,-1.44,-0.77,-709.08,588.76,5.9,0.00,0.00,0.00,0.00,0.06,-7.49,-7.49,-0.52,-2.05,-0.36,-3.61,40.11,0.13,-0.59,-2.96,100.0,0,0,111.25,0,0,0.0,0,0,0,0,5934,0,30.00,4,144.5,1,0,0.0,0.0,0.0,0.0,0,0,2.478,2.478,57.136,20.534,1,110.00,435.8,8750,0.0,0.0,110.0,110.0,433.0,0.00,0,0,1,333.3,67.2,67.2,83.3,83.3,34.0,0.41,36.46,0.3,25.0,4,-299.710,-4.7,100.0,24.4,22.9,27.9,35.5,0,1,0.0,0.00,0.00,0.00,0.00,3704,5155,1043,3960,315.4,310.8,352.0,344.7,24.08,21.92,25.50,24.18,325.0,325.0,355.0,355.0,100.00,99.91,100.00,100.00,0.32,0.40,0.25,0.38,-1.9,-1.9,-1.4,-1.1,76.5,63.0,79.1,70.9,78.9,62.6,80.9,71.6,75.5,60.0,79.0,69.3,73.4,58.8,78.2,68.3,-0.25,0.25,0.09,0.05,0.00,120.47,121.24,110.78,111.71,152.3,2.9,0.8347454701883683,137.19875184571725,39.97128994006699,-28.808136804031506,0.0
2.500,107.7,44.053695328232436,-78.681677626863362,126.1,142.8,86.3,-187.0,6922.6,6923,142.9,0,1,1,0,1,1,0,0,0,100,1,1.186,26.0,0.0,-0.051,57.136,66.0,44.7,26.0,26.0,26.0,26.0,0.20,-0.87,0.13,378.8,-3.07,-3.44,-1.35,-1.90,-708.51,586.81,5.9,0.00,0.00,0.00,0.00,0.06,-7.49,-7.49,-0.46,3.43,-0.47,5.49,39.68,0.15,-0.59,-4.44,100.0,0,0,110.40,0,0,0.0,0,0,0,0,5889,0,30.00,4,142.9,0,0,0.0,0.0,0.0,0.0,0,0,2.528,2.528,57.136,20.534,0,110.00,435.8,8750,0.0,0.0,110.0,110.0,433.0,0.00,0,0,1,333.3,59.2,59.2,73.6,73.6,34.0,-7.76,31.89,-0.9,30.5,4,-299.760,-5.0,100.0,30.7,30.0,32.2,26.1,0,1,0.0,0.00,0.00,0.00,0.00,5167,4223,3969,3659,310.9,312.6,344.2,345.5,24.09,21.93,25.50,24.18,325.0,325.0,355.0,355.0,100.00,99.91,100.00,100.00,0.23,0.30,0.19,0.41,-1.8,-2.0,-0.8,-1.2,76.5,63.0,79.1,70.9,78.9,62.6,80.8,71.6,75.5,60.0,79.0,69.3,73.4,58.9,78.2,68.3,-0.27,0.30,0.08,0.08,0.00,119.46,119.20,110.40,110.41,152.3,2.9,0.9021086409075129,135.75834499129007,39.61118818378344,-28.80813680403122,-7.202034556647519
2.550,109.6,44.053678960579212,-78.681672860458860,-185.3,-103.9,-48.6,249.9,6924.6,6925,141.3,0,1,1,0,1,1,0,0,0,100,1,1.186,26.0,0.0,-0.057,57.136,66.0,55.3,26.0,26.0,26.0,26.0,0.29,-1.03,0.19,380.0,-3.80,-3.54,-2.30,-1.75,-707.98,584.99,5.9,0.00,0.00,0.00,0.00,0.07,-7.49,-7.49,-0.39,-2.31,-0.22,1.09,39.23,0.16,-0.53,-3.46,100.0,0,0,108.96,0,0,0.0,0,0,0,0,5812,0,30.00,4,141.3,1,0,0.0,0.0,0.0,0.0,0,0,2.576,2.576,57.136,20.534,1,110.00,435.8,8750,0.0,0.0,110.0,110.0,433.0,0.00,0,0,1,333.3,70.0,70.0,69.8,69.8,34.0,-1.71,29.25,-11.3,45.6,4,-299.810,-5.5,100.0,21.4,24.8,29.8,38.6,0,1,0.0,0.00,0.00,0.00,0.00,3227,3906,5289,4815,316.7,313.0,342.1,341.8,24.08,21.92,25.50,24.18,325.0,325.0,355.0,355.0,100.00,99.91,100.00,100.00,0.36,0.40,0.21,0.44,-4.0,-2.9,-0.9,-1.0,76.5,63.0,79.1,70.9,78.9,62.6,80.8,71.5,75.5,60.0,79.0,69.3,73.4,58.9,78.2,68.3,-0.31,0.31,0.07,0.04,0.00,115.37,116.70,108.96,108.96,152.3,2.9,1.0867842472174503,134.31793816531413,39.25108648440224,3.60101727832415,7.2020345566473765
2.600,111.6,44.053661783536533,-78.681667824257858,-94.0,-2.7,-72.2,-159.3,6926.5,6927,139.5,1,1,1,0,1,1,0,0,0,100,1,1.186,26.0,0.0,-0.072,57.136,66.0,66.5,26.0,26.0,26.0,26.0,0.24,-1.18,-0.28,387.2,-3.13,-1.55,-2.29,-2.26,-707.42,583.08,5.9,0.00,0.00,0.00,0.00,0.07,-7.49,-7.49,-0.71,-7.13,-0.30,-6.36,38.70,0.15,-0.67,-2.69,100.0,0,0,105.38,0,0,0.0,0,0,0,0,5621,0,30.00,4,139.5,0,0,0.0,0.0,0.0,0.0,0,0,2.628,2.628,57.136,20.534,0,110.00,435.8,8750,0.0,0.0,110.0,110.0,433.0,0.00,0,0,1,333.3,69.7,69.7,78.3,78.3,34.0,-0.10,42.01,-0.2,12.5,4,-299.860,-6.1,100.0,16.7,24.7,26.2,30.7,0,1,0.0,0.00,0.00,0.00,0.00,3285,6207,1296,1982,316.8,307.8,351.7,349.7,24.08,21.92,25.50,24.18,325.0,325.0,355.0,355.0,100.00,99.91,100.00,100.00,0.46,0.58,0.32,0.42,-12.2,-3.3,-3.1,-2.5,76.5,63.0,79.1,70.9,78.9,62.7,80.8,71.5,75.5,60.0,78.9,69.2,73.4,58.9,78.1,68.3,-0.34,0.35,0.08,0.08,0.00,103.91,115.22,105.04,105.72,152.3,2.9,1.2362847568420472,136.1184467191225,40.33139163944818,-46.81322262662633,0.0
2.650,113.5,44.053644966222507,-78.681662788056869,156.8,88.2,-118.5,-201.2,6928.4,6928,137.0,0,1,1,0,1,1,0,0,0,100,1,1.186,26.0,0.0,-0.078,57.136,66.0,76.5,26.0,26.0,26.0,26.0,0.28,-1.33,-0.09,386.4,-2.67,-2.01,-1.77,-1.44,-706.86,581.21,5.9,0.00,0.00,0.00,0.00,0.07,-7.49,-7.49,-0.94,-1.44,-0.67,-6.58,38.02,0.17,-0.76,-5.09,100.0,0,0,102.49,0,0,0.0,0,0,0,0,5467,0,30.00,4,137.0,1,0,0.0,0.0,0.0,0.0,0,0,2.678,2.678,57.136,20.534,1,110.00,435.8,8750,0.0,0.0,110.0,110.0,433.0,0.00,0,0,1,333.3,59.8,59.8,89.1,89.1,34.0,3.26,39.95,0.7,12.2,4,-299.910,-5.9,100.0,24.6,29.1,20.3,20.6,0,1,0.0,0.00,0.00,0.00,0.00,5715,6071,1124,2133,310.2,307.8,352.3,349.7,24.08,21.92,25.50,24.18,325.0,325.0,355.0,355.0,100.00,99.91,100.00,100.00,0.38,0.52,0.42,0.59,-3.8,-3.5,-4.6,-3.1,76.5,63.0,79.1,70.9,78.9,62.7,80.7,71.5,75.6,60.1,78.9,69.2,73.5,59.0,78.1,68.3,-0.34,0.33,0.10,0.09,0.00,112.45,112.58,101.52,103.47,152.3,2.9,1.3621306838919678,129.6366159026515,39.25108648440224,-54.015256614250404,0.0
2.700,115.3,44.053629407958724,-78.681658021652353,216.6,73.9,-9.7,21.1,6930.3,6930,134.4,0,1,1,0,1,1,0,0,0,100,1,1.186,26.0,0.0,-0.090,57.136,66.0,79.8,26.0,26.0,26.0,26.0,0.31,-1.55,0.27,379.8,-2.38,-2.68,-2.39,-1.34,-706.33,579.48,5.9,0.00,0.00,0.00,0.00,0.07,-7.49,-7.49,-0.83,5.52,-0.82,0.80,37.28,0.22,-0.76,-6.16,100.0,0,0,102.36,0,0,0.0,0,0,0,0,5460,0,30.00,4,134.4,0,0,0.0,0.0,0.0,0.0,0,0,2.726,2.726,57.136,20.534,0,110.00,435.8,8750,0.0,0.0,110.0,110.0,433.0,0.00,0,0,1,166.7,51.3,51.3,86.8,86.8,34.0,4.91,45.38,1.2,23.3,4,-299.960,-6.0,100.0,35.4,32.8,19.8,21.7,0,1,0.0,0.00,0.00,0.00,0.00,5925,6449,3601,3204,309.0,306.7,346.1,346.7,24.08,21.92,25.50,24.18,325.0,325.0,355.0,355.0,100.00,99.91,100.00,100.00,0.37,0.52,0.40,0.65,-3.2,-3.7,-2.4,-2.9,76.5,63.0,79.1,70.9,78.9,62.8,80.7,71.5,75.6,60.2,78.9,69.2,73.5,59.0,78.1,68.2,-0.32,0.35,0.10,0.08,0.00,110.33,110.62,102.36,102.36,152.3,2.9,1.6035897230900429,130.71692105769745,40.33139163944818,-14.404068259759413,3.6010169938120384
2.750,117.2,44.053612320848210,-78.681652715654877,-196.0,-71.7,136.4,103.3,6932.1,6932,131.6,0,1,1,0,1,1,0,0,0,100,1,1.186,26.0,0.0,-0.099,57.136,66.0,79.8,26.0,26.0,26.0,26.0,0.34,-1.55,-0.01,380.5,-3.25,-1.84,-1.93,-1.30,-705.74,577.58,5.9,0.00,0.00,0.00,0.00,0.07,-7.49,-7.49,-0.52,3.62,-0.72,2.67,36.50,0.25,-0.62,-5.37,100.0,0,0,101.28,0,0,0.0,0,0,0,0,5402,0,30.00,4,131.6,1,0,0.0,0.0,0.0,0.0,0,0,2.780,2.780,57.136,20.534,1,110.00,435.8,8750,0.0,0.0,110.0,110.0,433.0,0.00,0,0,1,166.7,64.0,64.0,72.8,72.8,34.0,0.34,10.82,7.2,52.0,4,-300.010,-5.5,100.0,25.6,29.2,26.6,26.8,0,1,0.0,0.00,0.00,0.00,0.00,4252,4796,5417,4998,314.1,311.8,341.5,341.9,24.08,21.92,25.50,24.18,325.0,325.0,355.0,355.0,100.00,99.91,100.00,100.00,0.43,0.48,0.40,0.69,-7.7,-6.4,-1.5,-1.8,76.5,63.0,79.1,70.8,79.0,62.9,80.7,71.5,75.6,60.2,78.8,69.2,73.5,59.1,78.0,68.2,-0.30,0.31,0.09,0.08,0.00,103.34,105.12,101.27,101.30,152.3,2.9,1.5868837386525834,128.19620907667556,39.61118818378344,-126.03559905109535,-32.40915465137846
