Time,Distance,GPS Latitude,GPS Longitude,Damper Velocity (Calc) FL,Damper Velocity (Calc) FR,Damper Velocity (Calc) RL,Damper Velocity (Calc) RR,Corr Dist,Corr Dist (Unstretched),Corr Speed,ABS Active,ABS Enabled,AID Allow Tire Blankets,AID Auto Blip,AID Auto Clutch,AID Auto Shift,AID Fuel Rate,AID Ideal Line,AID Mech Damage,AID Stability,AID Tire Wear Rate,Air Density,Air Temp,Ballast,Best Lap Delta,Best Lap Time,Brake Bias,Brake Pos,Brake Temp FL,Brake Temp FR,Brake Temp RL,Brake Temp RR,CG Accel Lateral,CG Accel Longitudinal,CG Accel Vertical,CG Height,Camber FL,Camber FR,Camber RL,Camber RR,Car Coord X,Car Coord Y,Car Coord Z,Car Damage Front,Car Damage Left,Car Damage Rear,Car Damage Right,Car Pos Norm,Caster FL,Caster FR,Chassis Pitch Angle,Chassis Pitch Rate,Chassis Roll Angle,Chassis Roll Rate,Chassis Velocity X,Chassis Velocity Y,Chassis Velocity Z,Chassis Yaw Rate,Clutch Pos,DRS Active,DRS Available,Drive Train Speed,ERS Heat Charging,ERS Is Charging,ERS Max Energy,ERS Power Level,ERS Recovery Level,Engine Brake Setting,Engine Limiter,Engine RPM,Flags,Fuel Level,Gear,Ground Speed,HR Sample Clock,In Pit,KERS Charge,KERS Deployed Energy,KERS Input,KERS Max Energy,LR Sample Clock,Lap Invalidated,Lap Time,Lap Time2,Last Lap Time,Last Sector Time,MR Sample Clock,Max Fuel,Max Power,Max RPM,Max Sus Travel FL,Max Sus Travel FR,Max Sus Travel RL,Max Sus Travel RR,Max Torque,Max Turbo Boost,Num Tires Off Track,Penalties Enabled,Position,Raw Data Sample Rate,Ride Height FL,Ride Height FR,Ride Height RL,Ride Height RR,Road Temp,Self Align Torque FL,Self Align Torque FR,Self Align Torque RL,Self Align Torque RR,Session Lap Count,Session Time Left,Steering Angle,Surface Grip,Suspension Travel FL,Suspension Travel FR,Suspension Travel RL,Suspension Travel RR,TC Active,TC Enabled,Throttle Pos,Tire Dirt Level FL,Tire Dirt Level FR,Tire Dirt Level RL,Tire Dirt Level RR,Tire Load FL,Tire Load FR,Tire Load RL,Tire Load RR,Tire Loaded Radius FL,Tire Loaded Radius FR,Tire Loaded Radius RL,Tire Loaded Radius RR,Tire Pressure FL,Tire Pressure FR,Tire Pressure RL,Tire Pressure RR,Tire Radius FL,Tire Radius FR,Tire Radius RL,Tire Radius RR,Tire Rubber Grip FL,Tire Rubber Grip FR,Tire Rubber Grip RL,Tire Rubber Grip RR,Tire Slip Angle FL,Tire Slip Angle FR,Tire Slip Angle RL,Tire Slip Angle RR,Tire Slip Ratio FL,Tire Slip Ratio FR,Tire Slip Ratio RL,Tire Slip Ratio RR,Tire Temp Core FL,Tire Temp Core FR,Tire Temp Core RL,Tire Temp Core RR,Tire Temp Inner FL,Tire Temp Inner FR,Tire Temp Inner RL,Tire Temp Inner RR,Tire Temp Middle FL,Tire Temp Middle FR,Tire Temp Middle RL,Tire Temp Middle RR,Tire Temp Outer FL,Tire Temp Outer FR,Tire Temp Outer RL,Tire Temp Outer RR,Toe In FL,Toe In FR,Toe In RL,Toe In RR,Turbo Boost,Wheel Angular Speed FL,Wheel Angular Speed FR,Wheel Angular Speed RL,Wheel Angular Speed RR,Wind Direction,Wind Speed,CG Distance,Lateral Velocity,Longitudinal Velocity,Lateral Acceleration,Longitudinal Acceleration
s,m,deg,deg,mm/s,mm/s,mm/s,mm/s,m,m,km/h,,,,,,,,,%,%,,kg/m3,C,kg,s,s,%,%,C,C,C,C,G,G,G,mm,deg,deg,deg,deg,m,m,m,,,,,,deg,deg,deg,deg/s,deg,deg/s,m/s,m/s,m/s,deg/s,%,,,rad/s,,,MJ,,,,,rpm,,l,,km/h,,,%,kJ,%,MJ,,,s,s,s,s,,l,hp,rpm,mm,mm,mm,mm,N.m,,,,,Hz,mm,mm,mm,mm,C,N.m,N.m,N.m,N.m,,s,deg,%,mm,mm,mm,mm,,,%,,,,,N,N,N,N,mm,mm,mm,mm,psi,psi,psi,psi,mm,mm,mm,mm,%,%,%,%,deg,deg,deg,deg,%,%,%,%,C,C,C,C,C,C,C,C,C,C,C,C,C,C,C,C,deg,deg,deg,deg,,rad/s,rad/s,rad/s,rad/s,deg,km/h,G,Km/h,Km/h,Km/h^2,Km/h^2
0.000,0.0,44.054619111386039,-78.681977820415426,-58.9,39.7,30.9,27.6,5359.8,5360,148.0,0,1,1,0,1,1,0,0,0,100,1,1.186,26.0,0.0,0.00,59.817,66.0,0.0,26.0,26.0,26.0,26.0,-0.12,0.34,0.19,381.2,-3.27,-3.22,-1.92,-1.40,-741.89,689.53,5.7,0.00,0.00,0.00,0.00,0.00,-7.49,-7.49,-0.23,3.04,0.10,-4.72,41.11,-0.08,-0.35,0.66,100.0,0,0,117.24,0,0,0.0,0,0,0,0,7859,0,30.00,3,148.0,0,0,0.0,0.0,0.0,0.0,1,0,0.027,0.027,81.917,22.715,0,110.00,435.8,8750,0.0,0.0,110.0,110.0,433.0,0.00,0,0,1,333.3,72.9,72.9,65.8,65.8,34.0,-27.89,8.27,-36.1,13.6,3,-316.289,0.1,100.0,19.7,23.9,34.7,31.7,0,1,60.9,0.00,0.00,0.00,0.00,4122,2458,5384,5337,315.3,317.0,341.3,340.7,25.87,22.42,24.83,23.68,325.0,325.0,355.0,355.0,99.95,100.00,100.00,100.00,-0.15,-0.11,-0.22,-0.02,-0.1,0.0,1.4,1.5,87.7,66.1,74.9,67.8,98.1,67.7,79.8,70.6,93.8,65.2,78.0,68.4,90.1,64.3,77.5,67.6,0.01,-0.01,0.08,0.07,0.00,126.23,126.15,117.24,117.24,13.4,28.7,0.40755367744629667
0.050,2.1,44.054600855157439,-78.681972964078753,-43.3,-228.7,37.9,102.8,5361.9,5362,148.5,0,1,1,0,1,1,0,0,0,100,1,1.186,26.0,0.0,-0.04,59.817,66.0,0.0,26.0,26.0,26.0,26.0,-0.05,0.29,-0.30,387.7,-1.50,-3.55,-1.49,-2.30,-741.35,687.50,5.7,0.00,0.00,0.00,0.00,0.00,-7.49,-7.49,-0.21,-2.76,-0.10,-1.91,41.26,-0.07,-0.31,0.55,100.0,0,0,117.65,0,0,0.0,0,0,0,0,7887,0,30.00,3,148.5,1,0,0.0,0.0,0.0,0.0,1,0,0.077,0.077,81.917,22.715,1,110.00,435.8,8750,0.0,0.0,110.0,110.0,433.0,0.00,0,0,1,333.3,87.7,87.7,72.9,72.9,34.0,-1.47,0.00,-20.1,22.4,3,-316.344,-0.7,100.0,17.6,12.5,36.6,36.9,0,1,60.9,0.00,0.00,0.00,0.00,815,0,4156,5131,322.5,325.0,343.9,341.3,25.87,22.42,24.83,23.68,325.0,325.0,355.0,355.0,99.95,100.00,100.00,100.00,-0.00,0.00,-0.16,-0.02,0.0,0.0,1.5,1.5,87.7,66.1,74.9,67.8,98.0,67.6,79.8,70.6,93.7,65.2,78.0,68.4,90.1,64.2,77.4,67.6,-0.03,0.02,0.06,0.07,0.00,126.45,126.29,117.65,117.65,13.4,28.7,0.42023802778901387,142.24017580776106,37.810679686877464
0.100,4.1,44.054583588182602,-78.681968377538553,-76.1,17.7,-26.0,-83.0,5363.9,5364,149.0,0,1,1,0,1,1,0,0,0,100,1,1.186,26.0,0.0,-0.04,59.817,66.0,0.0,26.0,26.0,26.0,26.0,-0.02,0.22,-0.19,390.0,-2.20,-1.83,-1.01,-1.54,-740.84,685.58,5.7,0.00,0.00,0.00,0.00,0.00,-7.49,-7.49,-0.51,-7.09,-0.07,1.79,41.40,-0.05,-0.42,0.10,100.0,0,0,118.40,0,0,0.0,0,0,0,0,7937,0,30.00,3,149.0,0,0,0.0,0.0,0.0,0.0,1,0,0.127,0.127,81.917,22.715,0,110.00,435.8,8750,0.0,0.0,110.0,110.0,433.0,0.00,0,0,1,333.3,84.9,84.9,74.7,74.7,34.0,-6.35,4.31,-9.9,5.2,3,-316.389,-2.8,100.0,13.8,13.4,35.3,32.7,0,1,60.9,0.00,0.00,0.00,0.00,2299,1316,2846,2655,319.3,320.3,347.5,347.2,25.87,22.42,24.83,23.68,325.0,325.0,355.0,355.0,99.95,100.00,100.00,100.00,0.02,0.07,-0.17,-0.05,-0.1,-0.0,1.8,1.8,87.7,66.1,74.9,67.8,97.9,67.6,79.7,70.6,93.7,65.1,77.9,68.4,90.0,64.2,77.4,67.6,-0.14,0.14,0.08,0.07,0.00,126.73,126.78,118.40,118.40,13.4,28.7,0.2913760456866693,142.60027750714224,38.17078138625865,54.01525661425012,14.404067975247727
0.150,6.2,44.054565242021845,-78.681963431269722,275.4,209.1,-214.9,-197.4,5366.0,5366,149.5,0,1,1,0,1,1,0,0,0,100,1,1.186,26.0,0.0,-0.05,59.817,66.0,0.0,26.0,26.0,26.0,26.0,0.02,0.38,0.36,382.1,-3.06,-3.73,-1.91,-0.58,-740.29,683.54,5.7,0.00,0.00,0.00,0.00,0.01,-7.49,-7.49,-0.70,2.29,0.15,5.75,41.53,-0.04,-0.47,-1.32,100.0,0,0,119.10,0,0,0.0,0,0,0,0,7984,0,30.00,3,149.5,1,0,0.0,0.0,0.0,0.0,1,0,0.177,0.177,81.917,22.715,1,110.00,435.8,8750,0.0,0.0,110.0,110.0,433.0,0.00,0,0,1,333.3,61.9,61.9,82.8,82.8,34.0,-26.99,50.96,-15.8,7.5,3,-316.433,-5.5,100.0,27.5,23.8,24.5,22.8,0,1,60.9,0.00,0.00,0.00,0.00,5268,5624,3351,4911,310.9,309.4,346.3,342.1,25.87,22.42,24.83,23.68,325.0,325.0,355.0,355.0,99.95,100.00,99.99,100.00,0.02,0.24,-0.17,0.05,-0.1,-0.1,2.3,2.4,87.7,66.1,74.9,67.8,97.8,67.6,79.7,70.6,93.6,65.1,77.9,68.3,89.9,64.2,77.4,67.6,-0.29,0.29,0.09,0.10,0.00,127.98,127.65,119.10,119.10,13.4,28.7,0.5238320341483518,147.64170146918607,39.25108648440224,10.80305155045977,3.6010164247883125
0.200,8.3,44.054546715996757,-78.681958574933049,-107.0,112.3,76.5,169.8,5368.1,5368,150.1,0,1,1,0,1,1,0,0,0,100,1,1.186,26.0,0.0,-0.06,59.817,66.0,0.0,26.0,26.0,26.0,26.0,0.21,0.36,0.10,379.9,-3.03,-1.50,-1.59,-2.52,-739.75,681.48,5.7,0.00,0.00,0.00,0.00,0.01,-7.49,-7.49,-0.38,7.74,0.06,-7.59,41.69,-0.01,-0.30,-3.24,100.0,0,0,118.88,0,0,0.0,0,0,0,0,7970,0,30.00,3,150.1,0,0,0.0,0.0,0.0,0.0,1,0,0.227,0.227,81.917,22.715,0,110.00,435.8,8750,0.0,0.0,110.0,110.0,433.0,0.00,0,0,1,333.3,68.8,68.8,65.6,65.6,34.0,-0.03,29.15,-15.4,54.8,3,-316.489,-7.8,100.0,22.2,29.4,28.4,31.3,0,1,60.9,0.00,0.00,0.00,0.00,2133,4111,5314,6292,319.4,313.2,341.2,338.4,25.88,22.42,24.83,23.69,325.0,325.0,355.0,355.0,99.95,100.00,99.99,100.00,0.35,0.38,0.03,0.26,-0.1,-0.0,1.6,1.3,87.7,66.1,75.0,67.8,97.7,67.6,79.7,70.6,93.5,65.1,77.9,68.3,89.8,64.2,77.3,67.6,-0.42,0.43,0.09,0.06,0.00,127.98,128.23,118.89,118.89,13.4,28.7,0.4286023798347368,143.68058266218821,38.530883028737485,-39.61118835449099,-3.6010175628356222
0.250,10.4,44.054529359089763,-78.681953808528547,-48.4,-158.5,307.8,263.0,5370.2,5370,150.6,0,1,1,0,1,1,0,0,0,100,1,1.186,26.0,0.0,-0.07,59.817,66.0,0.0,26.0,26.0,26.0,26.0,0.19,0.31,0.00,376.7,-2.03,-2.73,-2.76,-1.75,-739.22,679.55,5.7,0.00,0.00,0.00,0.00,0.01,-7.49,-7.49,-0.21,0.66,-0.22,-5.10,41.83,0.01,-0.29,-3.70,100.0,0,0,119.29,0,0,0.0,0,0,0,0,7997,0,30.00,3,150.6,1,0,0.0,0.0,0.0,0.0,1,0,0.277,0.277,81.917,22.715,1,110.00,435.8,8750,0.0,0.0,110.0,110.0,433.0,0.00,0,0,1,333.3,75.1,75.1,59.1,59.1,34.0,7.54,24.08,-17.9,41.2,3,-316.544,-9.7,100.0,19.8,21.5,43.8,44.5,0,1,60.9,0.00,0.00,0.00,0.00,2789,2782,4708,6024,317.3,317.0,343.0,339.0,25.88,22.42,24.83,23.69,325.0,325.0,355.0,355.0,99.95,100.00,99.99,100.00,0.46,0.45,0.13,0.23,-0.0,-0.1,1.5,1.3,87.7,66.1,75.0,67.8,97.7,67.5,79.7,70.6,93.5,65.1,77.9,68.3,89.8,64.2,77.3,67.6,-0.53,0.54,0.05,0.05,0.00,128.19,128.35,119.29,119.29,13.4,28.7,0.36359317925395684,143.68058263373698,38.890984728118674,50.41423905141414,18.005086107106933
0.300,12.5,44.054510833064683,-78.681948862259716,-70.6,-131.1,-94.3,-74.2,5372.3,5372,151.1,0,1,1,0,1,1,0,0,0,100,1,1.186,26.0,0.0,-0.08,59.817,66.0,0.0,26.0,26.0,26.0,26.0,0.26,0.35,0.05,381.4,-2.50,-2.59,-2.06,-2.14,-738.67,677.49,5.7,0.00,0.00,0.00,0.00,0.01,-7.49,-7.49,-0.34,-4.78,-0.40,-0.43,41.99,0.06,-0.31,-4.44,100.0,0,0,119.46,0,0,0.0,0,0,0,0,8008,0,30.00,3,151.1,0,0,0.0,0.0,0.0,0.0,1,0,0.327,0.327,81.917,22.715,0,110.00,435.8,8750,0.0,0.0,110.0,110.0,433.0,0.00,0,0,1,333.3,79.4,79.4,63.4,63.4,34.0,10.44,32.62,-11.6,32.1,3,-316.589,-11.7,100.0,16.2,15.0,39.0,40.8,0,1,60.9,0.00,0.00,0.00,0.00,3457,3237,5422,4196,316.7,316.3,340.6,343.0,25.88,22.42,24.84,23.69,325.0,325.0,355.0,355.0,99.95,100.00,99.99,100.00,0.55,0.62,0.16,0.27,-0.1,-0.1,1.6,1.3,87.7,66.1,75.0,67.8,97.6,67.5,79.6,70.6,93.4,65.0,77.8,68.3,89.7,64.1,77.3,67.6,-0.64,0.65,0.06,0.06,0.00,128.41,128.75,119.46,119.46,13.4,28.7,0.4388621651498338,148.72200656732963,40.33139163944818,10.803051265947943,14.404069113295037
0.350,14.6,44.054492217107445,-78.681943736126556,-60.6,58.1,-139.8,-182.6,5374.4,5374,151.6,0,1,1,0,1,1,0,0,0,100,1,1.186,26.0,0.0,-0.10,59.817,66.0,0.0,26.0,26.0,26.0,26.0,0.24,0.27,-0.47,389.3,-2.90,-2.88,-1.97,-1.59,-738.10,675.42,5.7,0.00,0.00,0.00,0.00,0.01,-7.49,-7.49,-0.55,-3.87,-0.22,3.59,42.11,0.14,-0.38,-6.33,100.0,0,0,120.78,0,0,0.0,0,0,0,0,8097,0,30.00,3,151.6,1,0,0.0,0.0,0.0,0.0,1,0,0.377,0.377,81.917,22.715,1,110.00,435.8,8750,0.0,0.0,110.0,110.0,433.0,0.00,0,0,1,333.3,82.8,82.8,73.0,73.0,34.0,4.92,23.53,-0.5,26.7,3,-316.644,-12.9,100.0,13.2,17.9,32.0,31.6,0,1,60.9,0.00,0.00,0.00,0.00,1592,2322,2722,3834,321.3,318.3,347.9,345.2,25.88,22.42,24.84,23.69,325.0,325.0,355.0,355.0,99.95,100.00,99.99,100.00,0.68,0.66,0.28,0.41,-0.1,-0.0,2.3,1.9,87.8,66.1,75.0,67.8,97.5,67.5,79.6,70.6,93.3,65.0,77.8,68.3,89.6,64.1,77.3,67.6,-0.74,0.72,0.08,0.07,0.00,128.62,129.21,120.79,120.78,13.4,28.7,0.5927900134111572,144.76088776033177,40.33139163944818,-36.01017079165473,3.6010169938120384
0.400,16.7,44.054474680336128,-78.681938789857725,172.4,69.0,-71.2,74.0,5376.5,5377,152.1,0,1,1,0,1,1,0,0,0,100,1,1.186,26.0,0.0,-0.11,59.817,66.0,0.0,26.0,26.0,26.0,26.0,0.47,0.19,0.20,381.9,-3.10,-2.43,-2.25,-1.55,-737.55,673.47,5.7,0.00,0.00,0.00,0.00,0.01,-7.49,-7.49,-0.72,-1.83,-0.10,3.26,42.25,0.20,-0.49,-8.30,100.0,0,0,120.80,0,0,0.0,0,0,0,0,8098,0,30.00,3,152.1,0,0,0.0,0.0,0.0,0.0,1,0,0.427,0.427,81.917,22.715,0,110.00,435.8,8750,0.0,0.0,110.0,110.0,433.0,0.00,0,0,1,166.7,67.7,67.7,79.9,79.9,34.0,15.78,69.64,1.5,40.4,3,-316.689,-12.9,100.0,21.8,21.3,28.5,35.3,0,1,60.9,0.00,0.00,0.00,0.00,4686,5415,2066,4247,313.1,310.1,349.2,343.3,25.88,22.42,24.84,23.69,325.0,325.0,355.0,355.0,99.95,100.00,99.99,100.00,0.63,0.79,0.43,0.56,-0.0,-0.1,1.9,1.4,87.8,66.1,75.0,67.8,97.5,67.5,79.6,70.6,93.2,65.0,77.8,68.3,89.6,64.1,77.2,67.6,-0.75,0.74,0.09,0.06,0.00,129.41,129.93,120.80,120.80,13.4,28.7,0.5449770637375485,145.12098948816416,40.69149333882938,50.41423962043808,25.207119525707355
0.450,18.8,44.054455974446725,-78.681933573792406,-18.9,22.5,-90.1,-15.7,5378.6,5379,152.6,0,1,1,0,1,1,0,0,0,100,1,1.186,26.0,0.0,-0.13,59.817,66.0,0.0,26.0,26.0,26.0,26.0,0.50,0.37,-0.09,383.2,-2.17,-3.18,-2.09,-1.09,-736.97,671.39,5.7,0.00,0.00,0.00,0.00,0.01,-7.49,-7.49,-0.59,3.12,0.13,4.46,42.39,0.34,-0.36,-9.67,100.0,0,0,120.91,0,0,0.0,0,0,0,0,8106,0,30.00,3,152.6,1,0,0.0,0.0,0.0,0.0,1,0,0.477,0.477,81.917,22.715,1,110.00,435.8,8750,0.0,0.0,110.0,110.0,433.0,0.00,0,0,1,333.3,73.4,73.4,77.9,77.9,34.0,18.03,32.07,13.8,68.4,3,-316.744,-11.8,100.0,20.9,22.4,24.0,34.6,0,1,60.9,0.00,0.00,0.00,0.00,3157,2766,5105,5732,317.0,317.1,342.5,339.6,25.88,22.42,24.84,23.69,325.0,325.0,355.0,355.0,99.95,100.00,99.99,100.00,0.77,0.77,0.57,0.79,-0.1,-0.1,2.0,1.2,87.8,66.1,75.0,67.8,97.4,67.5,79.6,70.6,93.2,65.0,77.7,68.3,89.5,64.1,77.2,67.6,-0.69,0.67,0.09,0.06,0.00,129.55,130.48,120.92,120.92,13.4,28.7,0.6284902544988268,149.80231172237558,42.85210359201891,3.601017278323866,21.606102531895317
0.500,20.9,44.054437268557322,-78.681928087930615,-27.2,8.8,190.4,143.8,5380.8,5381,153.1,0,1,1,0,1,1,0,0,0,100,1,1.186,26.0,0.0,-0.13,59.817,66.0,0.0,26.0,26.0,26.0,26.0,0.54,0.24,0.10,379.2,-3.73,-2.58,-1.88,-0.61,-736.36,669.31,5.7,0.00,0.00,0.00,0.00,0.01,-7.49,-7.49,-0.56,0.31,0.51,8.54,42.52,0.40,-0.40,-8.70,100.0,0,0,121.54,0,0,0.0,0,0,0,0,8148,0,30.00,3,153.1,0,0,0.0,0.0,0.0,0.0,0,0,0.527,0.527,81.917,22.715,0,110.00,435.8,8750,0.0,0.0,110.0,110.0,433.0,0.00,0,0,1,333.3,71.1,71.1,70.1,70.1,34.0,11.45,60.52,9.9,59.7,3,-316.789,-10.4,100.0,19.5,22.9,33.5,41.7,0,1,60.9,0.00,0.00,0.00,0.00,3171,4622,2658,5593,316.6,311.6,347.3,339.8,25.88,22.42,24.84,23.69,325.0,325.0,355.0,355.0,99.95,100.00,99.99,100.00,0.76,0.82,0.67,0.77,-0.1,-0.1,1.9,1.4,87.8,66.1,75.0,67.8,97.3,67.5,79.5,70.6,93.1,65.0,77.7,68.3,89.5,64.1,77.2,67.6,-0.60,0.61,0.08,0.05,0.00,130.07,130.79,121.54,121.54,13.4,28.7,0.5993329625508679,145.48109121599654,42.85210359201891,-39.611188069978596,7.202033987623864
0.550,23.1,44.054419641853841,-78.681922871865297,-129.7,-31.1,-97.0,16.0,5382.9,5383,153.6,0,1,1,0,1,1,0,0,0,100,1,1.186,26.0,0.0,-0.15,59.817,66.0,0.0,26.0,26.0,26.0,26.0,0.51,0.31,-0.11,384.2,-2.88,-1.62,-2.70,-0.50,-735.78,667.35,5.7,0.00,0.00,0.00,0.00,0.02,-7.49,-7.49,-0.55,-1.47,0.71,-0.64,42.66,0.48,-0.33,-7.73,100.0,0,0,121.57,0,0,0.0,0,0,0,0,8150,0,30.00,3,153.6,1,0,0.0,0.0,0.0,0.0,0,0,0.577,0.577,81.917,22.715,1,110.00,435.8,8750,0.0,0.0,110.0,110.0,433.0,0.00,0,0,1,333.3,82.1,82.1,65.5,65.5,34.0,0.00,47.43,16.5,75.9,3,-316.833,-8.4,100.0,13.0,21.3,28.7,42.5,0,1,60.9,0.00,0.00,0.00,0.00,0,4007,4392,6122,325.0,314.2,343.9,338.7,25.89,22.42,24.84,23.69,325.0,325.0,355.0,355.0,99.95,100.00,99.99,100.00,0.00,0.90,0.78,0.94,0.0,-0.1,1.8,1.3,87.8,66.1,75.0,67.8,97.2,67.5,79.5,70.6,93.0,65.0,77.7,68.3,89.4,64.1,77.2,67.6,-0.49,0.49,0.08,0.03,0.00,130.28,131.09,121.57,121.57,13.4,28.7,0.6068772528279504,145.84119291537772,43.5723069907813,50.41423905141443,32.4091540823548
0.600,25.2,44.054400846032280,-78.681917206139190,-38.4,-47.7,49.1,-88.6,5385.0,5385,154.0,0,1,1,0,1,1,0,0,0,100,1,1.186,26.0,0.0,-0.16,59.817,66.0,0.0,26.0,26.0,26.0,26.0,0.46,0.27,-0.34,386.7,-3.08,-1.84,-3.08,-1.75,-735.15,665.26,5.7,0.00,0.00,0.00,0.00,0.02,-7.49,-7.49,-0.72,-4.74,0.54,-3.44,42.79,0.49,-0.39,-6.00,100.0,0,0,122.31,0,0,0.0,0,0,0,0,8199,0,30.00,3,154.0,0,0,0.0,0.0,0.0,0.0,0,0,0.627,0.627,81.917,22.715,0,110.00,435.8,8750,0.0,0.0,110.0,110.0,433.0,0.00,0,0,1,333.3,82.1,82.1,68.7,68.7,34.0,5.73,40.07,11.3,42.2,3,-316.889,-5.3,100.0,11.1,18.9,31.1,38.1,0,1,60.9,0.00,0.00,0.00,0.00,1583,3538,3589,3484,321.5,315.3,345.7,345.2,25.89,22.42,24.84,23.69,325.0,325.0,355.0,355.0,99.95,100.00,99.99,100.00,0.78,0.83,0.80,0.93,-0.1,-0.1,2.0,1.6,87.8,66.1,75.0,67.8,97.2,67.5,79.5,70.6,93.0,65.0,77.7,68.3,89.3,64.1,77.1,67.6,-0.33,0.32,0.08,0.06,0.00,130.75,131.23,122.31,122.31,13.4,28.7,0.6325345840347388,150.52251512113799,46.093019000254394,3.601016993811754,18.005086107107005
0.650,27.4,44.054382050210720,-78.681911360548739,28.9,9.3,-78.4,-81.0,5387.2,5387,154.5,0,1,1,0,1,1,0,0,0,100,1,1.186,26.0,0.0,-0.17,59.817,66.0,0.0,26.0,26.0,26.0,26.0,0.33,0.21,-0.21,389.1,-2.45,-2.38,-2.51,-1.03,-734.50,663.17,5.7,0.00,0.00,0.00,0.00,0.02,-7.49,-7.49,-0.92,-3.90,0.27,-6.00,42.93,0.48,-0.43,-5.17,100.0,0,0,122.81,0,0,0.0,0,0,0,0,8233,0,30.00,3,154.5,1,0,0.0,0.0,0.0,0.0,0,0,0.677,0.677,81.917,22.715,1,110.00,435.8,8750,0.0,0.0,110.0,110.0,433.0,0.00,0,0,1,166.7,80.8,80.8,75.5,75.5,34.0,7.27,27.72,11.9,20.8,3,-316.933,-0.9,100.0,12.6,19.4,27.2,34.1,0,1,60.9,0.00,0.00,0.00,0.00,2354,2814,3274,2287,319.6,316.9,346.5,349.3,25.89,22.42,24.84,23.69,325.0,325.0,355.0,355.0,99.95,100.00,99.99,100.00,0.59,0.63,0.76,0.90,-0.0,-0.1,2.0,1.6,87.8,66.1,75.0,67.8,97.1,67.4,79.5,70.6,92.9,65.0,77.6,68.3,89.2,64.0,77.1,67.6,-0.09,0.08,0.09,0.05,0.00,131.25,131.72,122.82,122.81,13.4,28.7,0.4439594576084623,146.2012946147589,45.372815601492,-43.21220477927881,-5.690237259159403e-07
0.700,29.5,44.054364333575080,-78.681905874686947,15.8,-32.7,-4.9,-71.6,5389.3,5389,155.0,0,1,1,0,1,1,0,0,0,100,1,1.186,26.0,0.0,-0.18,59.817,66.0,0.0,26.0,26.0,26.0,26.0,0.31,0.29,-0.24,388.4,-2.04,-1.24,-2.25,-1.50,-733.89,661.20,5.7,0.00,0.00,0.00,0.00,0.02,-7.49,-7.49,-1.07,-3.70,0.13,-1.39,43.06,0.45,-0.42,-2.55,100.0,0,0,123.01,0,0,0.0,0,0,0,0,8246,0,30.00,3,155.0,0,0,0.0,0.0,0.0,0.0,0,0,0.727,0.727,81.917,22.715,0,110.00,435.8,8750,0.0,0.0,110.0,110.0,433.0,0.00,0,0,1,333.3,81.9,81.9,77.3,77.3,34.0,1.91,15.53,9.2,55.3,3,-316.989,4.1,100.0,13.3,17.8,26.9,30.5,0,1,60.9,0.00,0.00,0.00,0.00,1959,2791,3430,4769,319.8,318.0,346.3,341.8,25.89,22.42,24.84,23.70,325.0,325.0,355.0,355.0,99.95,100.00,99.99,100.00,0.32,0.36,0.62,0.80,-0.1,-0.0,1.8,1.7,87.8,66.1,75.0,67.8,97.0,67.4,79.4,70.6,92.8,64.9,77.6,68.3,89.2,64.0,77.1,67.6,0.21,-0.21,0.09,0.06,0.00,131.78,132.01,123.01,123.01,13.4,28.7,0.48764741360946434,146.2012946432101,46.09301894335202,46.813222342114216,28.80813651951918
0.750,31.7,44.054345537753512,-78.681899849232195,30.5,-47.5,-16.0,-10.4,5391.5,5391,155.5,0,1,1,0,1,1,0,0,0,100,1,1.186,26.0,0.0,-0.20,59.817,66.0,0.0,26.0,26.0,26.0,26.0,0.10,0.26,-0.19,387.1,-2.39,-1.94,-1.82,-1.20,-733.22,659.11,5.7,0.00,0.00,0.00,0.00,0.02,-7.49,-7.49,-1.30,-4.37,0.03,-1.10,43.20,0.38,-0.45,0.77,100.0,0,0,123.53,0,0,0.0,0,0,0,0,8281,0,30.00,3,155.5,1,0,0.0,0.0,0.0,0.0,0,0,0.777,0.777,81.917,22.715,1,110.00,435.8,8750,0.0,0.0,110.0,110.0,433.0,0.00,0,0,1,333.3,76.4,76.4,84.1,84.1,34.0,-31.94,11.69,3.8,28.0,3,-317.044,10.2,100.0,14.9,15.4,26.1,30.0,0,1,60.9,0.00,0.00,0.00,0.00,6166,3289,3058,3523,311.1,316.0,347.1,345.4,25.89,22.42,24.84,23.70,325.0,325.0,355.0,355.0,99.95,100.00,99.99,100.00,-0.09,0.06,0.41,0.58,-0.1,-0.1,1.9,1.9,87.8,66.1,75.0,67.8,96.9,67.4,79.4,70.6,92.7,64.9,77.6,68.3,89.1,64.0,77.0,67.6,0.54,-0.55,0.10,0.07,0.00,132.43,132.35,123.54,123.53,13.4,28.7,0.3371943060017473,150.88261684897032,48.25362925344392,10.803050981435831,7.2020351256713155
0.800,33.8,44.054326651999794,-78.681893823777429,275.3,236.6,-41.8,-49.6,5393.7,5394,155.9,0,1,1,0,1,1,0,0,0,100,1,1.186,26.0,0.0,-0.21,59.817,66.0,0.0,26.0,26.0,26.0,26.0,-0.07,0.30,0.11,379.7,-1.76,-2.86,-1.60,-0.99,-732.55,657.01,5.6,0.00,0.00,0.00,0.00,0.02,-7.49,-7.49,-1.24,7.06,0.09,0.96,43.32,0.26,-0.44,4.60,100.0,0,0,124.26,0,0,0.0,0,0,0,0,8330,0,30.00,3,155.9,0,0,0.0,0.0,0.0,0.0,0,0,0.827,0.827,81.917,22.715,0,110.00,435.8,8750,0.0,0.0,110.0,110.0,433.0,0.00,0,0,1,333.3,61.1,61.1,81.3,81.3,34.0,-41.15,5.70,-6.3,19.5,3,-317.089,14.3,100.0,28.6,27.2,24.1,27.5,0,1,60.9,0.00,0.00,0.00,0.00,5395,4704,4070,4008,311.2,311.9,344.7,344.6,25.89,22.42,24.84,23.70,325.0,325.0,355.0,355.0,99.95,100.00,99.99,100.00,-0.34,-0.24,0.11,0.31,-0.1,-0.0,1.9,2.1,87.8,66.1,75.0,67.9,96.9,67.4,79.4,70.5,92.7,64.9,77.5,68.3,89.1,64.0,77.0,67.6,0.80,-0.79,0.09,0.08,0.00,133.31,132.94,124.26,124.26,13.4,28.7,0.32710854467592254,147.2815997413537,46.81322245591915,-28.808136804030653,-14.404068544271311
0.850,36.0,44.054308755499832,-78.681888158051308,-61.8,-51.3,380.4,273.5,5395.8,5396,156.5,0,1,1,0,1,1,0,0,0,100,1,1.186,26.0,0.0,-0.22,59.817,66.0,0.0,26.0,26.0,26.0,26.0,-0.17,0.28,0.25,373.2,-2.60,-3.12,-1.19,-1.52,-731.92,655.02,5.6,0.00,0.00,0.00,0.00,0.02,-7.49,-7.49,-0.84,6.15,0.20,2.86,43.48,0.11,-0.28,7.75,100.0,0,0,123.64,0,0,0.0,0,0,0,0,8289,0,30.00,3,156.5,1,0,0.0,0.0,0.0,0.0,0,0,0.877,0.877,81.917,22.715,1,110.00,435.8,8750,0.0,0.0,110.0,110.0,433.0,0.00,0,0,1,333.3,71.1,71.1,57.0,57.0,34.0,-21.96,-6.96,-29.5,25.0,3,-317.133,16.5,100.0,25.5,24.7,43.1,41.2,0,1,60.9,0.00,0.00,0.00,0.00,2448,3315,5797,6867,318.9,316.2,340.2,336.5,25.89,22.42,24.85,23.70,325.0,325.0,355.0,355.0,99.95,100.00,99.99,100.00,-0.54,-0.55,-0.17,0.02,0.0,0.0,0.8,1.4,87.8,66.1,75.0,67.9,96.8,67.3,79.3,70.5,92.6,64.9,77.5,68.3,89.0,64.0,77.0,67.6,0.94,-0.95,0.05,0.04,0.00,133.73,133.18,123.65,123.64,13.4,28.7,0.4120679555607303,148.00180316856725,46.81322239901679,57.6162738925737,10.80305098143576
0.900,38.2,44.054289689881792,-78.681882132596556,-182.3,-169.3,83.1,52.1,5398.0,5398,157.0,0,1,1,0,1,1,0,0,0,100,1,1.186,26.0,0.0,-0.23,59.817,66.0,0.0,26.0,26.0,26.0,26.0,-0.35,0.29,-0.08,378.1,-2.48,-1.92,-0.72,-2.42,-731.25,652.90,5.6,0.00,0.00,0.00,0.00,0.02,-7.49,-7.49,-0.80,-3.65,0.03,-3.83,43.62,-0.07,-0.29,8.46,100.0,0,0,124.04,0,0,0.0,0,0,0,0,8315,0,30.00,3,157.0,0,0,0.0,0.0,0.0,0.0,0,0,0.927,0.927,81.917,22.715,0,110.00,435.8,8750,0.0,0.0,110.0,110.0,433.0,0.00,0,0,1,333.3,81.4,81.4,53.9,53.9,34.0,-26.47,-12.66,-39.4,6.2,3,-317.189,16.4,100.0,16.4,16.2,47.2,43.8,0,1,60.9,0.00,0.00,0.00,0.00,2525,2400,5860,4303,318.9,318.4,339.1,343.3,25.89,22.42,24.85,23.70,325.0,325.0,355.0,355.0,99.95,100.00,99.99,100.00,-0.75,-0.75,-0.35,-0.26,-0.0,-0.1,1.0,1.5,87.8,66.1,75.1,67.9,96.7,67.3,79.3,70.5,92.6,64.8,77.5,68.3,88.9,63.9,77.0,67.6,0.95,-0.96,0.05,0.03,0.00,133.98,133.15,124.04,124.03,13.4,28.7,0.461519230368573,153.04322713061106,47.89352755406273,10.803051550459486,-10.803050981435831
0.950,40.4,44.054270534331579,-78.681876197073947,108.3,-22.3,-215.7,-160.7,5400.2,5400,157.4,0,1,1,0,1,1,0,0,0,100,1,1.186,26.0,0.0,-0.25,59.817,66.0,0.0,26.0,26.0,26.0,26.0,-0.51,0.20,-0.01,381.5,-1.92,-3.52,-0.44,-1.59,-730.59,650.77,5.6,0.00,0.00,0.00,0.00,0.03,-7.49,-7.49,-1.02,-3.25,-0.14,-3.63,43.74,-0.23,-0.40,10.72,100.0,0,0,125.03,0,0,0.0,0,0,0,0,8382,0,30.00,3,157.4,1,0,0.0,0.0,0.0,0.0,0,0,0.977,0.977,81.917,22.715,1,110.00,435.8,8750,0.0,0.0,110.0,110.0,433.0,0.00,0,0,1,333.3,73.5,73.5,74.3,74.3,34.0,-76.78,-9.89,-40.9,-6.6,3,-317.244,14.3,100.0,21.8,15.1,36.4,35.7,0,1,60.9,0.00,0.00,0.00,0.00,5797,2709,4714,2339,310.7,317.0,342.6,348.7,25.90,22.42,24.85,23.70,325.0,325.0,355.0,355.0,99.95,100.00,99.99,100.00,-0.85,-0.76,-0.65,-0.56,-0.1,-0.0,1.4,2.0,87.8,66.1,75.1,67.9,96.7,67.3,79.3,70.5,92.5,64.8,77.5,68.3,88.9,63.9,76.9,67.5,0.85,-0.87,0.07,0.04,0.00,134.56,133.53,125.03,125.03,13.4,28.7,0.547905101272109,149.0821083236132,45.732917300873204,-36.010171360678385,-28.808137088542765
1.000,42.6,44.054252457967301,-78.681870711212156,66.4,74.8,10.4,-189.7,5402.4,5402,157.9,0,1,1,0,1,1,0,0,0,100,1,1.186,26.0,0.0,-0.26,59.817,66.0,0.0,26.0,26.0,26.0,26.0,-0.61,0.31,-0.04,381.7,-2.59,-2.87,-0.85,-1.79,-729.98,648.76,5.6,0.00,0.00,0.00,0.00,0.03,-7.49,-7.49,-1.03,1.56,-0.20,1.67,43.86,-0.39,-0.40,11.81,100.0,0,0,125.32,0,0,0.0,0,0,0,0,8401,0,30.00,3,157.9,0,0,0.0,0.0,0.0,0.0,1,0,1.027,1.027,81.917,22.715,0,110.00,435.8,8750,0.0,0.0,110.0,110.0,433.0,0.00,0,0,1,333.3,72.5,72.5,70.8,70.8,34.0,-53.77,-11.21,-62.5,-19.8,3,-317.289,11.4,100.0,25.2,18.8,37.0,26.2,0,1,60.9,0.00,0.00,0.00,0.00,4180,2482,4955,3963,314.2,318.2,341.5,344.7,25.90,22.42,24.85,23.70,325.0,325.0,355.0,355.0,99.95,100.00,99.99,100.00,-0.81,-0.79,-0.94,-0.79,-0.1,-0.1,1.3,2.1,87.9,66.1,75.1,67.9,96.6,67.3,79.3,70.5,92.5,64.8,77.5,68.3,88.9,63.9,76.9,67.5,0.67,-0.69,0.06,0.07,0.00,135.04,133.98,125.32,125.32,13.4,28.7,0.6854195795277518,149.44220999454322,45.01271384520845,57.61627332355005,0.0
1.050,44.8,44.054233212484938,-78.681864955553877,-39.7,-41.8,52.5,143.4,5404.6,5405,158.4,0,1,1,0,1,1,0,0,0,100,1,1.186,26.0,0.0,-0.27,59.817,66.0,0.0,26.0,26.0,26.0,26.0,-0.56,0.25,0.00,381.0,-1.59,-3.04,-1.91,-2.38,-729.34,646.62,5.5,0.00,0.00,0.00,0.00,0.03,-7.49,-7.49,-1.03,-1.44,-0.13,-1.25,43.99,-0.49,-0.42,9.49,100.0,0,0,125.40,0,0,0.0,0,0,0,0,8407,0,30.00,3,158.4,1,0,0.0,0.0,0.0,0.0,1,0,1.077,1.077,81.917,22.715,1,110.00,435.8,8750,0.0,0.0,110.0,110.0,433.0,0.00,0,0,1,333.3,76.3,76.3,67.3,67.3,34.0,-33.98,-11.81,-77.5,-20.0,3,-317.333,8.7,100.0,23.2,16.7,39.6,33.4,0,1,60.5,0.00,0.00,0.00,0.00,3047,2379,5262,3833,317.3,318.0,341.7,344.2,25.90,22.42,24.85,23.70,325.0,325.0,355.0,355.0,99.95,100.00,99.99,100.00,-0.87,-0.85,-1.01,-0.87,-0.0,-0.1,1.1,1.8,87.9,66.1,75.1,67.9,96.6,67.2,79.3,70.5,92.4,64.8,77.5,68.3,88.8,63.8,76.9,67.5,0.53,-0.55,0.07,0.06,0.00,135.22,134.43,125.41,125.40,13.4,28.7,0.6132699242584786,154.8437356559682,45.732917300873204,18.005085822595106,-18.00508553808342
1.100,47.0,44.054213787138252,-78.681859289827756,90.0,96.1,4.0,-108.3,5406.8,5407,158.8,0,1,1,0,1,1,0,0,0,100,1,1.186,26.0,0.0,-0.28,59.817,66.0,0.0,26.0,26.0,26.0,26.0,-0.69,0.28,0.25,377.9,-2.65,-2.98,-1.01,-0.86,-728.71,644.46,5.5,0.00,0.00,0.00,0.00,0.03,-7.49,-7.49,-1.04,2.59,-0.27,-1.21,44.11,-0.52,-0.45,9.37,100.0,0,0,125.97,0,0,0.0,0,0,0,0,8445,0,30.00,3,158.8,0,0,0.0,0.0,0.0,0.0,1,0,1.127,1.127,81.917,22.715,0,110.00,435.8,8750,0.0,0.0,110.0,110.0,433.0,0.00,0,0,1,333.3,67.0,67.0,68.0,68.0,34.0,-74.18,-11.99,-68.6,-27.7,3,-317.389,5.5,100.0,27.7,21.5,39.8,28.0,0,1,60.5,0.00,0.00,0.00,0.00,5543,3285,5062,3804,311.0,315.8,341.3,344.8,25.90,22.42,24.85,23.70,325.0,325.0,355.0,355.0,99.95,100.00,99.99,100.00,-0.77,-0.68,-1.02,-0.86,-0.1,-0.0,1.4,1.9,87.9,66.1,75.1,67.9,96.5,67.2,79.3,70.5,92.4,64.8,77.5,68.2,88.8,63.8,76.9,67.5,0.37,-0.36,0.06,0.08,0.00,135.78,134.95,125.98,125.98,13.4,28.7,0.7854934754662192,151.24271857680273,43.21220529140011,-28.808136519518825,-36.010171645190496
1.150,49.2,44.054195440977487,-78.681854163694609,-146.3,-134.0,40.6,60.1,5409.0,5409,159.3,0,1,1,0,1,1,0,0,0,100,1,1.186,26.0,0.0,-0.29,59.817,66.0,0.0,26.0,26.0,26.0,26.0,-0.54,0.31,-0.10,382.5,-1.98,-3.12,-1.21,-1.54,-728.14,642.42,5.5,0.00,0.00,0.00,0.00,0.03,-7.49,-7.49,-0.87,1.27,-0.39,-2.59,44.24,-0.55,-0.31,6.03,100.0,0,0,125.82,0,0,0.0,0,0,0,0,8435,0,30.00,3,159.3,1,0,0.0,0.0,0.0,0.0,1,0,1.177,1.177,81.917,22.715,1,110.00,435.8,8750,0.0,0.0,110.0,110.0,433.0,0.00,0,0,1,333.3,82.8,82.8,61.8,61.8,34.0,-17.00,-2.25,-97.2,-34.9,3,-317.433,1.7,100.0,20.4,14.8,41.8,31.0,0,1,60.5,0.00,0.00,0.00,0.00,2094,884,6579,5302,320.1,322.4,338.1,341.3,25.90,22.42,24.86,23.70,325.0,325.0,355.0,355.0,99.95,100.00,99.99,100.00,-0.59,-0.69,-1.00,-0.80,-0.0,-0.1,1.1,1.5,87.9,66.1,75.1,67.9,96.5,67.2,79.3,70.5,92.3,64.7,77.5,68.2,88.7,63.8,76.9,67.5,0.13,-0.14,0.06,0.06,0.00,135.90,135.24,125.82,125.82,13.4,28.7,0.6306346010171024,151.96292200401632,42.131900136354155,104.42949595017637,10.803051550459415
1.200,51.4,44.054175835766479,-78.681848767764976,-60.5,-46.1,7.2,38.5,5411.2,5411,159.7,0,1,1,0,1,1,0,0,0,100,1,1.186,26.0,0.0,-0.29,59.817,66.0,0.0,26.0,26.0,26.0,26.0,-0.33,0.14,-0.25,384.7,-1.84,-3.10,-1.70,-2.54,-727.54,640.24,5.5,0.00,0.00,0.00,0.00,0.03,-7.49,-7.49,-1.06,-5.65,-0.49,-1.10,44.36,-0.47,-0.42,2.59,100.0,0,0,126.85,0,0,0.0,0,0,0,0,8503,0,30.00,3,159.7,0,0,0.0,0.0,0.0,0.0,1,0,1.227,1.227,81.917,22.715,0,110.00,435.8,8750,0.0,0.0,110.0,110.0,433.0,0.00,0,0,1,333.3,79.7,79.7,69.0,69.0,34.0,-36.54,-0.22,-40.1,-3.8,3,-317.489,-2.4,100.0,17.3,12.5,42.2,32.9,0,1,60.9,0.00,0.00,0.00,0.00,4288,2873,3835,1857,314.6,317.6,345.4,349.9,25.90,22.42,24.86,23.70,325.0,325.0,355.0,355.0,99.95,100.00,99.99,100.00,-0.46,-0.37,-0.72,-0.63,-0.1,-0.1,1.5,1.8,87.9,66.1,75.1,67.9,96.4,67.2,79.3,70.5,92.3,64.7,77.4,68.2,88.7,63.8,76.9,67.5,-0.11,0.11,0.05,0.06,0.00,135.98,135.70,126.85,126.84,13.4,28.7,0.43703546766824314,161.68566817182037,44.29251044644605,7.202033987623793,-10.803050981435831
1.250,53.6,44.054155061437385,-78.681843102038854,190.3,73.9,-216.6,-136.1,5413.4,5413,159.6,0,1,1,0,1,1,0,0,0,100,1,1.186,26.0,0.0,-0.31,59.817,66.0,0.0,26.0,26.0,26.0,26.0,-0.34,-0.11,0.03,381.8,-1.66,-2.70,-0.74,-2.10,-726.91,637.93,5.5,0.00,0.00,0.00,0.00,0.03,-7.49,-7.49,-1.23,-0.86,-0.39,4.74,44.33,-0.37,-0.45,1.12,100.0,0,0,124.51,0,0,0.0,0,0,0,0,8090,0,30.00,0,159.6,1,0,0.0,0.0,0.0,0.0,1,0,1.280,1.280,81.917,22.715,1,110.00,435.8,8750,0.0,0.0,110.0,110.0,433.0,0.00,0,0,1,166.7,67.2,67.2,83.6,83.6,34.0,-54.35,7.40,-42.6,-6.2,3,-317.544,-5.6,100.0,26.9,16.2,31.4,26.1,0,1,0.0,0.00,0.00,0.00,0.00,7197,3279,4366,3240,306.5,316.0,344.3,346.5,25.91,22.42,24.86,23.70,325.0,325.0,355.0,355.0,99.95,100.00,99.99,100.00,-0.30,-0.14,-0.65,-0.48,-0.0,-0.0,-0.1,-0.0,87.9,66.1,75.1,67.9,96.3,67.1,79.2,70.4,92.2,64.7,77.4,68.2,88.6,63.7,76.9,67.5,-0.29,0.31,0.07,0.08,0.00,136.14,135.91,124.59,124.43,13.4,28.7,0.35860842154082223,152.6831254027787,41.05159503821057,-133.23763275420703,-50.41423962043815
1.300,55.8,44.054137704530390,-78.681838515498669,151.7,189.8,-9.0,85.2,5415.7,5416,159.4,0,1,1,0,1,1,0,0,0,100,1,1.186,26.0,0.0,-0.32,59.817,66.0,0.0,26.0,26.0,26.0,26.0,-0.21,-0.11,0.28,372.3,-2.47,-2.66,-1.51,-0.46,-726.40,636.00,5.4,0.00,0.00,0.00,0.00,0.03,-7.49,-7.49,-1.12,5.71,-0.06,8.26,44.28,-0.25,-0.47,-1.04,100.0,0,0,124.61,0,0,0.0,0,0,0,0,7766,0,30.00,0,159.4,0,0,0.0,0.0,0.0,0.0,1,0,1.327,1.327,81.917,22.715,0,110.00,435.8,8750,0.0,0.0,110.0,110.0,433.0,0.00,0,0,1,166.7,52.3,52.3,80.9,80.9,34.0,-65.20,23.86,-57.3,-16.2,3,-317.589,-7.8,100.0,34.4,25.7,30.9,30.4,0,1,0.0,0.00,0.00,0.00,0.00,10489,4894,5617,4523,299.2,311.7,341.5,343.4,25.91,22.42,24.86,23.70,325.0,325.0,355.0,355.0,99.95,100.00,99.99,100.00,-0.08,0.04,-0.51,-0.33,-0.0,-0.0,-0.0,-0.1,87.9,66.1,75.1,67.9,96.3,67.1,79.2,70.4,92.2,64.6,77.4,68.2,88.6,63.7,76.8,67.4,-0.40,0.43,0.07,0.07,0.00,135.96,136.11,124.56,124.66,13.4,28.7,0.3668787265568828,148.36190489639966,39.25108648440224,46.81322262662633,7.20203455664759
1.350,58.1,44.054118009387217,-78.681833299433350,-111.3,210.5,232.8,283.7,5417.9,5418,159.7,0,1,1,0,1,1,0,0,0,100,1,1.186,26.0,0.0,-0.33,59.817,66.0,0.0,26.0,26.0,26.0,26.0,0.03,-0.21,0.78,364.8,-2.74,-2.72,-1.61,-1.09,-725.82,633.81,5.4,0.00,0.00,0.00,0.00,0.04,-7.49,-7.49,-0.69,8.41,0.46,4.05,44.34,-0.09,-0.41,-4.80,100.0,0,0,124.65,0,0,0.0,0,0,0,0,6649,0,30.00,4,159.7,1,0,0.0,0.0,0.0,0.0,1,0,1.377,1.377,81.917,22.715,1,110.00,435.8,8750,0.0,0.0,110.0,110.0,433.0,0.00,0,0,1,333.3,54.1,54.1,49.4,49.4,34.0,-14.15,62.83,-33.9,18.2,3,-317.633,-8.7,100.0,28.9,36.2,42.5,44.6,0,1,0.0,0.00,0.00,0.00,0.00,4957,7334,5598,6221,312.7,304.0,340.2,337.9,25.91,22.42,24.86,23.70,325.0,325.0,355.0,355.0,99.95,100.00,99.99,100.00,0.12,0.26,-0.14,0.01,0.0,-0.0,-0.1,-0.3,88.0,66.1,75.1,67.9,96.2,67.1,79.2,70.4,92.1,64.6,77.4,68.2,88.5,63.7,76.8,67.4,-0.48,0.53,0.05,0.03,0.00,136.16,136.74,124.51,124.80,13.4,28.7,0.8083316151184489,157.36444766544133,41.77179849387533,39.611188069978596,14.404068544271453
1.400,60.3,44.054098404176209,-78.681828083368032,4.6,4.4,-9.3,78.8,5420.1,5420,159.3,0,1,1,0,1,1,0,0,0,100,1,1.186,26.0,0.0,-0.34,59.817,66.0,0.0,26.0,26.0,26.0,26.0,0.41,-0.21,0.42,364.4,-2.99,-2.99,-1.47,-1.58,-725.24,631.63,5.4,0.00,0.00,0.00,0.00,0.04,-7.49,-7.49,-0.28,8.46,0.50,-4.25,44.25,0.05,-0.35,-6.61,100.0,0,0,124.50,0,0,0.0,0,0,0,0,6641,0,30.00,4,159.3,0,0,0.0,0.0,0.0,0.0,1,0,1.427,1.427,81.917,22.715,0,110.00,435.8,8750,0.0,0.0,110.0,110.0,433.0,0.00,0,0,1,333.3,56.1,56.1,50.6,50.6,34.0,0.70,72.21,1.4,85.1,3,-317.689,-9.0,100.0,29.1,36.5,42.1,48.5,0,1,0.0,0.00,0.00,0.00,0.00,3739,6848,5283,8959,315.8,305.6,341.8,331.6,25.91,22.42,24.86,23.71,325.0,325.0,355.0,355.0,99.95,100.00,99.99,100.00,0.36,0.41,0.24,0.33,-0.0,-0.0,-0.1,-0.2,88.0,66.1,75.1,67.9,96.2,67.1,79.1,70.4,92.0,64.6,77.3,68.2,88.4,63.7,76.8,67.4,-0.52,0.54,0.05,0.03,0.00,135.77,136.34,124.39,124.61,13.4,28.7,0.6233778950203479,152.32302370339752,40.69149333882938,-54.01525689876195,-3.601017562835551
1.450,62.5,44.054079968083286,-78.681823137099201,42.7,-16.7,138.3,26.3,5422.3,5422,159.0,0,1,1,0,1,1,0,0,0,100,1,1.186,26.0,0.0,-0.35,59.817,66.0,0.0,26.0,26.0,26.0,26.0,0.34,-0.15,0.48,365.5,-3.26,-2.59,-1.95,-1.49,-724.69,629.58,5.4,0.00,0.00,0.00,0.00,0.04,-7.49,-7.49,0.06,6.74,0.10,-4.67,44.17,0.10,-0.39,-6.63,100.0,0,0,124.16,0,0,0.0,0,0,0,0,6623,0,30.00,4,159.0,1,0,0.0,0.0,0.0,0.0,1,0,1.477,1.477,81.917,22.715,1,110.00,435.8,8750,0.0,0.0,110.0,110.0,433.0,0.00,0,0,1,333.3,59.9,59.9,47.4,47.4,34.0,0.33,34.37,3.6,67.4,3,-317.733,-7.2,100.0,31.2,35.6,49.0,49.8,0,1,0.0,0.00,0.00,0.00,0.00,3370,3963,6140,6825,315.9,313.8,339.2,336.9,25.92,22.42,24.87,23.71,325.0,325.0,355.0,355.0,99.95,100.00,99.99,100.00,0.38,0.40,0.33,0.42,0.0,0.0,-0.2,-0.3,88.0,66.1,75.2,67.9,96.1,67.1,79.1,70.4,92.0,64.6,77.3,68.2,88.4,63.7,76.8,67.4,-0.40,0.44,0.03,0.03,0.00,135.46,135.91,124.00,124.31,13.4,28.7,0.6070420084310476,151.96292197556514,41.411696737591775,43.21220506379035,25.207119525707284
1.500,64.7,44.054060452804443,-78.681817741169567,-175.7,-210.6,-17.0,23.3,5424.5,5425,159.1,0,1,1,0,1,1,0,0,0,100,1,1.186,26.0,0.0,-0.36,59.817,66.0,0.0,26.0,26.0,26.0,26.0,0.42,0.33,0.50,369.5,-2.93,-3.48,-2.08,-2.93,-724.09,627.41,5.5,0.00,0.00,0.00,0.00,0.04,-7.49,-7.49,0.19,-0.65,-0.08,-1.89,44.19,0.14,-0.42,-4.59,100.0,0,0,125.30,0,0,0.0,0,0,0,0,6684,0,30.00,4,159.1,0,0,0.0,0.0,0.0,0.0,0,0,1.527,1.527,81.917,22.715,0,110.00,435.8,8750,0.0,0.0,110.0,110.0,433.0,0.00,0,0,1,333.3,68.3,68.3,48.2,48.2,34.0,-1.60,48.34,0.2,77.7,3,-317.789,-4.4,100.0,22.5,25.1,48.1,51.0,0,1,60.5,0.00,0.00,0.00,0.00,4415,4884,6644,6489,314.6,311.6,337.6,336.7,25.92,22.42,24.87,23.71,325.0,325.0,355.0,355.0,99.95,100.00,99.99,100.00,0.31,0.38,0.32,0.40,-0.0,-0.1,1.2,1.0,88.0,66.1,75.2,67.9,96.0,67.1,79.1,70.4,91.9,64.6,77.3,68.2,88.3,63.7,76.7,67.4,-0.28,0.27,0.03,0.02,0.00,135.34,135.72,124.52,126.09,13.4,28.7,0.7316419889536139,156.64424420977656,43.21220529140011,3.601017278323866,10.803051550459415
1.550,66.9,44.054040847593434,-78.681812345239933,74.5,33.1,-273.7,-237.0,5426.7,5427,159.4,0,1,1,0,1,1,0,0,0,100,1,1.186,26.0,0.0,-0.36,59.817,66.0,0.0,26.0,26.0,26.0,26.0,0.17,0.31,-0.06,378.7,-3.71,-1.68,-1.53,-1.55,-723.49,625.23,5.5,0.00,0.00,0.00,0.00,0.04,-7.49,-7.49,0.28,4.92,-0.02,1.46,44.29,0.20,-0.43,-4.25,100.0,0,0,126.59,0,0,0.0,0,0,0,0,6753,0,30.00,4,159.4,1,0,0.0,0.0,0.0,0.0,0,0,1.577,1.577,81.917,22.715,1,110.00,435.8,8750,0.0,0.0,110.0,110.0,433.0,0.00,0,0,1,333.3,67.4,67.4,68.4,68.4,34.0,-7.55,24.96,4.2,40.9,3,-317.844,-2.6,100.0,26.2,26.8,34.5,39.1,0,1,60.5,0.00,0.00,0.00,0.00,3138,4178,4503,5105,316.8,314.4,343.9,341.7,25.92,22.42,24.87,23.71,325.0,325.0,355.0,355.0,99.95,100.00,99.99,100.00,0.25,0.29,0.32,0.42,-0.1,-0.0,1.8,1.5,88.0,66.1,75.2,67.9,96.0,67.1,79.1,70.4,91.9,64.6,77.2,68.2,88.3,63.7,76.7,67.4,-0.16,0.17,0.07,0.05,0.00,135.77,136.09,126.59,126.59,13.4,28.7,0.3586084215408221,152.32302370339752,42.49200189263772,3.6010175628359775,10.803051550459415
1.600,69.1,44.054022411500512,-78.681807129174615,-38.8,-53.9,100.2,98.6,5428.9,5429,159.9,0,1,1,0,1,1,0,0,0,100,1,1.186,26.0,0.0,-0.38,59.817,66.0,0.0,26.0,26.0,26.0,26.0,0.23,0.21,0.26,376.7,-2.47,-2.49,-1.85,-1.56,-722.91,623.18,5.5,0.00,0.00,0.00,0.00,0.04,-7.49,-7.49,0.47,2.50,0.07,4.59,44.41,0.20,-0.38,-2.22,100.0,0,0,126.30,0,0,0.0,0,0,0,0,6737,0,30.00,4,159.9,0,0,0.0,0.0,0.0,0.0,0,0,1.627,1.627,81.917,22.715,0,110.00,435.8,8750,0.0,0.0,110.0,110.0,433.0,0.00,0,0,1,333.3,70.1,70.1,65.0,65.0,34.0,-4.03,18.18,-3.0,54.9,3,-317.889,-1.5,100.0,24.3,24.1,39.5,44.1,0,1,60.5,0.00,0.00,0.00,0.00,3870,2821,4572,6398,315.1,316.9,342.8,337.9,25.92,22.42,24.87,23.71,325.0,325.0,355.0,355.0,99.95,100.00,99.99,100.00,0.21,0.25,0.24,0.37,-0.1,-0.0,1.2,1.0,88.0,66.1,75.2,67.9,95.9,67.1,79.0,70.4,91.8,64.6,77.2,68.2,88.2,63.7,76.7,67.4,-0.09,0.09,0.06,0.05,0.00,136.22,136.38,126.30,126.29,13.4,28.7,0.4057092555020159,157.00434596606016,44.29251044644605,50.41423962043808,21.606102531895317
1.650,71.4,44.054001637171410,-78.681801283584178,-79.2,-34.8,-40.7,-11.4,5431.2,5431,160.3,0,1,1,0,1,1,0,0,0,100,1,1.186,26.0,0.0,-0.38,59.817,66.0,0.0,26.0,26.0,26.0,26.0,0.16,0.22,0.06,379.8,-3.49,-2.64,-2.21,-1.32,-722.26,620.87,5.6,0.00,0.00,0.00,0.00,0.04,-7.49,-7.49,0.53,-0.14,0.27,1.40,44.54,0.19,-0.36,-1.92,100.0,0,0,126.62,0,0,0.0,0,0,0,0,6754,0,30.00,4,160.3,1,0,0.0,0.0,0.0,0.0,0,0,1.680,1.680,81.917,22.715,1,110.00,435.8,8750,0.0,0.0,110.0,110.0,433.0,0.00,0,0,1,166.7,73.8,73.8,63.4,63.4,34.0,-6.43,25.83,-8.4,38.9,3,-317.944,-0.8,100.0,20.3,22.3,37.4,43.5,0,1,60.5,0.00,0.00,0.00,0.00,2704,3775,4997,5211,318.3,315.0,342.5,340.7,25.92,22.42,24.87,23.71,325.0,325.0,355.0,355.0,99.95,100.00,99.99,100.00,0.21,0.25,0.21,0.34,-0.0,-0.0,1.2,1.0,88.0,66.1,75.2,68.0,95.8,67.0,79.0,70.4,91.7,64.6,77.2,68.1,88.1,63.6,76.6,67.4,-0.05,0.05,0.06,0.05,0.00,136.50,136.63,126.62,126.62,13.4,28.7,0.2785677655436824,157.36444766544133,44.65261214582725,-86.42441098111675,-18.00508553808335
1.700,73.6,44.053983111146330,-78.681795977586702,-110.0,14.7,-15.0,-103.0,5433.4,5433,160.7,0,1,1,0,1,1,0,0,0,100,1,1.186,26.0,0.0,-0.38,59.817,66.0,0.0,26.0,26.0,26.0,26.0,0.25,0.27,-0.10,383.2,-3.08,-2.64,-1.46,-2.38,-721.67,618.81,5.6,0.00,0.00,0.00,0.00,0.04,-7.49,-7.49,0.47,-2.04,0.19,-5.16,44.65,0.17,-0.37,-1.48,100.0,0,0,126.99,0,0,0.0,0,0,0,0,6774,0,30.00,4,160.7,0,0,0.0,0.0,0.0,0.0,0,0,1.727,1.727,81.917,22.715,0,110.00,435.8,8750,0.0,0.0,110.0,110.0,433.0,0.00,0,0,1,333.3,78.3,78.3,58.9,58.9,34.0,-0.83,27.43,-0.2,54.6,3,-317.989,-0.4,100.0,14.8,23.0,36.7,38.3,0,1,60.2,0.00,0.00,0.00,0.00,746,3934,4957,5655,322.7,314.0,342.8,339.6,25.92,22.42,24.87,23.71,325.0,325.0,355.0,355.0,99.95,100.00,99.99,100.00,0.25,0.24,0.22,0.37,-0.1,-0.1,1.4,1.3,88.0,66.1,75.2,68.0,95.7,67.0,79.0,70.4,91.6,64.5,77.2,68.1,88.1,63.6,76.6,67.4,-0.02,0.02,0.07,0.06,0.00,136.72,136.92,126.99,126.99,13.4,28.7,0.3813135192987524,148.36190486794848,42.49200189263772,-43.212205348302746,-7.202034556647519
1.750,75.8,44.053964585121250,-78.681790671589226,-63.6,-174.3,-75.7,-22.2,5435.6,5436,161.1,0,1,1,0,1,1,0,0,0,100,1,1.186,26.0,0.0,-0.39,59.817,66.0,0.0,26.0,26.0,26.0,26.0,0.14,0.21,-0.41,391.2,-2.01,-1.82,-1.97,-2.10,-721.08,616.75,5.6,0.00,0.00,0.00,0.00,0.05,-7.49,-7.49,0.26,-7.07,-0.09,-7.98,44.76,0.13,-0.40,-0.49,100.0,0,0,127.55,0,0,0.0,0,0,0,0,6804,0,30.00,4,161.1,1,0,0.0,0.0,0.0,0.0,0,0,1.777,1.777,81.917,22.715,1,110.00,435.8,8750,0.0,0.0,110.0,110.0,433.0,0.00,0,0,1,333.3,88.0,88.0,72.6,72.6,34.0,-0.02,9.03,-4.5,31.0,3,-318.033,-0.4,100.0,11.6,14.3,32.9,37.2,0,1,60.2,0.00,0.00,0.00,0.00,715,1921,3320,4082,324.1,320.1,347.1,343.8,25.92,22.42,24.87,23.71,325.0,325.0,355.0,355.0,99.95,100.00,99.99,100.00,0.23,0.25,0.18,0.32,0.0,-0.0,1.6,1.5,88.0,66.1,75.2,68.0,95.7,67.0,79.0,70.4,91.6,64.5,77.1,68.1,88.0,63.6,76.6,67.4,-0.01,0.02,0.08,0.05,0.00,136.89,136.96,127.55,127.55,13.4,28.7,0.48145612468842885,153.04322713061106,43.9324086901625,97.22746224706412,32.40915351333122
1.800,78.1,44.053944889978077,-78.681785005863119,180.5,72.0,-64.8,-263.1,5437.9,5438,161.5,0,1,1,0,1,1,0,0,0,100,1,1.186,26.0,0.0,-0.41,59.817,66.0,0.0,26.0,26.0,26.0,26.0,0.07,0.21,-0.30,389.6,-2.29,-2.25,-1.13,-1.44,-720.45,614.56,5.7,0.00,0.00,0.00,0.00,0.05,-7.49,-7.49,0.02,-1.75,-0.41,0.98,44.85,0.10,-0.49,-0.28,100.0,0,0,128.75,0,0,0.0,0,0,0,0,6868,0,30.00,4,161.5,0,0,0.0,0.0,0.0,0.0,0,0,1.827,1.827,81.917,22.715,0,110.00,435.8,8750,0.0,0.0,110.0,110.0,433.0,0.00,0,0,1,333.3,73.6,73.6,79.9,79.9,34.0,-8.96,21.90,-3.6,8.3,3,-318.089,-0.4,100.0,20.6,17.9,29.7,24.1,0,1,59.4,0.00,0.00,0.00,0.00,4051,3863,2954,2148,315.0,314.6,347.5,349.0,25.92,22.42,24.87,23.71,325.0,325.0,355.0,355.0,99.95,100.00,99.99,100.00,0.11,0.19,0.05,0.20,-0.0,-0.1,2.1,2.1,88.0,66.1,75.2,68.0,95.6,66.9,78.9,70.3,91.5,64.5,77.1,68.1,87.9,63.6,76.6,67.4,-0.02,0.01,0.08,0.09,0.00,137.44,137.52,128.75,128.75,13.4,28.7,0.37282703764614494,158.0846510926549,45.73291724397084,10.803051265947659,7.2020351256712445
1.850,80.3,44.053925104902746,-78.681779250204841,163.0,116.6,54.3,152.7,5440.1,5440,161.9,0,1,1,0,1,1,0,0,0,100,1,1.186,26.0,0.0,-0.41,59.817,66.0,0.0,26.0,26.0,26.0,26.0,-0.01,0.21,0.20,380.2,-2.25,-2.86,-1.31,-1.33,-719.81,612.36,5.7,0.00,0.00,0.00,0.00,0.05,-7.49,-7.49,0.12,4.87,-0.35,5.17,44.97,0.07,-0.45,-0.06,100.0,0,0,128.11,0,0,0.0,0,0,0,0,6834,0,30.00,4,161.9,1,0,0.0,0.0,0.0,0.0,0,0,1.877,1.877,81.917,22.715,1,110.00,435.8,8750,0.0,0.0,110.0,110.0,433.0,0.00,0,0,1,333.3,64.2,64.2,74.7,74.7,34.0,-22.03,22.27,-14.5,15.2,3,-318.144,-0.4,100.0,28.8,23.8,32.4,31.7,0,1,45.6,0.00,0.00,0.00,0.00,5608,3792,4633,3794,311.1,314.2,342.8,345.5,25.92,22.42,24.88,23.71,325.0,325.0,355.0,355.0,99.95,100.00,99.99,100.00,-0.00,0.12,-0.04,0.13,0.0,-0.0,1.4,1.3,88.0,66.1,75.2,68.0,95.5,66.9,78.9,70.3,91.4,64.5,77.1,68.1,87.9,63.5,76.5,67.4,-0.01,0.02,0.08,0.06,0.00,138.16,138.06,128.11,128.11,13.4,28.7,0.29017236257093815,154.12353225720582,44.65261220272962,-39.61118863900225,-10.803050981435902
1.900,82.6,44.053906399013343,-78.681773854275193,-170.1,-46.2,57.9,203.6,5442.4,5442,162.0,0,1,1,0,1,1,0,0,0,100,1,1.186,26.0,0.0,-0.42,59.817,66.0,0.0,26.0,26.0,26.0,26.0,0.05,-0.12,0.07,379.0,-2.55,-2.40,-1.60,-0.91,-719.21,610.28,5.7,0.00,0.00,0.00,0.00,0.05,-7.49,-7.49,0.33,1.37,-0.10,1.52,45.01,0.06,-0.30,-0.55,100.0,0,0,126.00,0,0,0.0,0,0,0,0,6721,0,30.00,4,162.0,0,0,0.0,0.0,0.0,0.0,0,0,1.927,1.927,81.917,22.715,0,110.00,435.8,8750,0.0,0.0,110.0,110.0,433.0,0.00,0,0,1,166.7,75.7,75.7,61.4,61.4,34.0,-7.25,12.29,-36.9,26.1,3,-318.189,-1.4,100.0,20.3,21.4,35.3,41.9,0,1,0.0,0.00,0.00,0.00,0.00,2614,2604,7462,5929,318.1,317.8,336.4,338.3,25.92,22.42,24.88,23.72,325.0,325.0,355.0,355.0,99.95,100.00,99.99,100.00,0.08,0.12,-0.05,0.13,-0.0,0.0,-0.2,-0.2,88.0,66.1,75.2,68.0,95.4,66.9,78.9,70.3,91.3,64.4,77.0,68.1,87.8,63.5,76.5,67.3,-0.05,0.05,0.07,0.05,0.00,138.13,138.10,126.00,126.00,13.4,28.7,0.147648230602334,154.12353222875467,44.65261214582725,43.212205063790634,14.404067406224002
1.950,84.8,44.053886613938019,-78.681768098616928,-41.8,-49.4,3.1,-3.4,5444.6,5445,161.7,0,1,1,0,1,1,0,0,0,100,1,1.186,26.0,0.0,-0.43,59.817,66.0,0.0,26.0,26.0,26.0,26.0,0.10,-0.17,-0.21,383.4,-2.45,-2.62,-1.35,-1.55,-718.57,608.08,5.8,0.00,0.00,0.00,0.00,0.05,-7.49,-7.49,0.15,-5.62,0.07,1.46,44.92,0.05,-0.41,-0.70,100.0,0,0,125.74,0,0,0.0,0,0,0,0,6707,0,30.00,4,161.7,1,0,0.0,0.0,0.0,0.0,0,0,1.977,1.977,81.917,22.715,1,110.00,435.8,8750,0.0,0.0,110.0,110.0,433.0,0.00,0,0,1,166.7,76.1,76.1,71.0,71.0,34.0,-3.33,27.20,-8.4,20.5,3,-318.233,-4.0,100.0,18.2,19.0,35.4,41.7,0,1,0.0,0.00,0.00,0.00,0.00,2911,3891,3319,4035,317.9,315.2,346.9,343.6,25.93,22.42,24.88,23.72,325.0,325.0,355.0,355.0,99.95,100.00,99.99,100.00,0.19,0.28,0.01,0.12,-0.0,0.0,-0.3,-0.2,88.0,66.1,75.2,68.0,95.4,66.9,78.8,70.3,91.3,64.4,77.0,68.0,87.7,63.5,76.4,67.3,-0.20,0.21,0.06,0.04,0.00,137.58,137.59,125.74,125.74,13.4,28.7,0.28809720581775866,158.4447527635849,46.09301894335202,-7.202033703112249,3.6010175628356933
2.000,87.1,44.053866828862688,-78.681762342958649,73.3,77.0,-94.9,-155.8,5446.9,5447,161.4,0,1,1,0,1,1,0,0,0,100,1,1.186,26.0,0.0,-0.44,59.817,66.0,0.0,26.0,26.0,26.0,26.0,0.15,-0.16,-0.19,384.1,-2.38,-2.75,-1.40,-0.90,-717.93,605.88,5.8,0.00,0.00,0.00,0.00,0.05,-7.49,-7.49,-0.05,-2.17,0.12,1.77,44.83,0.05,-0.52,-2.56,100.0,0,0,125.53,0,0,0.0,0,0,0,0,6696,0,30.00,4,161.4,0,0,0.0,0.0,0.0,0.0,1,0,2.027,2.027,81.917,22.715,0,110.00,435.8,8750,0.0,0.0,110.0,110.0,433.0,0.00,0,0,1,166.7,70.5,70.5,76.4,76.4,34.0,1.18,30.33,-8.1,15.7,3,-318.289,-7.0,100.0,21.9,22.8,30.7,33.9,0,1,0.0,0.00,0.00,0.00,0.00,4102,3650,3368,3646,314.9,314.8,346.8,345.2,25.93,22.42,24.88,23.72,325.0,325.0,355.0,355.0,99.95,100.00,99.99,100.00,0.29,0.36,0.03,0.18,-0.0,-0.0,-0.3,-0.4,88.0,66.1,75.2,68.0,95.3,66.8,78.8,70.3,91.2,64.4,76.9,68.0,87.7,63.5,76.4,67.3,-0.38,0.39,0.08,0.08,0.00,137.40,137.52,125.53,125.53,13.4,28.7,0.29017236257093815,153.40332885844344,45.01271390211082,-54.01525632973829,-7.202033418600209
2.050,89.3,44.053848302837601,-78.681756857096843,-53.7,-33.3,-10.8,6.8,5449.1,5449,161.1,0,1,1,0,1,1,0,0,0,100,1,1.186,26.0,0.0,-0.44,59.817,66.0,0.0,26.0,26.0,26.0,26.0,0.18,-0.17,-0.21,386.8,-2.78,-2.65,-1.39,-2.94,-717.32,603.82,5.8,0.00,0.00,0.00,0.00,0.05,-7.49,-7.49,-0.16,-3.74,0.16,-0.06,44.75,0.07,-0.54,-3.55,100.0,0,0,125.28,0,0,0.0,0,0,0,0,6683,0,30.00,4,161.1,1,0,0.0,0.0,0.0,0.0,1,0,2.077,2.077,81.917,22.715,1,110.00,435.8,8750,0.0,0.0,110.0,110.0,433.0,0.00,0,0,1,166.7,78.0,78.0,76.8,76.8,34.0,3.82,10.42,-5.6,43.0,3,-318.333,-9.1,100.0,19.2,21.2,30.1,34.3,0,1,0.0,0.00,0.00,0.00,0.00,2376,1401,3611,4359,319.0,320.8,345.8,342.8,25.93,22.42,24.88,23.72,325.0,325.0,355.0,355.0,99.95,100.00,99.99,100.00,0.47,0.46,0.10,0.27,0.0,0.1,-0.1,-0.4,88.0,66.1,75.2,68.0,95.2,66.8,78.7,70.2,91.1,64.4,76.9,68.0,87.6,63.4,76.3,67.3,-0.51,0.51,0.08,0.06,0.00,136.95,137.25,125.28,125.28,13.4,28.7,0.3246536616149585,153.04322713061106,45.372815601492,39.61118778546677,18.005084969059695
2.100,91.5,44.053828607694435,-78.681751011506407,-23.7,25.0,-70.3,-48.7,5451.3,5451,160.8,0,1,1,0,1,1,0,0,0,100,1,1.186,26.0,0.0,-0.45,59.817,66.0,0.0,26.0,26.0,26.0,26.0,0.31,-0.21,-0.07,386.8,-3.39,-2.44,-2.20,-1.78,-716.67,601.63,5.8,0.00,0.00,0.00,0.00,0.06,-7.49,-7.49,-0.42,-3.81,0.19,-1.87,44.66,0.12,-0.62,-5.09,100.0,0,0,124.94,0,0,0.0,0,0,0,0,6664,0,30.00,4,160.8,0,0,0.0,0.0,0.0,0.0,1,0,2.127,2.127,81.917,22.715,0,110.00,435.8,8750,0.0,0.0,110.0,110.0,433.0,0.00,0,0,1,166.7,71.9,71.9,80.0,80.0,34.0,3.72,44.47,-3.0,24.9,3,-318.389,-9.2,100.0,18.0,22.4,26.6,31.8,0,1,0.0,0.00,0.00,0.00,0.00,3980,4181,2159,3062,315.4,312.6,349.3,346.0,25.93,22.42,24.88,23.72,325.0,325.0,355.0,355.0,99.95,100.00,99.99,100.00,0.47,0.58,0.22,0.37,-0.0,-0.1,-0.3,-0.5,88.0,66.1,75.2,68.0,95.1,66.8,78.6,70.2,91.1,64.4,76.8,68.0,87.5,63.4,76.3,67.2,-0.53,0.53,0.09,0.07,0.00,136.72,137.14,124.94,124.94,13.4,28.7,0.38091993909481814,157.36444763699012,46.81322239901679,-10.803051265947374,3.6010169938120384
2.150,93.8,44.053809002483426,-78.681745165915970,180.2,122.0,-75.9,-87.6,5453.6,5454,160.5,0,1,1,0,1,1,0,0,0,100,1,1.186,26.0,0.0,-0.46,59.817,66.0,0.0,26.0,26.0,26.0,26.0,0.40,-0.21,0.20,381.1,-3.07,-2.16,-1.93,-1.20,-716.02,599.45,5.8,0.00,0.00,0.00,0.00,0.06,-7.49,-7.49,-0.37,5.51,0.19,0.88,44.56,0.21,-0.54,-7.08,100.0,0,0,125.03,0,0,0.0,0,0,0,0,6669,0,30.00,4,160.5,1,0,0.0,0.0,0.0,0.0,1,0,2.177,2.177,81.917,22.715,1,110.00,435.8,8750,0.0,0.0,110.0,110.0,433.0,0.00,0,0,1,333.3,61.3,61.3,78.9,78.9,34.0,5.23,60.55,2.6,58.6,3,-318.444,-7.5,100.0,27.0,28.5,22.8,27.5,0,1,0.0,0.00,0.00,0.00,0.00,4215,5780,3932,5570,313.7,308.9,345.2,340.9,25.93,22.42,24.88,23.72,325.0,325.0,355.0,355.0,99.95,100.00,99.99,100.00,0.45,0.54,0.34,0.60,0.0,-0.0,-0.1,-0.5,88.1,66.1,75.2,68.0,95.1,66.8,78.6,70.2,91.0,64.4,76.8,67.9,87.5,63.4,76.2,67.2,-0.44,0.44,0.10,0.08,0.00,136.74,137.26,124.82,125.23,13.4,28.7,0.49406477308142505,151.96292200401632,45.732917300873204,-61.21729060187391,-3.6010169938120384
2.200,96.0,44.053790656322661,-78.681739590122007,-96.7,-35.5,197.8,182.2,5455.8,5456,160.2,0,1,1,0,1,1,0,0,0,100,1,1.186,26.0,0.0,-0.46,59.817,66.0,2.1,26.0,26.0,26.0,26.0,0.44,-0.19,0.14,378.1,-3.34,-3.71,-2.12,-0.99,-715.40,597.41,5.8,0.00,0.00,0.00,0.00,0.06,-7.49,-7.49,-0.12,3.34,0.15,-0.19,44.48,0.28,-0.40,-6.19,100.0,0,0,124.75,0,0,0.0,0,0,0,0,6654,0,30.00,4,160.2,0,0,0.0,0.0,0.0,0.0,1,0,2.227,2.227,81.917,22.715,0,110.00,435.8,8750,0.0,0.0,110.0,110.0,433.0,0.00,0,0,1,333.3,69.7,69.7,66.2,66.2,34.0,2.83,27.32,9.5,76.3,3,-318.489,-4.9,100.0,22.2,26.7,32.7,36.6,0,1,0.0,0.00,0.00,0.00,0.00,3657,2786,6107,6588,315.2,316.5,340.0,337.3,25.93,22.42,24.88,23.72,325.0,325.0,355.0,355.0,99.95,100.00,99.99,100.00,0.45,0.43,0.43,0.65,-0.1,-0.1,-0.1,-0.3,88.1,66.1,75.3,68.0,95.0,66.8,78.6,70.2,90.9,64.3,76.8,67.9,87.4,63.4,76.2,67.2,-0.30,0.30,0.07,0.04,0.00,136.18,136.65,124.62,124.88,13.4,28.7,0.49929950931279715,151.24271857680273,46.45312069963558,32.409153797842976,28.80813651951918
2.250,98.2,44.053771230975975,-78.681733564667255,-124.4,-47.5,57.5,95.0,5458.0,5458,159.7,0,1,1,0,1,1,0,0,0,100,1,1.186,26.0,0.0,-0.47,59.817,66.0,20.4,26.0,26.0,26.0,26.0,0.39,-0.47,-0.24,381.7,-3.13,-2.70,-1.41,-2.40,-714.73,595.25,5.9,0.00,0.00,0.00,0.00,0.06,-7.49,-7.49,-0.16,-3.30,0.02,-6.51,44.33,0.29,-0.43,-4.43,100.0,0,0,123.65,0,0,0.0,0,0,0,0,6596,0,30.00,4,159.7,1,0,0.0,0.0,0.0,0.0,1,0,2.277,2.277,81.917,22.715,1,110.00,435.8,8750,0.0,0.0,110.0,110.0,433.0,0.00,0,0,1,333.3,73.9,73.9,64.6,64.6,34.0,2.59,42.46,12.3,45.2,3,-318.533,-4.0,100.0,15.9,24.4,35.6,41.3,0,1,0.0,0.00,0.00,0.00,0.00,3036,4277,3590,3848,318.1,313.1,346.0,344.4,25.93,22.42,24.88,23.72,325.0,325.0,355.0,355.0,99.95,100.00,99.99,100.00,0.45,0.53,0.49,0.61,-1.4,-0.9,-0.4,-0.7,88.1,66.1,75.3,68.0,94.9,66.8,78.5,70.1,90.9,64.3,76.7,67.9,87.3,63.4,76.2,67.2,-0.23,0.23,0.07,0.06,0.00,134.04,134.73,123.65,123.65,13.4,28.7,0.6562011886609167,155.20383738380062,48.61373095282512,-18.005085538082994,7.202034556647661
2.300,100.4,44.053751895561447,-78.681727449280331,101.3,-80.6,-122.1,-108.4,5460.2,5460,158.5,0,1,1,0,1,1,0,0,0,100,1,1.186,26.0,0.0,-0.48,59.817,66.0,42.9,26.0,26.0,26.0,26.0,0.28,-0.81,-0.18,384.8,-3.00,-3.29,-2.18,-1.51,-714.05,593.10,5.9,0.00,0.00,0.00,0.00,0.06,-7.49,-7.49,-0.43,-6.54,-0.14,0.02,44.00,0.27,-0.57,-3.25,100.0,0,0,121.72,0,0,0.0,0,0,0,0,6493,0,30.00,4,158.5,0,0,0.0,0.0,0.0,0.0,1,0,2.327,2.327,81.917,22.715,0,110.00,435.8,8750,0.0,0.0,110.0,110.0,433.0,0.00,0,0,1,333.3,71.6,71.6,80.2,80.2,34.0,4.49,34.45,1.8,26.6,3,-318.589,-4.7,100.0,21.0,20.3,29.5,35.9,0,1,0.0,0.00,0.00,0.00,0.00,4034,4152,2265,3227,315.0,314.1,348.6,346.4,25.93,22.42,24.88,23.72,325.0,325.0,355.0,355.0,99.95,100.00,99.99,100.00,0.46,0.56,0.41,0.51,-1.9,-2.7,-1.3,-1.4,88.1,66.1,75.3,68.0,94.9,66.8,78.5,70.1,90.8,64.3,76.7,67.9,87.3,63.4,76.1,67.2,-0.26,0.25,0.08,0.07,0.00,131.89,131.41,121.73,121.72,13.4,28.7,0.8757282683572571,149.44221002299443,47.17332415530035,-75.62135943065755,-14.404068544271453
2.350,102.6,44.053733909129328,-78.681721783554210,60.2,92.1,-110.6,-159.3,5462.4,5462,156.8,0,1,1,0,1,1,0,0,0,100,1,1.186,26.0,0.0,-0.48,59.817,66.0,65.0,26.0,26.0,26.0,26.0,0.26,-1.25,-0.27,384.8,-3.17,-1.84,-2.16,-3.66,-713.42,591.10,5.9,0.00,0.00,0.00,0.00,0.06,-7.49,-7.49,-0.67,-3.51,-0.06,3.34,43.51,0.27,-0.71,-4.69,100.0,0,0,119.32,0,0,0.0,0,0,0,0,6365,0,30.00,4,156.8,1,0,0.0,0.0,0.0,0.0,1,0,2.377,2.377,81.917,22.715,1,110.00,435.8,8750,0.0,0.0,110.0,110.0,433.0,0.00,0,0,1,333.3,65.9,65.9,80.7,80.7,34.0,4.95,35.98,0.3,24.6,3,-318.633,-7.0,100.0,24.0,24.9,23.9,27.9,0,1,0.0,0.00,0.00,0.00,0.00,4149,5438,3551,2776,314.4,310.6,345.9,347.9,25.93,22.42,24.88,23.72,325.0,325.0,355.0,355.0,99.95,100.00,99.99,100.00,0.52,0.61,0.33,0.54,-3.1,-3.6,-2.1,-2.7,88.1,66.1,75.3,68.0,94.9,66.8,78.4,70.1,90.8,64.4,76.6,67.9,87.3,63.4,76.1,67.1,-0.39,0.40,0.10,0.08,0.00,128.73,128.92,119.45,119.18,13.4,28.7,1.3049904214207857,147.64170144073486,47.17332409839798,46.81322234211393,28.80813651951918
2.400,104.7,44.053715023375609,-78.681715668167300,-120.7,46.2,-18.9,-26.1,5464.5,5465,154.5,1,1,1,0,1,1,0,0,0,100,1,1.186,26.0,0.0,-0.50,59.817,66.0,79.8,26.0,26.0,26.0,26.0,0.41,-1.40,-0.15,386.1,-2.35,-3.08,-1.81,-3.09,-712.74,589.00,5.9,0.00,0.00,0.00,0.00,0.06,-7.49,-7.49,-0.89,-5.70,0.01,-4.47,42.88,0.27,-0.79,-3.86,100.0,0,0,117.11,0,0,0.0,0,0,0,0,6247,0,30.00,4,154.5,0,0,0.0,0.0,0.0,0.0,1,0,2.427,2.427,81.917,22.715,0,110.00,435.8,8750,0.0,0.0,110.0,110.0,433.0,0.00,0,0,1,333.3,67.5,67.5,78.1,78.1,34.0,-0.50,54.90,2.1,35.1,3,-318.689,-8.3,100.0,18.0,27.3,23.0,26.6,0,1,0.0,0.00,0.00,0.00,0.00,3442,6295,2175,3321,316.8,307.0,349.4,345.2,25.93,22.42,24.88,23.72,325.0,325.0,355.0,355.0,99.95,100.00,99.99,100.00,0.70,0.78,0.40,0.61,-12.1,-3.9,-2.8,-2.3,88.1,66.1,75.3,68.0,94.8,66.9,78.4,70.1,90.8,64.4,76.6,67.9,87.3,63.5,76.0,67.1,-0.49,0.48,0.09,0.08,0.00,118.67,126.49,116.70,117.51,13.4,28.7,1.4664924138910505,154.12353225720582,50.05413780725227,-7.202033987623508,7.202034556647519
2.450,106.8,44.053695418164594,-78.681709282983888,281.4,100.5,-179.9,-58.4,5466.6,5467,151.8,0,1,1,0,1,1,0,0,0,100,1,1.186,26.0,0.0,-0.51,59.817,66.0,92.7,26.0,26.0,26.0,26.0,0.31,-1.37,-0.25,385.0,-3.57,-2.22,-1.74,-0.97,-712.03,586.82,5.9,0.00,0.00,0.00,0.00,0.06,-7.49,-7.49,-1.00,3.37,-0.08,-0.61,42.10,0.30,-0.89,-4.88,100.0,0,0,110.63,0,0,0.0,0,0,0,0,5901,0,30.00,4,151.8,1,0,0.0,0.0,0.0,0.0,1,0,2.480,2.480,81.917,22.715,1,110.00,435.8,8750,0.0,0.0,110.0,110.0,433.0,0.00,0,0,1,166.7,55.1,55.1,93.8,93.8,34.0,-0.21,57.45,0.0,15.7,3,-318.744,-7.7,100.0,32.0,32.3,14.0,23.7,0,1,0.0,0.00,0.00,0.00,0.00,4193,7946,201,2688,316.1,303.4,354.3,347.9,25.93,22.42,24.88,23.72,325.0,325.0,355.0,355.0,99.95,100.00,99.99,100.00,0.64,0.79,0.48,0.65,-10.5,-4.5,-9.3,-3.4,88.1,66.1,75.3,68.0,94.9,67.0,78.3,70.1,90.8,64.5,76.5,67.9,87.3,63.6,76.0,67.1,-0.44,0.45,0.12,0.09,0.00,114.47,124.47,106.36,114.91,13.4,28.7,1.4267095009146047,146.9214980419725,47.89352755406273,-190.85390693129284,-50.41423962043815
2.500,108.9,44.053678331054087,-78.681703707189939,-4.0,104.1,331.0,-15.4,5468.7,5469,148.4,0,1,1,0,1,1,0,0,0,100,1,1.186,26.0,0.0,-0.52,59.817,66.0,100.0,26.0,26.0,26.0,26.0,0.45,-2.11,0.56,374.9,-3.49,-3.15,-1.89,-1.66,-711.41,584.92,5.9,0.00,0.00,0.00,0.00,0.07,-7.49,-7.49,-0.70,6.64,-0.33,-0.25,41.15,0.36,-0.76,-9.48,100.0,0,0,112.02,0,0,0.0,0,0,0,0,5975,0,30.00,4,148.4,0,0,0.0,0.0,0.0,0.0,0,0,2.530,2.530,81.917,22.715,0,110.00,435.8,8750,0.0,0.0,110.0,110.0,433.0,0.00,0,0,1,166.7,54.1,54.1,58.5,58.5,34.0,3.79,41.58,29.9,7.8,3,-318.789,-10.0,100.0,31.8,37.5,30.6,22.9,0,1,0.0,0.00,0.00,0.00,0.00,3811,7084,6837,3458,314.5,305.4,335.8,346.0,25.93,22.43,24.88,23.72,325.0,325.0,355.0,355.0,99.95,100.00,99.99,100.00,0.69,0.78,0.58,0.95,-5.8,-5.4,-1.1,-7.2,88.1,66.2,75.3,68.0,95.0,67.1,78.4,70.1,90.9,64.6,76.6,67.9,87.3,63.6,76.0,67.1,-0.53,0.56,0.07,0.09,0.00,117.43,120.13,115.22,108.82,13.4,28.7,2.2289459392277777,135.03814156407654,45.01271384520845,-111.63153022231285,-14.404068544271453
2.550,110.9,44.053661693604376,-78.681698041463818,-5.3,-26.7,-109.2,280.3,5470.7,5471,145.3,0,1,1,0,1,1,0,0,0,100,1,1.186,26.0,0.0,-0.52,59.817,66.0,100.0,26.0,26.0,26.0,26.0,0.57,-1.98,0.49,375.6,-3.50,-3.71,-2.31,-1.71,-710.78,583.07,5.9,0.00,0.00,0.00,0.00,0.07,-7.49,-7.49,-0.45,4.46,-0.29,-1.31,40.29,0.41,-0.73,-9.52,100.0,0,0,108.61,0,0,0.0,0,0,0,0,5793,0,30.00,4,145.3,1,0,0.0,0.0,0.0,0.0,0,0,2.577,2.577,81.917,22.715,1,110.00,435.8,8750,0.0,0.0,110.0,110.0,433.0,0.00,0,0,1,166.7,53.2,53.2,77.2,77.2,34.0,5.90,32.01,6.3,34.1,3,-318.833,-19.2,100.0,31.6,36.1,25.1,37.0,0,1,0.0,0.00,0.00,0.00,0.00,5388,6117,3356,3802,311.2,307.6,346.4,344.8,25.94,22.43,24.88,23.72,325.0,325.0,355.0,355.0,99.95,100.00,99.99,100.00,1.18,1.26,0.79,0.98,-7.7,-6.3,-5.3,-3.6,88.1,66.2,75.3,68.0,95.0,67.2,78.4,70.1,91.0,64.7,76.6,67.9,87.4,63.7,76.0,67.2,-0.99,1.01,0.09,0.04,0.00,113.89,115.84,107.84,109.38,13.4,28.7,2.11787629478211,135.75834501974123,46.45312069963558,-21.606102531895317,10.803051550459415
2.600,112.9,44.053644426629539,-78.681692105941224,-109.3,-62.2,26.0,-27.9,5472.7,5473,142.1,1,1,1,0,1,1,0,0,0,100,1,1.186,26.0,0.0,-0.53,59.817,66.0,100.0,26.0,26.0,26.0,26.0,0.49,-1.58,-0.05,380.1,-3.46,-3.53,-2.01,-1.21,-710.12,581.15,6.0,0.00,0.00,0.00,0.00,0.07,-7.49,-7.49,-0.32,0.69,-0.37,-3.28,39.42,0.44,-0.70,-9.25,100.0,0,0,107.31,0,0,0.0,0,0,0,0,5724,0,30.00,4,142.1,0,0,0.0,0.0,0.0,0.0,0,0,2.627,2.627,81.917,22.715,0,110.00,435.8,8750,0.0,0.0,110.0,110.0,433.0,0.00,0,0,1,166.7,62.1,62.1,72.5,72.5,34.0,-1.27,-6.48,15.7,32.8,3,-318.889,-34.1,100.0,26.1,33.0,26.4,35.6,0,1,0.0,0.00,0.00,0.00,0.00,3045,5537,3745,3495,317.5,309.6,345.8,345.5,25.94,22.43,24.88,23.72,325.0,325.0,355.0,355.0,99.95,100.00,99.99,100.00,2.12,2.19,0.86,1.04,-15.3,-10.9,-3.4,-3.2,88.1,66.2,75.3,68.0,95.1,67.3,78.4,70.1,91.0,64.8,76.6,67.9,87.5,63.9,76.0,67.2,-1.84,1.85,0.09,0.06,0.00,105.10,107.30,107.36,107.25,13.4,28.7,1.654992447112675,132.877531310887,46.093019000254394,-18.005085822594822,10.803051550459628
2.650,114.8,44.053628508637118,-78.681686530147260,-158.9,-84.7,-25.0,-41.8,5474.6,5475,139.7,0,1,1,0,1,1,0,0,0,100,1,1.186,26.0,0.0,-0.54,59.817,66.0,100.0,26.0,26.0,26.0,26.0,0.59,-1.31,-0.30,386.0,-2.62,-3.07,-2.19,-2.68,-709.50,579.38,6.0,0.00,0.00,0.00,0.00,0.07,-7.49,-7.49,-0.44,-4.90,-0.48,-5.66,38.76,0.45,-0.74,-7.81,100.0,0,0,104.08,0,0,0.0,0,0,0,0,5552,0,30.00,4,139.7,1,0,0.0,0.0,0.0,0.0,0,0,2.677,2.677,81.917,22.715,1,110.00,435.8,8750,0.0,0.0,110.0,110.0,433.0,0.00,0,0,1,166.7,69.3,69.3,75.4,75.4,34.0,2.28,2.29,4.4,27.6,3,-318.933,-54.4,100.0,18.2,28.8,25.2,33.5,0,1,0.0,0.00,0.00,0.00,0.00,2461,5442,1952,2764,319.2,309.7,349.9,347.2,25.94,22.43,24.88,23.72,325.0,325.0,355.0,355.0,99.95,100.00,99.99,100.00,3.41,3.39,0.89,1.02,-7.4,-7.6,-5.0,-3.3,88.1,66.2,75.3,68.0,95.1,67.5,78.3,70.1,91.0,65.0,76.5,67.9,87.5,64.0,76.0,67.2,-3.04,2.94,0.10,0.07,0.00,106.92,108.34,103.15,105.00,13.4,28.7,1.4677193192160414,133.95783643748175,47.533425854681546,-14.404068259759697,18.00508553808335
2.700,116.7,44.053610971865801,-78.681680234896021,74.6,-22.4,-139.9,-183.1,5476.5,5477,137.1,0,1,1,0,1,1,0,0,0,100,1,1.186,26.0,0.0,-0.54,59.817,66.0,100.0,26.0,26.0,26.0,26.0,0.65,-1.22,-0.17,389.8,-3.11,-3.26,-1.60,-1.58,-708.80,577.43,6.0,0.00,0.00,0.00,0.00,0.07,-7.49,-7.49,-0.69,-3.05,-0.69,-1.37,38.03,0.49,-0.79,-12.78,100.0,0,0,98.38,0,0,0.0,0,0,0,0,5248,0,30.00,4,137.1,0,0,0.0,0.0,0.0,0.0,0,0,2.730,2.730,81.917,22.715,0,110.00,435.8,8750,0.0,0.0,110.0,110.0,433.0,0.00,0,0,1,166.7,65.3,65.3,89.4,89.4,34.0,-4.73,-11.55,0.0,7.1,3,-318.989,-80.9,100.0,21.9,27.7,18.2,24.3,0,1,0.0,0.00,0.00,0.00,0.00,3896,5918,278,1621,315.6,308.8,353.8,350.5,25.94,22.43,24.88,23.72,325.0,325.0,355.0,355.0,99.95,100.00,99.99,100.00,4.78,4.73,1.10,1.24,-12.7,-11.3,-9.1,-5.6,88.1,66.2,75.3,68.0,95.2,67.7,78.3,70.1,91.1,65.2,76.5,67.9,87.5,64.2,75.9,67.2,-4.57,4.41,0.11,0.08,0.00,99.30,102.24,95.64,101.12,13.4,28.7,1.3927670300520472,131.43712448491104,47.89352755406273,-90.02542769041668,-7.20203455664759
2.750,118.6,44.053595683398498,-78.681674569169900,-26.0,-0.2,-97.0,-49.2,5478.4,5478,134.9,1,1,1,0,1,1,0,0,0,100,1,1.186,26.0,0.0,-0.55,59.817,66.0,100.0,26.0,26.0,26.0,26.0,0.64,-1.38,-0.23,391.0,-1.65,-2.83,-1.89,-1.72,-708.17,575.73,6.0,0.00,0.00,0.00,0.00,0.07,-7.49,-7.49,-0.71,-0.27,-0.77,-2.23,37.41,0.65,-0.68,-16.99,100.0,0,0,96.86,0,0,0.0,0,0,0,0,5167,0,30.00,4,134.9,1,0,0.0,0.0,0.0,0.0,0,0,2.777,2.777,81.917,22.715,1,110.00,435.8,8750,0.0,0.0,110.0,110.0,433.0,0.00,0,0,1,333.3,69.8,69.8,87.8,87.8,34.0,-3.50,-7.12,1.1,8.0,3,-319.044,-107.3,100.0,20.6,27.7,13.3,21.9,0,1,0.0,0.00,0.00,0.00,0.00,2517,4255,2669,3176,318.7,313.0,348.0,346.5,25.94,22.43,24.88,23.72,325.0,325.0,355.0,355.0,99.95,100.00,99.99,100.00,6.48,6.23,1.46,1.71,-13.8,-15.9,-8.9,-7.3,88.1,66.2,75.3,68.0,95.3,68.0,78.3,70.2,91.2,65.4,76.5,67.9,87.6,64.4,75.9,67.2,-6.16,5.86,0.12,0.08,0.00,95.09,99.35,95.42,98.30,13.4,28.7,1.5384732691860459,124.95529366844008,46.81322239901679,-90.02542797492893,-7.202034556647519
