Time,Distance,GPS Latitude,GPS Longitude,Damper Velocity (Calc) FL,Damper Velocity (Calc) FR,Damper Velocity (Calc) RL,Damper Velocity (Calc) RR,Corr Dist,Corr Dist (Unstretched),Corr Speed,ABS Active,ABS Enabled,AID Allow Tire Blankets,AID Auto Blip,AID Auto Clutch,AID Auto Shift,AID Fuel Rate,AID Ideal Line,AID Mech Damage,AID Stability,AID Tire Wear Rate,Air Density,Air Temp,Ballast,Best Lap Delta,Best Lap Time,Brake Bias,Brake Pos,Brake Temp FL,Brake Temp FR,Brake Temp RL,Brake Temp RR,CG Accel Lateral,CG Accel Longitudinal,CG Accel Vertical,CG Height,Camber FL,Camber FR,Camber RL,Camber RR,Car Coord X,Car Coord Y,Car Coord Z,Car Damage Front,Car Damage Left,Car Damage Rear,Car Damage Right,Car Pos Norm,Caster FL,Caster FR,Chassis Pitch Angle,Chassis Pitch Rate,Chassis Roll Angle,Chassis Roll Rate,Chassis Velocity X,Chassis Velocity Y,Chassis Velocity Z,Chassis Yaw Rate,Clutch Pos,DRS Active,DRS Available,Drive Train Speed,ERS Heat Charging,ERS Is Charging,ERS Max Energy,ERS Power Level,ERS Recovery Level,Engine Brake Setting,Engine Limiter,Engine RPM,Flags,Fuel Level,Gear,Ground Speed,HR Sample Clock,In Pit,KERS Charge,KERS Deployed Energy,KERS Input,KERS Max Energy,LR Sample Clock,Lap Invalidated,Lap Time,Lap Time2,Last Lap Time,Last Sector Time,MR Sample Clock,Max Fuel,Max Power,Max RPM,Max Sus Travel FL,Max Sus Travel FR,Max Sus Travel RL,Max Sus Travel RR,Max Torque,Max Turbo Boost,Num Tires Off Track,Penalties Enabled,Position,Raw Data Sample Rate,Ride Height FL,Ride Height FR,Ride Height RL,Ride Height RR,Road Temp,Self Align Torque FL,Self Align Torque FR,Self Align Torque RL,Self Align Torque RR,Session Lap Count,Session Time Left,Steering Angle,Surface Grip,Suspension Travel FL,Suspension Travel FR,Suspension Travel RL,Suspension Travel RR,TC Active,TC Enabled,Throttle Pos,Tire Dirt Level FL,Tire Dirt Level FR,Tire Dirt Level RL,Tire Dirt Level RR,Tire Load FL,Tire Load FR,Tire Load RL,Tire Load RR,Tire Loaded Radius FL,Tire Loaded Radius FR,Tire Loaded Radius RL,Tire Loaded Radius RR,Tire Pressure FL,Tire Pressure FR,Tire Pressure RL,Tire Pressure RR,Tire Radius FL,Tire Radius FR,Tire Radius RL,Tire Radius RR,Tire Rubber Grip FL,Tire Rubber Grip FR,Tire Rubber Grip RL,Tire Rubber Grip RR,Tire Slip Angle FL,Tire Slip Angle FR,Tire Slip Angle RL,Tire Slip Angle RR,Tire Slip Ratio FL,Tire Slip Ratio FR,Tire Slip Ratio RL,Tire Slip Ratio RR,Tire Temp Core FL,Tire Temp Core FR,Tire Temp Core RL,Tire Temp Core RR,Tire Temp Inner FL,Tire Temp Inner FR,Tire Temp Inner RL,Tire Temp Inner RR,Tire Temp Middle FL,Tire Temp Middle FR,Tire Temp Middle RL,Tire Temp Middle RR,Tire Temp Outer FL,Tire Temp Outer FR,Tire Temp Outer RL,Tire Temp Outer RR,Toe In FL,Toe In FR,Toe In RL,Toe In RR,Turbo Boost,Wheel Angular Speed FL,Wheel Angular Speed FR,Wheel Angular Speed RL,Wheel Angular Speed RR,Wind Direction,Wind Speed,CG Distance,Lateral Velocity,Longitudinal Velocity,Lateral Acceleration,Longitudinal Acceleration
s,m,deg,deg,mm/s,mm/s,mm/s,mm/s,m,m,km/h,,,,,,,,,%,%,,kg/m3,C,kg,s,s,%,%,C,C,C,C,G,G,G,mm,deg,deg,deg,deg,m,m,m,,,,,,deg,deg,deg,deg/s,deg,deg/s,m/s,m/s,m/s,deg/s,%,,,rad/s,,,MJ,,,,,rpm,,l,,km/h,,,%,kJ,%,MJ,,,s,s,s,s,,l,hp,rpm,mm,mm,mm,mm,N.m,,,,,Hz,mm,mm,mm,mm,C,N.m,N.m,N.m,N.m,,s,deg,%,mm,mm,mm,mm,,,%,,,,,N,N,N,N,mm,mm,mm,mm,psi,psi,psi,psi,mm,mm,mm,mm,%,%,%,%,deg,deg,deg,deg,%,%,%,%,C,C,C,C,C,C,C,C,C,C,C,C,C,C,C,C,deg,deg,deg,deg,,rad/s,rad/s,rad/s,rad/s,deg,km/h,G,Km/h,Km/h,Km/h^2,Km/h^2
0.000,0.0,44.054630712634754,-78.681959474254654,-83.1,53.1,-70.0,-119.8,8499.1,8499,109.6,0,1,1,0,1,1,0,0,0,100,1,1.186,26.0,0.0,-0.003,51.476,66.0,0.0,26.0,26.0,26.0,26.0,-0.33,0.44,-0.10,387.5,-1.89,-2.35,-1.44,-0.76,-739.85,690.82,5.7,0.00,0.00,0.00,0.00,0.00,-7.49,-7.49,-0.31,-6.76,0.01,-2.63,30.46,-0.05,-0.25,5.60,100.0,0,0,88.21,0,0,0.0,0,0,0,0,5913,0,30.00,3,109.6,1,0,0.0,0.0,0.0,0.0,1,0,0.011,0.011,55.081,20.169,1,110.00,435.8,8750,0.0,0.0,110.0,110.0,433.0,0.00,0,0,1,333.3,83.8,83.8,64.9,64.9,34.0,-23.37,-16.09,-20.48,-4.2,5,-314.690,17.5,100.0,11.9,14.4,40.3,32.9,0,1,100.0,0.00,0.00,0.00,0.00,2215,2836,3674,3478,319.5,317.4,346.0,346.5,25.56,23.83,26.47,25.79,325.0,325.0,355.0,355.0,99.88,100.00,99.92,99.96,-0.87,-0.81,-0.37,-0.26,-0.1,-0.0,2.7,3.2,85.7,75.0,85.2,80.9,90.7,77.1,91.3,85.5,87.4,74.0,90.0,83.6,84.1,72.3,89.1,82.4,1.02,-1.02,0.06,0.06,0.00,93.45,93.03,88.21,88.21,19.5,25.8,0.5590169943749475
0.050,1.5,44.054617492607143,-78.681954707850153,182.5,133.8,-121.8,-139.9,8500.7,8501,110.5,0,1,1,0,1,1,0,0,0,100,1,1.186,26.0,0.0,0.000,51.476,66.0,0.0,26.0,26.0,26.0,26.0,-0.39,0.45,0.16,385.1,-2.08,-2.47,-0.56,-1.75,-739.32,689.35,5.7,0.00,0.00,0.00,0.00,0.00,-7.49,-7.49,-0.52,-0.67,-0.22,-4.32,30.71,-0.06,-0.38,9.88,100.0,0,0,89.42,0,0,0.0,0,0,0,0,5994,0,30.00,3,110.5,0,0,0.0,0.0,0.0,0.0,1,0,0.063,0.063,55.081,20.169,0,110.00,435.8,8750,0.0,0.0,110.0,110.0,433.0,0.00,0,0,1,166.7,71.6,71.6,73.4,73.4,34.0,-52.32,-10.75,-22.04,-2.2,5,-314.740,16.6,100.0,21.0,21.1,34.2,25.9,0,1,96.5,0.00,0.00,0.00,0.00,4521,3410,3876,2508,313.0,316.0,345.2,348.9,25.56,23.83,26.48,25.79,325.0,325.0,355.0,355.0,99.88,100.00,99.92,99.96,-0.68,-0.56,-0.55,-0.41,-0.1,0.0,3.0,3.9,85.7,74.9,85.2,80.9,90.7,77.0,91.3,85.5,87.3,74.0,90.0,83.5,84.0,72.2,89.1,82.3,0.98,-0.99,0.07,0.08,0.00,94.73,93.83,89.42,89.42,19.5,25.8,0.6166036003787199,102.98908932335881,36.73037447492915
0.100,3.1,44.054604992036822,-78.681950301174282,14.3,-138.9,-83.5,-24.4,8502.2,8502,111.4,0,1,1,0,1,1,0,0,0,100,1,1.186,26.0,0.0,0.018,51.476,66.0,0.0,26.0,26.0,26.0,26.0,-0.41,0.44,-0.18,389.6,-2.26,-2.98,-1.84,-1.97,-738.83,687.96,5.7,0.00,0.00,0.00,0.00,0.00,-7.49,-7.49,-0.42,2.97,-0.45,-2.55,30.94,-0.16,-0.28,10.76,100.0,0,0,89.54,0,0,0.0,0,0,0,0,6003,0,30.00,3,111.4,1,0,0.0,0.0,0.0,0.0,1,0,0.111,0.111,55.081,20.169,1,110.00,435.8,8750,0.0,0.0,110.0,110.0,433.0,0.00,0,0,1,333.3,80.0,80.0,82.3,82.3,34.0,-43.52,-0.23,-56.03,-6.7,5,-314.790,14.1,100.0,21.7,14.1,30.1,24.6,0,1,80.5,0.00,0.00,0.00,0.00,4039,103,5186,2885,314.9,324.5,342.9,347.7,25.56,23.83,26.48,25.79,325.0,325.0,355.0,355.0,99.88,100.00,99.92,99.96,-0.64,-0.71,-0.79,-0.63,-0.1,-0.1,2.4,3.4,85.7,74.9,85.2,80.9,90.6,77.0,91.3,85.5,87.3,74.0,90.0,83.5,84.0,72.2,89.1,82.3,0.85,-0.85,0.07,0.08,0.00,95.57,94.30,89.54,89.54,19.5,25.8,0.6277738446287803,104.06939442150242,36.73037453183152,54.01525632973829,7.2020345566474475
0.150,4.6,44.054591502212737,-78.681945534769767,-39.5,-83.5,141.0,183.2,8503.8,8504,112.2,0,1,1,0,1,1,0,0,0,100,1,1.186,26.0,0.0,0.018,51.476,66.0,0.0,26.0,26.0,26.0,26.0,-0.48,0.35,0.11,385.8,-2.09,-2.69,-0.81,-1.67,-738.30,686.46,5.7,0.00,0.00,0.00,0.00,0.00,-7.49,-7.49,-0.41,-2.64,-0.29,3.18,31.17,-0.17,-0.27,7.95,100.0,0,0,89.25,0,0,0.0,0,0,0,0,5983,0,30.00,3,112.2,0,0,0.0,0.0,0.0,0.0,0,0,0.161,0.161,55.081,20.169,0,110.00,435.8,8750,0.0,0.0,110.0,110.0,433.0,0.00,0,0,1,333.3,81.6,81.6,76.0,76.0,34.0,-42.67,-6.18,-46.15,-16.9,5,-314.840,12.2,100.0,19.8,9.9,37.1,33.8,0,1,69.9,0.00,0.00,0.00,0.00,3773,1761,4276,4493,315.6,320.7,344.2,343.8,25.56,23.83,26.48,25.79,325.0,325.0,355.0,355.0,99.88,100.00,99.92,99.96,-0.75,-0.70,-0.81,-0.62,-0.0,-0.0,1.3,2.2,85.7,74.9,85.2,80.9,90.6,76.9,91.3,85.5,87.2,73.9,90.0,83.5,83.9,72.1,89.0,82.3,0.71,-0.74,0.07,0.06,0.00,95.86,95.19,89.25,89.25,19.5,25.8,0.6041522986797286,108.39061495633264,37.450577930593894,18.005085822595106,-14.404068544271524
0.200,6.2,44.054577922456488,-78.681940948229581,14.8,73.4,-55.7,-168.2,8505.3,8505,112.8,0,1,1,0,1,1,0,0,0,100,1,1.186,26.0,0.0,0.036,51.476,66.0,0.0,26.0,26.0,26.0,26.0,-0.45,0.42,-0.15,387.7,-1.94,-2.53,-1.37,-1.83,-737.79,684.95,5.7,0.00,0.00,0.00,0.00,0.00,-7.49,-7.49,-0.52,-0.74,-0.18,5.43,31.35,-0.17,-0.30,8.43,100.0,0,0,90.97,0,0,0.0,0,0,0,0,6098,0,30.00,3,112.8,1,0,0.0,0.0,0.0,0.0,0,0,0.213,0.213,55.081,20.169,1,110.00,435.8,8750,0.0,0.0,110.0,110.0,433.0,0.00,0,0,1,166.7,77.2,77.2,77.9,77.9,34.0,-52.52,-8.02,-36.69,-7.5,5,-314.890,11.0,100.0,20.5,13.6,34.3,25.4,0,1,78.9,0.00,0.00,0.00,0.00,4653,2438,4013,2728,313.4,318.8,345.1,348.6,25.56,23.83,26.48,25.79,325.0,325.0,355.0,355.0,99.88,100.00,99.92,99.96,-0.69,-0.61,-0.79,-0.68,-0.1,-0.1,2.7,3.4,85.7,74.9,85.3,80.9,90.6,76.9,91.2,85.4,87.2,73.9,89.9,83.4,83.9,72.1,89.0,82.3,0.65,-0.66,0.08,0.08,0.00,96.57,95.77,90.97,90.97,19.5,25.8,0.6335613624582863,105.86990300376193,35.28996767740437,-14.404068259759555,-25.207119525707284
0.250,7.8,44.054565062157522,-78.681936721418026,-82.2,2.8,-30.6,32.2,8506.9,8507,113.7,0,1,1,0,1,1,0,0,0,100,1,1.186,26.0,0.0,0.054,51.476,66.0,0.0,26.0,26.0,26.0,26.0,-0.42,0.50,-0.08,388.2,-2.45,-2.21,-1.34,-1.64,-737.32,683.52,5.7,0.00,0.00,0.00,0.00,0.01,-7.49,-7.49,-0.55,-1.68,0.03,0.66,31.59,-0.18,-0.25,6.70,100.0,0,0,90.83,0,0,0.0,0,0,0,0,6089,0,30.00,3,113.7,0,0,0.0,0.0,0.0,0.0,0,0,0.261,0.261,55.081,20.169,0,110.00,435.8,8750,0.0,0.0,110.0,110.0,433.0,0.00,0,0,1,333.3,82.2,82.2,73.2,73.2,34.0,-22.69,-9.36,-45.69,-14.4,5,-314.940,10.5,100.0,16.4,13.7,32.8,27.0,0,1,93.8,0.00,0.00,0.00,0.00,2327,2350,4573,5006,319.2,318.8,343.8,342.6,25.56,23.83,26.48,25.79,325.0,325.0,355.0,355.0,99.88,100.00,99.92,99.96,-0.66,-0.64,-0.74,-0.55,-0.1,-0.1,2.1,2.8,85.7,74.9,85.3,80.9,90.5,76.9,91.2,85.4,87.1,73.8,89.9,83.4,83.9,72.1,89.0,82.2,0.61,-0.63,0.08,0.08,0.00,97.09,96.56,90.83,90.83,19.5,25.8,0.657875368135941,106.95020813035669,34.929865978023166,21.606102531895175,-3.6010175628356933
0.300,9.4,44.054551212604792,-78.681932224809998,52.1,42.1,67.7,36.0,8508.5,8509,114.6,0,1,1,0,1,1,0,0,0,100,1,1.186,26.0,0.0,0.072,51.476,66.0,0.0,26.0,26.0,26.0,26.0,-0.42,0.53,0.14,385.8,-2.79,-1.80,0.30,-1.88,-736.82,681.98,5.7,0.00,0.00,0.00,0.00,0.01,-7.49,-7.49,-0.67,-2.03,-0.15,-2.11,31.84,-0.15,-0.34,6.97,100.0,0,0,92.12,0,0,0.0,0,0,0,0,6176,0,30.00,3,114.6,1,0,0.0,0.0,0.0,0.0,0,0,0.311,0.311,55.081,20.169,1,110.00,435.8,8750,0.0,0.0,110.0,110.0,433.0,0.00,0,0,1,333.3,77.1,77.1,73.3,73.3,34.0,-50.70,-8.81,-23.30,-3.5,5,-315.000,10.1,100.0,19.0,15.9,36.2,28.8,0,1,100.0,0.00,0.00,0.00,0.00,4477,2723,3855,2558,314.0,318.5,344.1,348.0,25.56,23.83,26.48,25.79,325.0,325.0,355.0,355.0,99.88,100.00,99.92,99.96,-0.61,-0.51,-0.63,-0.46,-0.1,-0.0,2.5,3.0,85.7,74.9,85.3,80.9,90.5,76.8,91.2,85.4,87.1,73.8,89.9,83.4,83.8,72.0,88.9,82.2,0.59,-0.60,0.07,0.06,0.00,97.98,97.29,92.12,92.12,19.5,25.8,0.6905794668247819,108.03051325695145,34.9298659211208,57.616273892573986,7.202033987623935
0.350,11.0,44.054538082509346,-78.681927997998457,-17.9,31.1,-77.7,-72.2,8510.1,8510,115.4,0,1,1,0,1,1,0,0,0,100,1,1.186,26.0,0.0,0.087,51.476,66.0,0.0,26.0,26.0,26.0,26.0,-0.33,0.57,-0.21,388.1,-2.40,-1.86,-0.64,-1.91,-736.35,680.52,5.7,0.00,0.00,0.00,0.00,0.01,-7.49,-7.49,-0.64,1.91,-0.26,-4.14,32.08,-0.19,-0.28,7.59,100.0,0,0,93.39,0,0,0.0,0,0,0,0,6260,0,30.00,3,115.4,0,0,0.0,0.0,0.0,0.0,0,0,0.360,0.360,55.081,20.169,0,110.00,435.8,8750,0.0,0.0,110.0,110.0,433.0,0.00,0,0,1,333.3,79.4,79.4,74.8,74.8,34.0,-35.61,-3.34,-33.36,-5.5,5,-315.040,8.7,100.0,18.1,17.4,32.3,25.2,0,1,100.0,0.00,0.00,0.00,0.00,3765,1218,4853,3369,316.0,321.4,343.3,346.7,25.55,23.82,26.48,25.79,325.0,325.0,355.0,355.0,99.88,100.00,99.92,99.96,-0.52,-0.50,-0.69,-0.54,-0.1,-0.1,3.3,3.9,85.7,74.9,85.3,80.9,90.4,76.8,91.1,85.4,87.0,73.8,89.9,83.4,83.8,72.0,88.9,82.2,0.52,-0.52,0.08,0.07,0.00,98.82,98.04,93.39,93.39,19.5,25.8,0.6913031173081747,112.71183551961408,35.65006937678556,57.616273892573986,5.690236548616667e-07
0.400,12.6,44.054523063838523,-78.681923321526099,55.1,-40.4,109.3,73.0,8511.7,8512,116.5,0,1,1,0,1,1,0,0,0,100,1,1.186,26.0,0.0,0.102,51.476,66.0,0.0,26.0,26.0,26.0,26.0,-0.48,0.56,0.27,382.7,-1.86,-2.92,-0.78,-1.82,-735.83,678.85,5.7,0.00,0.00,0.00,0.00,0.01,-7.49,-7.49,-0.54,1.16,-0.29,2.21,32.38,-0.19,-0.28,6.40,100.0,0,0,93.25,0,0,0.0,0,0,0,0,6251,0,30.00,3,116.5,1,0,0.0,0.0,0.0,0.0,0,0,0.414,0.414,55.081,20.169,1,110.00,435.8,8750,0.0,0.0,110.0,110.0,433.0,0.00,0,0,1,166.7,75.7,75.7,69.8,69.8,34.0,-45.58,-2.93,-50.46,-12.6,5,-315.090,6.2,100.0,20.9,15.4,37.8,28.9,0,1,100.0,0.00,0.00,0.00,0.00,4769,2629,5286,4896,313.1,317.9,341.4,342.9,25.55,23.82,26.49,25.79,325.0,325.0,355.0,355.0,99.88,100.00,99.92,99.96,-0.52,-0.44,-0.73,-0.55,-0.1,-0.1,2.2,2.8,85.7,74.9,85.3,80.9,90.4,76.7,91.1,85.3,87.0,73.7,89.8,83.4,83.7,72.0,88.9,82.2,0.38,-0.39,0.06,0.07,0.00,99.71,99.09,93.26,93.26,19.5,25.8,0.7854298186343577,113.79214064620885,34.929865978023166,-50.414239620438366,-28.808137088542836
0.450,14.2,44.054509663946597,-78.681919274578874,88.0,63.5,-57.4,47.3,8513.4,8513,117.4,0,1,1,0,1,1,0,0,0,100,1,1.186,26.0,0.0,0.114,51.476,66.0,0.0,26.0,26.0,26.0,26.0,-0.42,0.60,0.34,380.3,-1.74,-2.24,-1.07,-1.49,-735.38,677.36,5.7,0.00,0.00,0.00,0.00,0.01,-7.49,-7.49,-0.41,4.86,-0.26,1.09,32.63,-0.17,-0.29,5.79,100.0,0,0,94.22,0,0,0.0,0,0,0,0,6316,0,30.00,3,117.4,0,0,0.0,0.0,0.0,0.0,0,0,0.461,0.461,55.081,20.169,0,110.00,435.8,8750,0.0,0.0,110.0,110.0,433.0,0.00,0,0,1,333.3,69.4,69.4,73.2,73.2,34.0,-49.51,-1.28,-46.77,-9.2,5,-315.140,4.7,100.0,25.3,18.6,34.9,31.2,0,1,100.0,0.00,0.00,0.00,0.00,5672,3323,5503,4172,310.3,316.2,341.3,344.4,25.56,23.82,26.49,25.79,325.0,325.0,355.0,355.0,99.88,100.00,99.92,99.96,-0.42,-0.29,-0.64,-0.48,-0.1,-0.1,2.6,3.1,85.7,74.9,85.3,80.9,90.3,76.7,91.1,85.3,87.0,73.7,89.8,83.3,83.7,71.9,88.9,82.2,0.29,-0.29,0.06,0.06,0.00,100.67,100.06,94.22,94.22,19.5,25.8,0.807465169527454,107.67041155757025,32.769255667931276,-14.404068544271524,-14.404068544271382
0.500,15.9,44.054496174122505,-78.681915137699491,-145.2,-53.8,45.7,40.5,8515.0,8515,118.4,0,1,1,0,1,1,0,0,0,100,1,1.186,26.0,0.0,0.132,51.476,66.0,0.0,26.0,26.0,26.0,26.0,-0.35,0.50,0.09,383.1,-2.61,-1.94,-1.11,-0.79,-734.92,675.86,5.7,0.00,0.00,0.00,0.00,0.01,-7.49,-7.49,-0.21,2.16,-0.05,2.93,32.89,-0.15,-0.20,3.93,100.0,0,0,94.60,0,0,0.0,0,0,0,0,6342,0,30.00,3,118.3,1,0,0.0,0.0,0.0,0.0,0,0,0.510,0.510,55.081,20.169,1,110.00,435.8,8750,0.0,0.0,110.0,110.0,433.0,0.00,0,0,1,166.7,78.2,78.2,65.6,65.6,34.0,-28.68,-5.22,-50.59,-15.3,5,-315.190,4.1,100.0,18.0,15.9,37.2,33.2,0,1,100.0,0.00,0.00,0.00,0.00,3441,3083,5710,4846,316.6,316.7,341.0,343.2,25.55,23.82,26.49,25.79,325.0,325.0,355.0,355.0,99.88,100.00,99.92,99.96,-0.39,-0.37,-0.59,-0.43,-0.1,-0.1,2.1,2.5,85.7,74.9,85.3,80.9,90.3,76.7,91.1,85.3,86.9,73.6,89.8,83.3,83.7,71.9,88.9,82.1,0.24,-0.25,0.06,0.07,0.00,101.11,100.87,94.60,94.60,19.5,25.8,0.6169278726074873,112.3517337917817,33.48945912359603,93.62644468422886,14.404068544271453
0.550,17.5,44.054481605112493,-78.681910910887936,-81.9,-64.1,97.4,62.6,8516.7,8517,119.3,0,1,1,0,1,1,0,0,0,100,1,1.186,26.0,0.0,0.144,51.476,66.0,0.0,26.0,26.0,26.0,26.0,-0.17,0.42,-0.18,386.7,-2.33,-2.56,-0.92,-1.59,-734.45,674.24,5.7,0.00,0.00,0.00,0.00,0.01,-7.49,-7.49,-0.32,-6.04,-0.04,0.42,33.16,-0.09,-0.25,2.01,100.0,0,0,95.61,0,0,0.0,0,0,0,0,6409,0,30.00,3,119.3,0,0,0.0,0.0,0.0,0.0,0,0,0.561,0.561,55.081,20.169,0,110.00,435.8,8750,0.0,0.0,110.0,110.0,433.0,0.00,0,0,1,333.3,86.1,86.1,64.1,64.1,34.0,-12.59,-0.75,-23.27,1.1,5,-315.240,4.6,100.0,13.9,12.7,42.0,36.4,0,1,100.0,0.00,0.00,0.00,0.00,1933,1652,4574,3199,320.5,321.2,343.5,346.8,25.55,23.82,26.49,25.79,325.0,325.0,355.0,355.0,99.88,100.00,99.92,99.96,-0.36,-0.34,-0.32,-0.21,-0.1,-0.1,2.3,2.4,85.7,74.9,85.3,80.9,90.2,76.6,91.1,85.3,86.8,73.6,89.8,83.3,83.6,71.8,88.8,82.1,0.27,-0.28,0.05,0.05,0.00,101.55,101.36,95.61,95.61,19.5,25.8,0.4875448697299562,117.03305602599313,34.20966252235842,21.606102816407287,-3.6010175628356222
0.600,19.2,44.054466946170315,-78.681906594144237,48.4,79.1,-189.9,-117.6,8518.3,8518,120.2,0,1,1,0,1,1,0,0,0,100,1,1.186,26.0,0.0,0.156,51.476,66.0,0.0,26.0,26.0,26.0,26.0,-0.15,0.47,-0.16,388.1,-2.12,-2.28,-1.49,-1.44,-733.97,672.61,5.7,0.00,0.00,0.00,0.00,0.01,-7.49,-7.49,-0.56,-3.43,-0.16,-4.70,33.41,-0.08,-0.35,2.97,100.0,0,0,97.09,0,0,0.0,0,0,0,0,6508,0,30.00,3,120.2,1,0,0.0,0.0,0.0,0.0,0,0,0.611,0.611,55.081,20.169,1,110.00,435.8,8750,0.0,0.0,110.0,110.0,433.0,0.00,0,0,1,333.3,79.6,79.6,75.1,75.1,34.0,-21.07,-0.78,-15.97,2.3,5,-315.290,5.9,100.0,16.3,16.6,32.6,30.5,0,1,100.0,0.00,0.00,0.00,0.00,3052,2462,3766,3152,317.3,318.3,346.1,347.0,25.55,23.82,26.49,25.79,325.0,325.0,355.0,355.0,99.88,100.00,99.92,99.96,-0.32,-0.29,-0.26,-0.13,-0.1,-0.1,3.2,3.4,85.7,74.9,85.3,80.9,90.1,76.6,91.0,85.3,86.8,73.6,89.7,83.3,83.5,71.8,88.8,82.1,0.34,-0.34,0.09,0.06,0.00,102.48,102.22,97.08,97.08,19.5,25.8,0.5186520991955975,114.51234407342243,33.129357367312465,18.00508553808342,-3.6010169938120384
0.650,20.9,44.054453006685421,-78.681902637129170,6.6,-50.4,-50.6,-108.3,8520.0,8520,121.1,0,1,1,0,1,1,0,0,0,100,1,1.186,26.0,0.0,0.168,51.476,66.0,0.0,26.0,26.0,26.0,26.0,-0.25,0.73,-0.02,388.9,-1.71,-2.24,-1.01,-2.40,-733.53,671.06,5.7,0.00,0.00,0.00,0.00,0.01,-7.49,-7.49,-0.68,-1.74,-0.32,-1.29,33.66,-0.10,-0.31,4.29,100.0,0,0,97.49,0,0,0.0,0,0,0,0,6536,0,30.00,3,121.1,0,0,0.0,0.0,0.0,0.0,1,0,0.660,0.660,55.081,20.169,0,110.00,435.8,8750,0.0,0.0,110.0,110.0,433.0,0.00,0,0,1,333.3,80.6,80.6,77.5,77.5,34.0,-23.20,-2.41,-21.23,5.8,5,-315.340,7.2,100.0,16.6,14.1,30.0,25.1,0,1,100.0,0.00,0.00,0.00,0.00,3007,2564,4211,4407,316.9,318.4,344.5,343.2,25.55,23.82,26.49,25.79,325.0,325.0,355.0,355.0,99.88,100.00,99.92,99.96,-0.43,-0.34,-0.42,-0.21,-0.1,-0.2,3.4,3.8,85.7,74.9,85.3,80.9,90.1,76.5,91.0,85.2,86.7,73.5,89.7,83.3,83.5,71.8,88.8,82.1,0.41,-0.42,0.09,0.08,0.00,103.43,102.99,97.49,97.49,19.5,25.8,0.7718808198161163,118.83356457980148,33.84956082297722,54.01525632973829,7.202034556647519
0.700,22.6,44.054437268557322,-78.681898140521142,42.0,8.7,32.1,31.3,8521.7,8522,122.1,0,1,1,0,1,1,0,0,0,100,1,1.186,26.0,0.0,0.180,51.476,66.0,0.0,26.0,26.0,26.0,26.0,-0.21,0.46,-0.24,389.9,-1.83,-2.19,-1.06,-1.66,-733.03,669.31,5.7,0.00,0.00,0.00,0.00,0.01,-7.49,-7.49,-0.76,-1.07,-0.39,1.24,33.94,-0.12,-0.34,5.07,100.0,0,0,98.73,0,0,0.0,0,0,0,0,6618,0,30.00,3,122.1,1,0,0.0,0.0,0.0,0.0,1,0,0.714,0.714,55.081,20.169,1,110.00,435.8,8750,0.0,0.0,110.0,110.0,433.0,0.00,0,0,1,166.7,81.2,81.2,80.7,80.7,34.0,-20.73,-2.06,-16.23,-1.5,5,-315.390,7.2,100.0,18.7,14.5,31.6,26.6,0,1,100.0,0.00,0.00,0.00,0.00,2739,1348,2982,3533,317.8,321.3,347.4,346.3,25.55,23.82,26.49,25.79,325.0,325.0,355.0,355.0,99.88,100.00,99.92,99.96,-0.43,-0.41,-0.48,-0.31,-0.1,-0.0,3.0,3.5,85.7,74.9,85.3,80.9,90.0,76.5,91.0,85.2,86.7,73.5,89.7,83.2,83.4,71.7,88.7,82.0,0.43,-0.44,0.08,0.08,0.00,104.30,103.79,98.73,98.73,19.5,25.8,0.5597320787662612,119.91386970639626,33.84956082297722,-46.813222342114216,-21.60610253189528
0.750,24.3,44.054423059275948,-78.681894183506074,21.1,83.2,-15.6,10.8,8523.4,8523,123.1,0,1,1,0,1,1,0,0,0,100,1,1.186,26.0,0.0,0.195,51.476,66.0,0.0,26.0,26.0,26.0,26.0,-0.35,0.60,0.28,383.9,-2.27,-2.70,-1.23,-1.60,-732.59,667.73,5.7,0.00,0.00,0.00,0.00,0.02,-7.49,-7.49,-0.77,1.50,-0.40,-1.71,34.20,-0.13,-0.32,5.57,100.0,0,0,98.61,0,0,0.0,0,0,0,0,6610,0,30.00,3,123.1,0,0,0.0,0.0,0.0,0.0,1,0,0.761,0.761,55.081,20.169,0,110.00,435.8,8750,0.0,0.0,110.0,110.0,433.0,0.00,0,0,1,333.3,73.9,73.9,72.0,72.0,34.0,-43.46,-0.75,-51.12,-3.2,5,-315.450,6.8,100.0,19.8,18.7,30.9,27.2,0,1,100.0,0.00,0.00,0.00,0.00,4639,2980,6464,3902,313.4,316.4,340.0,345.0,25.55,23.82,26.49,25.79,325.0,325.0,355.0,355.0,99.88,100.00,99.92,99.96,-0.46,-0.33,-0.55,-0.34,-0.1,-0.0,2.6,3.0,85.7,74.8,85.3,81.0,90.0,76.4,90.9,85.2,86.6,73.4,89.7,83.2,83.4,71.7,88.7,82.0,0.40,-0.40,0.08,0.09,0.00,105.28,104.86,98.61,98.61,19.5,25.8,0.7489325737341113,114.15224234559005,31.68895056978769,-14.404068259759697,-10.80305098143576
0.800,26.0,44.054408760062415,-78.681890226491007,24.0,-102.1,20.7,15.7,8525.2,8525,123.9,0,1,1,0,1,1,0,0,0,100,1,1.186,26.0,0.0,0.207,51.476,66.0,0.0,26.0,26.0,26.0,26.0,-0.31,0.50,-0.06,386.7,-2.31,-2.35,-1.48,-1.07,-732.15,666.14,5.7,0.00,0.00,0.00,0.00,0.02,-7.49,-7.49,-0.71,1.54,-0.28,4.82,34.44,-0.15,-0.27,5.59,100.0,0,0,100.04,0,0,0.0,0,0,0,0,6707,0,30.00,3,123.9,1,0,0.0,0.0,0.0,0.0,1,0,0.810,0.810,55.081,20.169,1,110.00,435.8,8750,0.0,0.0,110.0,110.0,433.0,0.00,0,0,1,333.3,77.3,77.3,82.0,82.0,34.0,-42.56,-3.16,-23.79,-10.7,5,-315.490,5.8,100.0,21.0,13.6,31.9,28.0,0,1,100.0,0.00,0.00,0.00,0.00,4516,2180,3433,4672,313.8,319.3,346.8,343.7,25.55,23.81,26.50,25.79,325.0,325.0,355.0,355.0,99.88,100.00,99.92,99.96,-0.47,-0.41,-0.60,-0.44,-0.1,-0.1,3.0,3.5,85.7,74.8,85.3,81.0,89.9,76.4,90.9,85.2,86.6,73.4,89.6,83.2,83.4,71.6,88.7,82.0,0.35,-0.36,0.08,0.08,0.00,105.97,105.43,100.04,100.04,19.5,25.8,0.5913543776789008,118.47346288042029,32.76925572483364,126.03559905109549,25.20711952570732
0.850,27.7,44.054393471595112,-78.681885999679452,-67.9,2.7,67.7,143.0,8526.9,8527,124.9,0,1,1,0,1,1,0,0,0,100,1,1.186,26.0,0.0,0.216,51.476,66.0,0.0,26.0,26.0,26.0,26.0,-0.24,0.38,-0.27,387.1,-2.85,-1.95,-1.43,-1.12,-731.68,664.44,5.7,0.00,0.00,0.00,0.00,0.02,-7.49,-7.49,-0.67,-1.51,-0.18,0.61,34.71,-0.14,-0.26,3.93,100.0,0,0,100.61,0,0,0.0,0,0,0,0,6745,0,30.00,3,124.9,0,0,0.0,0.0,0.0,0.0,1,0,0.861,0.861,55.081,20.169,0,110.00,435.8,8750,0.0,0.0,110.0,110.0,433.0,0.00,0,0,1,166.7,82.5,82.5,73.4,73.4,34.0,-21.95,-2.22,-30.96,-4.2,5,-315.540,5.0,100.0,17.6,13.7,35.3,35.1,0,1,100.0,0.00,0.00,0.00,0.00,2743,1598,4528,2743,318.5,321.2,344.3,348.3,25.55,23.81,26.50,25.79,325.0,325.0,355.0,355.0,99.88,100.00,99.92,99.96,-0.39,-0.37,-0.47,-0.36,-0.1,-0.0,2.6,2.9,85.7,74.8,85.4,81.0,89.9,76.4,90.9,85.1,86.5,73.4,89.6,83.2,83.3,71.6,88.7,82.0,0.30,-0.31,0.07,0.06,0.00,106.54,106.21,100.61,100.61,19.5,25.8,0.5243090691567331,126.7558022506996,34.20966252235842,21.60610281640757,-10.803052119483176
0.900,29.5,44.054377103941881,-78.681881682935753,52.6,64.5,24.2,-82.3,8528.6,8529,125.9,0,1,1,0,1,1,0,0,0,100,1,1.186,26.0,0.0,0.228,51.476,66.0,0.0,26.0,26.0,26.0,26.0,-0.27,0.44,0.14,383.2,-2.39,-3.12,-1.79,-1.23,-731.20,662.62,5.7,0.00,0.00,0.00,0.00,0.02,-7.49,-7.49,-0.75,-1.01,-0.04,3.45,35.00,-0.11,-0.33,3.83,100.0,0,0,100.90,0,0,0.0,0,0,0,0,6764,0,30.00,3,125.9,1,0,0.0,0.0,0.0,0.0,1,0,0.914,0.914,55.081,20.169,1,110.00,435.8,8750,0.0,0.0,110.0,110.0,433.0,0.00,0,0,1,166.7,75.4,75.4,71.2,71.2,34.0,-31.69,4.21,-32.73,-4.4,5,-315.600,3.7,100.0,20.2,16.9,36.5,31.0,0,1,100.0,0.00,0.00,0.00,0.00,3977,3324,4224,4263,314.9,316.6,344.1,344.3,25.55,23.81,26.50,25.79,325.0,325.0,355.0,355.0,99.88,100.00,99.92,99.96,-0.34,-0.26,-0.44,-0.29,-0.1,-0.1,2.3,2.6,85.7,74.8,85.4,81.0,89.8,76.3,90.9,85.1,86.5,73.3,89.6,83.1,83.3,71.6,88.6,82.0,0.22,-0.24,0.06,0.07,0.00,107.58,107.12,100.90,100.90,19.5,25.8,0.5348831648126533,120.63407316206104,31.688950512885324,-90.02542797492893,-36.01017107616677
0.950,31.3,44.054363344321310,-78.681878085649331,12.9,-9.3,-125.0,-4.3,8530.4,8530,126.7,0,1,1,0,1,1,0,0,0,100,1,1.186,26.0,0.0,0.240,51.476,66.0,0.0,26.0,26.0,26.0,26.0,-0.18,0.49,-0.24,387.9,-3.32,-3.24,-2.31,-1.73,-730.80,661.09,5.7,0.00,0.00,0.00,0.00,0.02,-7.49,-7.49,-0.71,1.58,0.08,1.91,35.21,-0.11,-0.28,3.25,100.0,0,0,102.39,0,0,0.0,0,0,0,0,6864,0,30.00,3,126.7,0,0,0.0,0.0,0.0,0.0,1,0,0.960,0.960,55.081,20.169,0,110.00,435.8,8750,0.0,0.0,110.0,110.0,433.0,0.00,0,0,1,333.3,79.3,79.3,80.4,80.4,34.0,-18.99,1.52,-22.11,-0.7,5,-315.640,3.3,100.0,20.9,16.5,30.2,30.8,0,1,100.0,0.00,0.00,0.00,0.00,2535,1453,3409,3411,318.9,321.0,346.8,346.1,25.55,23.81,26.50,25.79,325.0,325.0,355.0,355.0,99.88,100.00,99.92,99.96,-0.29,-0.28,-0.42,-0.29,-0.1,-0.1,3.1,3.4,85.7,74.8,85.4,81.0,89.8,76.3,90.8,85.1,86.4,73.3,89.5,83.1,83.2,71.5,88.6,81.9,0.21,-0.20,0.09,0.07,0.00,108.12,107.88,102.39,102.39,19.5,25.8,0.5745432968889289,117.75325945320671,30.608645414741744,54.015256329737866,10.803052119483176
1.000,33.0,44.054347696125369,-78.681874038702105,-114.2,-61.3,108.9,73.6,8532.2,8532,127.7,0,1,1,0,1,1,0,0,0,100,1,1.186,26.0,0.0,0.249,51.476,66.0,0.0,26.0,26.0,26.0,26.0,-0.20,0.55,-0.03,385.3,-2.42,-2.42,-2.60,-2.30,-730.35,659.35,5.7,0.00,0.00,0.00,0.00,0.02,-7.49,-7.49,-0.78,-3.89,0.13,-0.16,35.50,-0.08,-0.29,1.94,100.0,0,0,102.01,0,0,0.0,0,0,0,0,6838,0,30.00,3,127.7,1,0,0.0,0.0,0.0,0.0,1,0,1.011,1.011,55.081,20.169,1,110.00,435.8,8750,0.0,0.0,110.0,110.0,433.0,0.00,0,0,1,333.3,83.7,83.7,65.6,65.6,34.0,-11.96,1.94,-56.18,8.8,5,-315.690,3.1,100.0,15.2,13.4,35.7,34.5,0,1,100.0,0.00,0.00,0.00,0.00,2044,2434,6602,4017,319.9,318.7,339.4,344.6,25.55,23.81,26.50,25.79,325.0,325.0,355.0,355.0,99.88,100.00,99.92,99.96,-0.25,-0.21,-0.33,-0.15,-0.1,-0.1,2.3,2.5,85.7,74.8,85.4,81.0,89.7,76.2,90.8,85.1,86.4,73.2,89.5,83.1,83.2,71.5,88.6,81.9,0.18,-0.19,0.06,0.07,0.00,108.81,108.72,102.01,102.01,19.5,25.8,0.5860034129593445,126.03559879503483,32.76925572483364,57.6162736080623,10.80305155045945
1.050,34.8,44.054331868065105,-78.681869901822708,27.1,45.8,-58.4,-144.8,8534.0,8534,128.6,0,1,1,0,1,1,0,0,0,100,1,1.186,26.0,0.0,0.258,51.476,66.0,0.0,26.0,26.0,26.0,26.0,-0.15,0.52,-0.17,388.1,-1.75,-2.10,-2.10,-2.07,-729.89,657.59,5.7,0.00,0.00,0.00,0.00,0.02,-7.49,-7.49,-0.99,-2.31,0.16,1.77,35.73,-0.08,-0.35,2.46,100.0,0,0,104.17,0,0,0.0,0,0,0,0,6983,0,30.00,3,128.6,0,0,0.0,0.0,0.0,0.0,1,0,1.061,1.061,55.081,20.169,0,110.00,435.8,8750,0.0,0.0,110.0,110.0,433.0,0.00,0,0,1,333.3,79.5,79.5,75.2,75.2,34.0,-17.24,2.84,-17.64,3.4,5,-315.740,2.0,100.0,16.5,15.7,32.8,27.2,0,1,100.0,0.00,0.00,0.00,0.00,3305,2681,3617,3180,316.7,317.8,346.0,347.2,25.55,23.81,26.50,25.79,325.0,325.0,355.0,355.0,99.88,100.00,99.92,99.96,-0.21,-0.16,-0.29,-0.17,-0.1,-0.1,3.6,3.8,85.7,74.8,85.4,81.0,89.7,76.2,90.8,85.1,86.3,73.2,89.5,83.1,83.1,71.4,88.6,81.9,0.13,-0.14,0.07,0.07,0.00,109.64,109.40,104.17,104.17,19.5,25.8,0.5672741841473133,123.51488681401294,31.68895056978769,-14.404068259759555,-14.404069113295144
1.100,36.6,44.054316849394290,-78.681866124671970,-2.7,-5.5,-93.7,23.7,8535.8,8536,129.5,0,1,1,0,1,1,0,0,0,100,1,1.186,26.0,0.0,0.273,51.476,66.0,0.0,26.0,26.0,26.0,26.0,-0.11,0.61,-0.24,388.0,-2.61,-1.93,-1.98,-1.45,-729.47,655.92,5.6,0.00,0.00,0.00,0.00,0.02,-7.49,-7.49,-1.05,-0.73,0.11,-3.61,36.00,-0.09,-0.31,1.51,100.0,0,0,104.12,0,0,0.0,0,0,0,0,6980,0,30.00,3,129.5,1,0,0.0,0.0,0.0,0.0,1,0,1.110,1.110,55.081,20.169,1,110.00,435.8,8750,0.0,0.0,110.0,110.0,433.0,0.00,0,0,1,333.3,81.0,81.0,77.3,77.3,34.0,-16.50,4.13,-28.92,5.3,5,-315.790,-0.4,100.0,16.4,15.4,28.1,28.4,0,1,100.0,0.00,0.00,0.00,0.00,3157,2048,5100,4352,317.6,319.5,343.1,344.0,25.55,23.81,26.50,25.80,325.0,325.0,355.0,355.0,99.88,100.00,99.92,99.96,-0.12,-0.05,-0.30,-0.09,-0.1,-0.1,3.1,3.3,85.7,74.8,85.4,81.0,89.6,76.1,90.8,85.0,86.3,73.1,89.5,83.1,83.0,71.4,88.5,81.9,0.01,-0.01,0.09,0.07,0.00,110.43,110.30,104.12,104.12,19.5,25.8,0.6646803743153546,124.59519196905887,31.328848813504127,57.61627389257413,10.803051550459521
1.150,38.4,44.054300751537539,-78.681862077724745,7.4,-21.6,61.0,18.9,8537.6,8538,130.5,0,1,1,0,1,1,0,0,0,100,1,1.186,26.0,0.0,0.282,51.476,66.0,0.0,26.0,26.0,26.0,26.0,-0.06,0.53,-0.20,388.0,-2.56,-2.70,-0.98,-1.61,-729.02,654.13,5.6,0.00,0.00,0.00,0.00,0.02,-7.49,-7.49,-1.12,-2.04,0.12,1.14,36.26,-0.08,-0.31,0.71,100.0,0,0,104.87,0,0,0.0,0,0,0,0,7030,0,30.00,3,130.5,0,0,0.0,0.0,0.0,0.0,0,0,1.161,1.161,55.081,20.169,0,110.00,435.8,8750,0.0,0.0,110.0,110.0,433.0,0.00,0,0,1,166.7,81.8,81.8,76.0,76.0,34.0,-8.21,9.52,-16.45,5.4,5,-315.840,-3.1,100.0,16.8,14.3,31.1,29.4,0,1,100.0,0.00,0.00,0.00,0.00,2334,2306,4120,4021,319.0,318.9,345.0,344.9,25.55,23.81,26.50,25.80,325.0,325.0,355.0,355.0,99.88,100.00,99.92,99.96,0.01,0.04,-0.27,-0.10,-0.1,-0.1,2.9,3.0,85.7,74.8,85.4,81.0,89.5,76.1,90.7,85.0,86.2,73.1,89.4,83.0,83.0,71.4,88.5,81.9,-0.16,0.15,0.07,0.08,0.00,111.16,111.08,104.87,104.87,19.5,25.8,0.5696490147450446,129.27651420327035,32.76925572483364,54.01525661425012,18.00508610710704
1.200,40.2,44.054284563748638,-78.681857940845347,-2.9,121.7,14.2,-3.2,8539.4,8539,131.4,0,1,1,0,1,1,0,0,0,100,1,1.186,26.0,0.0,0.282,51.476,66.0,0.0,26.0,26.0,26.0,26.0,0.01,0.51,0.22,383.6,-2.16,-2.77,-1.99,-2.06,-728.56,652.33,5.6,0.00,0.00,0.00,0.00,0.02,-7.49,-7.49,-1.24,-1.28,0.17,-0.38,36.52,-0.07,-0.35,-1.00,100.0,0,0,105.39,0,0,0.0,0,0,0,0,7065,0,30.00,3,131.4,1,0,0.0,0.0,0.0,0.0,0,0,1.211,1.211,55.081,20.169,1,110.00,435.8,8750,0.0,0.0,110.0,110.0,433.0,0.00,0,0,1,166.7,73.4,73.4,71.0,71.0,34.0,-13.51,32.03,-20.21,11.3,5,-315.890,-4.8,100.0,16.6,20.4,31.8,29.2,0,1,100.0,0.00,0.00,0.00,0.00,4384,4641,4130,3819,314.3,313.1,344.7,345.1,25.55,23.80,26.51,25.80,325.0,325.0,355.0,355.0,99.88,100.00,99.92,99.96,0.03,0.20,-0.19,-0.02,-0.1,-0.0,2.7,2.7,85.7,74.8,85.4,81.0,89.5,76.0,90.7,85.0,86.2,73.1,89.4,83.0,82.9,71.3,88.5,81.8,-0.27,0.27,0.09,0.08,0.00,112.05,112.13,105.39,105.39,19.5,25.8,0.555517776493246,129.9967176304839,33.12935742421483,14.404068544270956,3.6010164247882415
1.250,42.1,44.054268286027565,-78.681853803965964,189.6,50.3,-39.8,4.0,8541.2,8541,132.3,0,1,1,0,1,1,0,0,0,100,1,1.186,26.0,0.0,0.300,51.476,66.0,0.0,26.0,26.0,26.0,26.0,0.05,0.50,-0.04,383.9,-2.40,-2.64,-1.59,-2.34,-728.10,650.52,5.6,0.00,0.00,0.00,0.00,0.03,-7.49,-7.49,-1.06,6.61,0.20,2.82,36.77,-0.03,-0.32,-2.18,100.0,0,0,106.64,0,0,0.0,0,0,0,0,7148,0,30.00,3,132.3,0,0,0.0,0.0,0.0,0.0,0,0,1.263,1.263,55.081,20.169,0,110.00,435.8,8750,0.0,0.0,110.0,110.0,433.0,0.00,0,0,1,166.7,72.5,72.5,79.0,79.0,34.0,-2.75,10.41,-10.84,16.2,5,-315.940,-6.5,100.0,26.1,22.9,29.8,29.4,0,1,100.0,0.00,0.00,0.00,0.00,2704,2048,3620,3920,317.7,320.3,346.1,344.9,25.55,23.80,26.51,25.80,325.0,325.0,355.0,355.0,99.88,100.00,99.92,99.96,0.20,0.19,-0.08,0.06,-0.1,-0.0,2.9,2.8,85.7,74.8,85.4,81.0,89.4,76.0,90.7,85.0,86.1,73.0,89.4,83.0,82.9,71.3,88.4,81.8,-0.36,0.35,0.08,0.08,0.00,112.90,112.99,106.64,106.64,19.5,25.8,0.5040833264451424,130.71692105769745,33.129357367312465,-21.606102816407144,-7.2020345566474475
1.300,43.9,44.054251918374341,-78.681849667086581,-121.0,-77.6,216.6,294.8,8543.1,8543,133.4,0,1,1,0,1,1,0,0,0,100,1,1.186,26.0,0.0,0.309,51.476,66.0,0.0,26.0,26.0,26.0,26.0,0.15,0.52,0.33,375.2,-2.07,-2.86,-1.19,-1.66,-727.64,648.70,5.6,0.00,0.00,0.00,0.00,0.03,-7.49,-7.49,-0.82,1.41,0.27,1.32,37.06,0.00,-0.24,-3.26,100.0,0,0,105.98,0,0,0.0,0,0,0,0,7104,0,30.00,3,133.4,1,0,0.0,0.0,0.0,0.0,0,0,1.314,1.314,55.081,20.169,1,110.00,435.8,8750,0.0,0.0,110.0,110.0,433.0,0.00,0,0,1,166.7,74.5,74.5,57.8,57.8,34.0,2.23,30.42,-18.86,31.3,5,-316.000,-8.6,100.0,20.1,19.1,40.7,44.1,0,1,100.0,0.00,0.00,0.00,0.00,3786,3650,6955,5612,315.6,315.4,337.3,340.7,25.55,23.80,26.51,25.80,325.0,325.0,355.0,355.0,99.88,100.00,99.92,99.96,0.29,0.35,-0.02,0.16,-0.1,-0.1,1.9,1.6,85.7,74.8,85.4,81.0,89.3,76.0,90.7,85.0,86.0,73.0,89.4,83.0,82.8,71.2,88.4,81.8,-0.47,0.46,0.05,0.04,0.00,113.56,113.90,105.98,105.98,19.5,25.8,0.6338769596696192,127.83610734884317,32.409153968550086,-18.00508553808328,5.690236548616667e-07
1.350,45.8,44.054236360110558,-78.681845710071514,-35.8,-9.7,-73.2,-84.0,8544.9,8545,134.2,0,1,1,0,1,1,0,0,0,100,1,1.186,26.0,0.0,0.318,51.476,66.0,0.0,26.0,26.0,26.0,26.0,0.16,0.52,-0.12,382.4,-2.61,-2.72,-1.98,-1.26,-727.20,646.97,5.6,0.00,0.00,0.00,0.00,0.03,-7.49,-7.49,-0.81,-0.45,0.46,3.71,37.29,0.05,-0.25,-4.72,100.0,0,0,107.46,0,0,0.0,0,0,0,0,7204,0,30.00,3,134.2,0,0,0.0,0.0,0.0,0.0,0,0,1.361,1.361,55.081,20.169,0,110.00,435.8,8750,0.0,0.0,110.0,110.0,433.0,0.00,0,0,1,166.7,79.9,79.9,68.0,68.0,34.0,3.25,15.36,-6.54,23.9,5,-316.040,-11.2,100.0,18.3,18.6,37.0,39.9,0,1,100.0,0.00,0.00,0.00,0.00,1846,1969,4217,4910,320.3,319.7,344.8,342.5,25.55,23.80,26.51,25.80,325.0,325.0,355.0,355.0,99.88,100.00,99.92,99.96,0.47,0.43,0.15,0.25,-0.1,-0.1,2.7,2.4,85.7,74.8,85.4,81.0,89.3,75.9,90.6,84.9,86.0,73.0,89.3,83.0,82.8,71.2,88.4,81.8,-0.62,0.60,0.06,0.05,0.00,114.11,114.47,107.46,107.46,19.5,25.8,0.5571355310873648,128.91641250388912,33.12935742421483,57.616273892573986,25.207120094730797
1.400,47.7,44.054219722660847,-78.681841393327801,-127.3,-2.5,-41.7,7.0,8546.8,8547,135.1,0,1,1,0,1,1,0,0,0,100,1,1.186,26.0,0.0,0.339,51.476,66.0,0.0,26.0,26.0,26.0,26.0,0.34,0.41,-0.08,383.4,-2.40,-0.94,-2.07,-1.47,-726.72,645.12,5.5,0.00,0.00,0.00,0.00,0.03,-7.49,-7.49,-0.96,-4.91,0.53,-3.30,37.55,0.09,-0.32,-5.91,100.0,0,0,107.94,0,0,0.0,0,0,0,0,7236,0,30.00,3,135.1,1,0,0.0,0.0,0.0,0.0,0,0,1.413,1.413,55.081,20.169,1,110.00,435.8,8750,0.0,0.0,110.0,110.0,433.0,0.00,0,0,1,166.7,81.1,81.1,62.8,62.8,34.0,3.08,49.80,-1.97,37.2,5,-316.090,-13.5,100.0,11.9,18.5,34.9,40.3,0,1,100.0,0.00,0.00,0.00,0.00,940,4888,4143,5041,322.8,312.3,345.2,342.2,25.54,23.80,26.51,25.80,325.0,325.0,355.0,355.0,99.88,100.00,99.92,99.96,0.69,0.72,0.27,0.41,-0.1,-0.1,2.5,2.0,85.7,74.8,85.4,81.0,89.2,75.9,90.6,84.9,85.9,72.9,89.3,83.0,82.7,71.2,88.3,81.8,-0.76,0.76,0.07,0.05,0.00,114.66,115.28,107.94,107.94,19.5,25.8,0.5386093203798092,133.59773473810057,34.929865978023166,14.404068259759697,18.005084969059695
1.450,49.6,44.054202995278978,-78.681836986651930,51.3,-19.1,-118.8,-208.1,8548.7,8549,135.9,0,1,1,0,1,1,0,0,0,100,1,1.186,26.0,0.0,0.345,51.476,66.0,0.0,26.0,26.0,26.0,26.0,0.31,0.58,-0.26,388.0,-2.38,-1.84,-1.46,-0.87,-726.23,643.26,5.5,0.00,0.00,0.00,0.00,0.03,-7.49,-7.49,-1.17,-2.54,0.29,-1.83,37.77,0.15,-0.36,-7.60,100.0,0,0,109.71,0,0,0.0,0,0,0,0,7355,0,30.00,3,135.9,0,0,0.0,0.0,0.0,0.0,0,0,1.464,1.464,55.081,20.169,0,110.00,435.8,8750,0.0,0.0,110.0,110.0,433.0,0.00,0,0,1,166.7,81.2,81.2,76.7,76.7,34.0,12.81,20.36,6.08,29.0,5,-316.140,-14.2,100.0,14.5,17.5,29.0,29.9,0,1,100.0,0.00,0.00,0.00,0.00,2608,2127,3801,4599,318.2,319.3,345.9,343.9,25.54,23.80,26.51,25.80,325.0,325.0,355.0,355.0,99.88,100.00,99.92,99.96,0.73,0.75,0.45,0.59,-0.1,-0.1,3.9,3.3,85.6,74.8,85.4,81.0,89.2,75.9,90.6,84.9,85.9,72.9,89.3,82.9,82.7,71.2,88.3,81.7,-0.81,0.80,0.08,0.05,0.00,115.48,115.91,109.71,109.71,19.5,25.8,0.7071774883294858,130.3568193298651,34.9298659211208,-68.4193251585215,-3.60101756283548
1.500,51.5,44.054187167218714,-78.681832669908232,38.1,-2.2,-64.6,83.7,8550.6,8551,136.8,0,1,1,0,1,1,0,0,0,100,1,1.186,26.0,0.0,0.354,51.476,66.0,0.0,26.0,26.0,26.0,26.0,0.46,0.47,0.02,385.8,-2.35,-2.61,-1.26,-0.93,-725.75,641.50,5.5,0.00,0.00,0.00,0.00,0.03,-7.49,-7.49,-1.29,-1.73,0.21,-2.63,38.01,0.22,-0.40,-9.44,100.0,0,0,110.03,0,0,0.0,0,0,0,0,7376,0,30.00,3,136.8,1,0,0.0,0.0,0.0,0.0,0,0,1.511,1.511,55.081,20.169,1,110.00,435.8,8750,0.0,0.0,110.0,110.0,433.0,0.00,0,0,1,166.7,75.9,75.9,82.5,82.5,34.0,24.44,44.82,9.75,33.8,5,-316.190,-13.5,100.0,16.4,17.4,25.8,34.1,0,1,100.0,0.00,0.00,0.00,0.00,4619,3680,3277,3948,313.8,315.7,347.3,344.6,25.54,23.80,26.51,25.80,325.0,325.0,355.0,355.0,99.88,100.00,99.92,99.96,0.71,0.84,0.59,0.75,-0.1,-0.1,3.3,2.6,85.6,74.7,85.5,81.0,89.1,75.8,90.5,84.9,85.8,72.9,89.2,82.9,82.6,71.1,88.3,81.7,-0.80,0.78,0.09,0.06,0.00,116.25,116.92,110.03,110.03,19.5,25.8,0.6579513659838393,126.75580222224842,34.56976422173962,7.202034272135904,14.40406911329518
1.550,53.4,44.054171339158451,-78.681828353164519,159.2,119.9,-5.2,-57.0,8552.5,8553,137.6,0,1,1,0,1,1,0,0,0,100,1,1.186,26.0,0.0,0.363,51.476,66.0,0.0,26.0,26.0,26.0,26.0,0.52,0.44,0.15,381.3,-2.96,-2.97,-1.68,-1.18,-725.27,639.74,5.5,0.00,0.00,0.00,0.00,0.03,-7.49,-7.49,-1.17,6.08,0.52,10.75,38.23,0.32,-0.37,-11.16,100.0,0,0,110.98,0,0,0.0,0,0,0,0,7439,0,30.00,3,137.6,0,0,0.0,0.0,0.0,0.0,0,0,1.560,1.560,55.081,20.169,0,110.00,435.8,8750,0.0,0.0,110.0,110.0,433.0,0.00,0,0,1,166.7,66.7,66.7,82.1,82.1,34.0,11.18,62.15,7.14,58.4,5,-316.240,-10.1,100.0,24.3,23.4,25.5,31.2,0,1,100.0,0.00,0.00,0.00,0.00,4411,5055,2677,5862,313.9,311.7,348.6,340.5,25.54,23.80,26.51,25.80,325.0,325.0,355.0,355.0,99.88,100.00,99.92,99.96,0.55,0.66,0.65,0.82,-0.1,-0.1,3.5,2.8,85.6,74.7,85.5,81.0,89.1,75.8,90.5,84.9,85.8,72.9,89.2,82.9,82.6,71.1,88.3,81.7,-0.61,0.62,0.10,0.07,0.00,117.03,118.05,110.98,110.98,19.5,25.8,0.6974955196988724,131.07702275707868,36.37027283245032,93.62644496874069,43.21220563281422
1.600,55.3,44.054154431912259,-78.681823586760004,-12.9,142.9,163.0,261.6,8554.4,8554,138.5,0,1,1,0,1,1,0,0,0,100,1,1.186,26.0,0.0,0.372,51.476,66.0,0.0,26.0,26.0,26.0,26.0,0.59,0.44,0.49,374.4,-2.97,-2.79,-2.29,-0.77,-724.74,637.86,5.5,0.00,0.00,0.00,0.00,0.03,-7.49,-7.49,-0.70,10.00,1.05,8.42,38.50,0.40,-0.25,-9.54,100.0,0,0,110.58,0,0,0.0,0,0,0,0,7412,0,30.00,3,138.5,1,0,0.0,0.0,0.0,0.0,0,0,1.611,1.611,55.081,20.169,1,110.00,435.8,8750,0.0,0.0,110.0,110.0,433.0,0.00,0,0,1,333.3,67.7,67.7,62.0,62.0,34.0,2.16,54.64,15.66,97.4,5,-316.290,-5.0,100.0,23.7,30.5,33.6,44.3,0,1,100.0,0.00,0.00,0.00,0.00,1189,4952,4181,7346,321.3,311.5,344.7,336.7,25.54,23.80,26.51,25.80,325.0,325.0,355.0,355.0,99.88,100.00,99.92,99.96,0.53,0.53,0.73,0.92,-0.1,-0.0,2.3,1.5,85.6,74.7,85.5,81.0,89.0,75.8,90.5,84.9,85.7,72.8,89.2,82.9,82.5,71.1,88.2,81.7,-0.33,0.35,0.06,0.04,0.00,117.92,118.89,110.57,110.57,19.5,25.8,0.8841945487278238,136.1184467191225,38.89098478502104,14.404068544270956,25.207119525707213
1.650,57.2,44.054137344801745,-78.681818640491173,-208.3,-97.5,171.9,143.2,8556.4,8556,139.5,0,1,1,0,1,1,0,0,0,100,1,1.186,26.0,0.0,0.381,51.476,66.0,0.0,26.0,26.0,26.0,26.0,0.56,0.58,0.29,372.7,-3.65,-2.11,-1.49,-0.31,-724.19,635.96,5.5,0.00,0.00,0.00,0.00,0.03,-7.49,-7.49,-0.36,2.22,1.09,-3.84,38.76,0.37,-0.15,-4.64,100.0,0,0,110.59,0,0,0.0,0,0,0,0,7413,0,30.00,3,139.5,0,0,0.0,0.0,0.0,0.0,1,0,1.661,1.661,55.081,20.169,0,110.00,435.8,8750,0.0,0.0,110.0,110.0,433.0,0.00,0,0,1,333.3,76.0,76.0,47.9,47.9,34.0,1.19,44.62,34.10,107.0,5,-316.340,-1.1,100.0,13.3,25.7,42.2,51.5,0,1,100.0,0.00,0.00,0.00,0.00,2196,4595,5769,8753,320.1,313.0,339.3,333.4,25.54,23.80,26.52,25.80,325.0,325.0,355.0,355.0,99.88,100.00,99.92,99.96,0.48,0.53,0.71,0.85,-0.1,-0.0,1.9,1.4,85.6,74.7,85.5,81.0,88.9,75.8,90.5,84.9,85.7,72.8,89.2,82.9,82.5,71.1,88.2,81.7,-0.08,0.09,0.05,0.02,0.00,118.65,119.14,110.58,110.58,19.5,25.8,0.8567963585356791,132.51742961150578,38.89098478502104,-32.4091540823548,10.803050981435902
1.700,59.2,44.054121336877159,-78.681813874086657,89.6,-81.9,-82.6,-35.2,8558.3,8558,140.3,0,1,1,0,1,1,0,0,0,100,1,1.186,26.0,0.0,0.387,51.476,66.0,0.0,26.0,26.0,26.0,26.0,0.35,0.46,0.07,377.1,-2.25,-1.84,-2.17,-1.23,-723.66,634.18,5.5,0.00,0.00,0.00,0.00,0.04,-7.49,-7.49,-0.41,-1.90,0.74,-8.36,38.97,0.27,-0.27,-2.05,100.0,0,0,112.05,0,0,0.0,0,0,0,0,7511,0,30.00,3,140.3,1,0,0.0,0.0,0.0,0.0,1,0,1.710,1.710,55.081,20.169,1,110.00,435.8,8750,0.0,0.0,110.0,110.0,433.0,0.00,0,0,1,333.3,73.8,73.8,62.5,62.5,34.0,4.54,34.24,9.49,37.5,5,-316.390,-0.2,100.0,17.8,21.6,38.1,49.7,0,1,100.0,0.00,0.00,0.00,0.00,3267,4214,5364,4537,316.0,314.4,342.6,343.8,25.54,23.80,26.52,25.81,325.0,325.0,355.0,355.0,99.88,100.00,99.92,99.96,0.37,0.44,0.50,0.59,-0.1,-0.1,2.4,2.2,85.6,74.7,85.5,81.0,88.9,75.8,90.4,84.9,85.6,72.8,89.1,82.9,82.4,71.1,88.2,81.7,0.00,0.01,0.07,0.03,0.00,119.50,119.47,112.04,112.04,19.5,25.8,0.5822370651203855,132.877531310887,39.97128988316463,93.626444684229,43.212205063790705
1.750,61.1,44.054104159834488,-78.681808658021353,41.5,35.0,-19.8,-200.3,8560.3,8560,141.1,0,1,1,0,1,1,0,0,0,100,1,1.186,26.0,0.0,0.396,51.476,66.0,0.0,26.0,26.0,26.0,26.0,0.25,0.43,0.02,379.2,-2.13,-2.14,-0.95,-1.49,-723.08,632.27,5.5,0.00,0.00,0.00,0.00,0.04,-7.49,-7.49,-0.41,0.83,0.44,-3.98,39.21,0.18,-0.34,-1.29,100.0,0,0,112.85,0,0,0.0,0,0,0,0,7565,0,30.00,3,141.1,0,0,0.0,0.0,0.0,0.0,1,0,1.761,1.761,55.081,20.169,0,110.00,435.8,8750,0.0,0.0,110.0,110.0,433.0,0.00,0,0,1,166.7,71.5,71.5,64.1,64.1,34.0,0.08,33.39,7.54,28.6,5,-316.440,-0.2,100.0,19.8,23.3,37.1,39.7,0,1,100.0,0.00,0.00,0.00,0.00,3808,4497,4579,4045,316.1,313.2,343.8,344.6,25.54,23.80,26.52,25.81,325.0,325.0,355.0,355.0,99.88,100.00,99.92,99.96,0.25,0.32,0.30,0.43,-0.1,-0.1,2.3,2.2,85.6,74.7,85.5,81.0,88.8,75.7,90.4,84.9,85.5,72.8,89.1,82.9,82.4,71.0,88.1,81.7,-0.01,0.02,0.06,0.05,0.00,120.21,120.35,112.85,112.85,19.5,25.8,0.4977951385861457,141.88007407992868,43.21220529140011,18.00508553808328,10.803051550459415
1.800,63.1,44.054085903605888,-78.681803082227390,55.2,101.6,19.1,-6.3,8562.3,8562,142.0,0,1,1,0,1,1,0,0,0,100,1,1.186,26.0,0.0,0.411,51.476,66.0,0.0,26.0,26.0,26.0,26.0,0.18,0.39,0.23,377.2,-2.94,-2.37,-1.51,-1.22,-722.46,630.24,5.5,0.00,0.00,0.00,0.00,0.04,-7.49,-7.49,-0.24,4.75,0.43,-2.45,39.46,0.12,-0.37,-0.81,100.0,0,0,113.55,0,0,0.0,0,0,0,0,7612,0,30.00,3,142.0,1,0,0.0,0.0,0.0,0.0,1,0,1.814,1.814,55.081,20.169,1,110.00,435.8,8750,0.0,0.0,110.0,110.0,433.0,0.00,0,0,1,166.7,67.3,67.3,60.4,60.4,34.0,-8.13,36.26,-3.28,24.6,5,-316.500,0.3,100.0,22.6,28.4,38.1,39.4,0,1,100.0,0.00,0.00,0.00,0.00,3085,5334,4102,4580,318.0,310.7,344.7,343.6,25.54,23.80,26.52,25.81,325.0,325.0,355.0,355.0,99.88,100.00,99.92,99.96,0.13,0.21,0.16,0.28,-0.0,-0.1,2.1,2.1,85.6,74.7,85.5,81.0,88.8,75.7,90.4,84.8,85.5,72.7,89.1,82.9,82.3,71.0,88.1,81.7,0.01,0.01,0.06,0.05,0.00,121.09,121.20,113.54,113.54,19.5,25.8,0.4872371086031933,134.67803986469534,41.05159503821057,-104.42949595017637,-28.808136519519323
1.850,65.1,44.054070525206427,-78.681798405755046,-118.1,-134.8,37.9,-4.2,8564.2,8564,142.8,0,1,1,0,1,1,0,0,0,100,1,1.186,26.0,0.0,0.417,51.476,66.0,0.0,26.0,26.0,26.0,26.0,0.09,0.54,0.19,377.9,-3.03,-0.99,-1.67,-1.17,-721.94,628.53,5.5,0.00,0.00,0.00,0.00,0.04,-7.49,-7.49,-0.04,2.51,0.19,-5.78,39.68,0.08,-0.25,0.17,100.0,0,0,113.47,0,0,0.0,0,0,0,0,7607,0,30.00,3,142.8,0,0,0.0,0.0,0.0,0.0,1,0,1.860,1.860,55.081,20.169,0,110.00,435.8,8750,0.0,0.0,110.0,110.0,433.0,0.00,0,0,1,333.3,75.4,75.4,57.3,57.3,34.0,-14.07,12.95,-13.10,41.3,5,-316.540,1.0,100.0,16.7,21.7,40.0,39.2,0,1,100.0,0.00,0.00,0.00,0.00,3784,4049,6422,7101,316.0,315.4,339.3,337.8,25.54,23.80,26.52,25.81,325.0,325.0,355.0,355.0,99.88,100.00,99.92,99.96,0.07,0.13,0.10,0.27,-0.1,-0.1,1.9,1.9,85.6,74.7,85.5,81.1,88.7,75.7,90.3,84.8,85.4,72.7,89.0,82.9,82.3,71.0,88.1,81.7,0.06,-0.05,0.06,0.06,0.00,121.87,121.75,113.47,113.47,19.5,25.8,0.5794825277780168,131.43712448491104,40.33139163944818,54.01525661425012,21.606103100919043
1.900,67.1,44.054053078367268,-78.681793009825398,254.8,88.3,3.3,31.6,8566.2,8566,143.6,0,1,1,0,1,1,0,0,0,100,1,1.186,26.0,0.0,0.426,51.476,66.0,0.0,26.0,26.0,26.0,26.0,0.00,0.38,0.36,374.9,-1.78,-2.67,-1.64,-1.54,-721.34,626.59,5.5,0.00,0.00,0.00,0.00,0.04,-7.49,-7.49,0.10,5.61,-0.05,-2.75,39.89,0.03,-0.36,1.00,100.0,0,0,115.22,0,0,0.0,0,0,0,0,7724,0,30.00,3,143.6,1,0,0.0,0.0,0.0,0.0,1,0,1.911,1.911,55.081,20.169,1,110.00,435.8,8750,0.0,0.0,110.0,110.0,433.0,0.00,0,0,1,333.3,61.1,61.1,68.0,68.0,34.0,-19.58,28.81,-8.37,13.0,5,-316.590,1.6,100.0,29.4,26.1,40.1,40.8,0,1,100.0,0.00,0.00,0.00,0.00,5067,5135,3489,3938,311.1,311.1,346.3,345.5,25.54,23.80,26.52,25.81,325.0,325.0,355.0,355.0,99.88,100.00,99.92,99.96,-0.05,0.08,0.02,0.08,-0.0,-0.1,2.3,2.4,85.6,74.7,85.5,81.1,88.7,75.6,90.3,84.8,85.4,72.7,89.0,82.8,82.2,71.0,88.1,81.7,0.10,-0.09,0.06,0.05,0.00,122.84,122.50,115.22,115.22,19.5,25.8,0.523450093132096,140.07956552612035,43.212205348302476,93.62644468422872,32.40915351333122
1.950,69.1,44.054035541595958,-78.681787613895764,-2.1,-5.5,83.7,21.6,8568.2,8568,144.5,0,1,1,0,1,1,0,0,0,100,1,1.186,26.0,0.0,0.432,51.476,66.0,0.0,26.0,26.0,26.0,26.0,-0.02,0.45,0.61,370.3,-2.17,-2.67,-2.43,-1.96,-720.74,624.64,5.5,0.00,0.00,0.00,0.00,0.04,-7.49,-7.49,0.52,8.51,-0.07,3.39,40.14,0.01,-0.22,1.23,100.0,0,0,114.75,0,0,0.0,0,0,0,0,7692,0,30.00,3,144.5,0,0,0.0,0.0,0.0,0.0,1,0,1.961,1.961,55.081,20.169,0,110.00,435.8,8750,0.0,0.0,110.0,110.0,433.0,0.00,0,0,1,333.3,62.6,62.6,57.2,57.2,34.0,-24.04,23.43,-47.38,35.6,5,-316.640,0.5,100.0,29.3,25.8,44.3,41.8,0,1,100.0,0.00,0.00,0.00,0.00,5227,4925,6765,7359,311.4,312.5,339.0,336.7,25.54,23.80,26.52,25.81,325.0,325.0,355.0,355.0,99.88,100.00,99.92,99.96,-0.06,0.03,-0.14,0.04,-0.1,-0.1,1.5,1.6,85.6,74.7,85.5,81.1,88.6,75.6,90.3,84.8,85.3,72.6,89.0,82.8,82.2,70.9,88.0,81.6,0.06,-0.04,0.04,0.04,0.00,123.54,123.34,114.75,114.75,19.5,25.8,0.758287544405155,140.7997689533339,43.5723069907813,-25.207119525707355,-7.2020351256712445
2.000,71.1,44.054017914892476,-78.681782128033973,-103.4,-7.7,97.4,128.7,8570.3,8570,145.3,0,1,1,0,1,1,0,0,0,100,1,1.186,26.0,0.0,0.438,51.476,66.0,0.0,26.0,26.0,26.0,26.0,-0.01,0.50,0.24,373.6,-2.75,-2.28,-1.78,-1.98,-720.13,622.68,5.6,0.00,0.00,0.00,0.00,0.04,-7.49,-7.49,0.85,4.59,0.07,1.15,40.37,0.01,-0.22,0.23,100.0,0,0,115.56,0,0,0.0,0,0,0,0,7747,0,30.00,3,145.3,1,0,0.0,0.0,0.0,0.0,1,0,2.013,2.013,55.081,20.169,1,110.00,435.8,8750,0.0,0.0,110.0,110.0,433.0,0.00,0,0,1,166.7,72.8,72.8,47.8,47.8,34.0,-3.08,13.23,-30.67,26.7,5,-316.690,-1.2,100.0,24.1,25.4,49.2,48.3,0,1,100.0,0.00,0.00,0.00,0.00,1476,3122,6536,6211,320.9,316.7,338.8,339.3,25.54,23.80,26.53,25.81,325.0,325.0,355.0,355.0,99.88,100.00,99.92,99.96,0.14,0.07,-0.07,0.02,-0.0,-0.0,1.7,1.8,85.6,74.7,85.5,81.1,88.5,75.6,90.3,84.8,85.3,72.6,89.0,82.8,82.1,70.9,88.0,81.6,-0.06,0.07,0.04,0.03,0.00,123.83,123.94,115.56,115.56,19.5,25.8,0.5547071299343465,137.5588535735496,42.49200183573535,-25.2071198102189,-10.803050981435831
2.050,73.2,44.054001187510607,-78.681777001900826,-332.6,-304.6,7.6,-9.0,8572.3,8572,146.1,0,1,1,0,1,1,0,0,0,100,1,1.186,26.0,0.0,0.444,51.476,66.0,0.0,26.0,26.0,26.0,26.0,0.01,0.49,-0.14,384.9,-2.11,-2.74,-2.04,-1.55,-719.56,620.82,5.6,0.00,0.00,0.00,0.00,0.04,-7.49,-7.49,0.80,-7.81,-0.04,-3.62,40.59,0.01,-0.23,-0.50,100.0,0,0,115.87,0,0,0.0,0,0,0,0,7767,0,30.00,3,146.1,0,0,0.0,0.0,0.0,0.0,1,0,2.061,2.061,55.081,20.169,0,110.00,435.8,8750,0.0,0.0,110.0,110.0,433.0,0.00,0,0,1,333.3,94.2,94.2,51.4,51.4,34.0,-0.53,2.41,-22.74,25.3,5,-316.740,-1.4,100.0,7.5,10.2,49.6,47.8,0,1,100.0,0.00,0.00,0.00,0.00,626,677,5604,5732,323.9,322.7,340.4,340.3,25.54,23.79,26.53,25.81,325.0,325.0,355.0,355.0,99.88,100.00,99.92,99.96,0.13,0.06,0.00,0.10,-0.1,-0.1,1.8,1.7,85.6,74.7,85.5,81.1,88.5,75.5,90.3,84.8,85.2,72.6,88.9,82.8,82.0,70.8,88.0,81.6,-0.06,0.08,0.04,0.03,0.00,124.03,124.09,115.87,115.87,19.5,25.8,0.5097057974949863,138.27905697231202,42.49200189263772,10.803050981436115,5.690236548616667e-07
2.100,75.2,44.053983380942810,-78.681771516039021,22.3,-17.3,-392.9,-295.2,8574.3,8574,146.7,0,1,1,0,1,1,0,0,0,100,1,1.186,26.0,0.0,0.459,51.476,66.0,0.0,26.0,26.0,26.0,26.0,0.06,0.22,-0.52,396.3,-1.81,-2.08,-1.62,-1.31,-718.95,618.84,5.6,0.00,0.00,0.00,0.00,0.05,-7.49,-7.49,0.19,-12.03,-0.20,-4.61,40.76,0.01,-0.45,-0.66,100.0,0,0,119.25,0,0,0.0,0,0,0,0,7994,0,30.00,3,146.7,1,0,0.0,0.0,0.0,0.0,1,0,2.111,2.111,55.081,20.169,1,110.00,435.8,8750,0.0,0.0,110.0,110.0,433.0,0.00,0,0,1,333.3,87.7,87.7,82.0,82.0,34.0,-3.46,16.53,-1.62,1.6,5,-316.790,-1.5,100.0,8.6,9.3,29.9,33.1,0,1,100.0,0.00,0.00,0.00,0.00,2277,3099,1365,1041,319.1,317.2,351.2,352.2,25.54,23.79,26.53,25.81,325.0,325.0,355.0,355.0,99.88,100.00,99.92,99.96,0.09,0.20,0.05,0.09,-0.1,-0.1,3.9,3.8,85.6,74.7,85.6,81.1,88.4,75.5,90.2,84.7,85.1,72.5,88.9,82.8,82.0,70.8,87.9,81.6,-0.08,0.09,0.08,0.07,0.00,124.57,124.66,119.25,119.25,19.5,25.8,0.5678027826631357,138.63915867169322,42.49200189263772,54.01525661424955,18.00508553808335
2.150,77.2,44.053966563628784,-78.681766389905874,255.3,203.5,-163.5,-345.0,8576.4,8576,147.3,0,1,1,0,1,1,0,0,0,100,1,1.186,26.0,0.0,0.465,51.476,66.0,0.0,26.0,26.0,26.0,26.0,0.02,0.51,0.06,391.9,-2.13,-2.87,-0.93,-0.45,-718.38,616.97,5.7,0.00,0.00,0.00,0.00,0.05,-7.49,-7.49,-0.13,-0.99,-0.30,2.92,40.93,0.01,-0.51,-0.37,100.0,0,0,121.10,0,0,0.0,0,0,0,0,8118,0,30.00,3,147.3,0,0,0.0,0.0,0.0,0.0,0,0,2.160,2.160,55.081,20.169,0,110.00,435.8,8750,0.0,0.0,110.0,110.0,433.0,0.00,0,0,1,166.7,70.3,70.3,89.6,89.6,34.0,-23.81,23.87,-2.34,2.7,5,-316.840,-0.7,100.0,21.4,19.5,21.8,15.8,0,1,100.0,0.00,0.00,0.00,0.00,5240,3879,2240,3011,311.9,314.2,348.8,347.8,25.54,23.79,26.53,25.81,325.0,325.0,355.0,355.0,99.88,100.00,99.92,99.96,-0.06,0.13,-0.08,0.12,-0.1,-0.1,5.5,5.4,85.6,74.7,85.6,81.1,88.3,75.4,90.2,84.7,85.1,72.5,88.9,82.7,81.9,70.7,87.9,81.5,-0.05,0.04,0.09,0.09,0.00,125.73,125.69,121.10,121.10,19.5,25.8,0.5139066063011839,143.68058263373698,44.29251044644605,104.42949651919974,36.01017107616677
2.200,79.3,44.053947498010736,-78.681760454383266,92.8,95.4,57.4,232.6,8578.4,8578,148.4,0,1,1,0,1,1,0,0,0,100,1,1.186,26.0,0.0,0.471,51.476,66.0,0.0,26.0,26.0,26.0,26.0,0.06,0.56,0.26,381.8,-2.99,-3.56,-0.39,-1.65,-717.72,614.85,5.7,0.00,0.00,0.00,0.00,0.05,-7.49,-7.49,0.16,9.22,-0.17,1.99,41.23,0.03,-0.36,-0.53,100.0,0,0,118.51,0,0,0.0,0,0,0,0,7945,0,30.00,3,148.4,1,0,0.0,0.0,0.0,0.0,0,0,2.214,2.214,55.081,20.169,1,110.00,435.8,8750,0.0,0.0,110.0,110.0,433.0,0.00,0,0,1,166.7,65.7,65.7,77.8,77.8,34.0,-33.39,22.33,-10.84,28.9,5,-316.890,0.1,100.0,26.0,24.2,24.6,27.4,0,1,100.0,0.00,0.00,0.00,0.00,5700,3880,6250,5990,311.3,314.3,340.3,341.0,25.54,23.79,26.53,25.81,325.0,325.0,355.0,355.0,99.88,100.00,99.92,99.96,-0.06,0.02,-0.10,0.18,-0.1,-0.1,2.6,2.5,85.6,74.7,85.6,81.1,88.3,75.4,90.2,84.7,85.0,72.4,88.9,82.7,81.9,70.7,87.9,81.5,0.00,-0.01,0.09,0.07,0.00,126.78,126.79,118.51,118.51,19.5,25.8,0.620322496770833,149.0821083236132,46.093019000254394,-64.81830788019721,-21.606103100918972
2.250,81.4,44.053929331714293,-78.681754878589317,-47.1,-42.6,294.7,326.3,8580.5,8581,149.2,0,1,1,0,1,1,0,0,0,100,1,1.186,26.0,0.0,0.477,51.476,66.0,0.0,26.0,26.0,26.0,26.0,0.01,0.47,0.07,378.8,-2.07,-2.63,-2.31,-1.89,-717.10,612.83,5.7,0.00,0.00,0.00,0.00,0.05,-7.49,-7.49,0.59,6.35,0.14,4.95,41.46,0.04,-0.20,-0.32,100.0,0,0,118.92,0,0,0.0,0,0,0,0,7972,0,30.00,3,149.2,0,0,0.0,0.0,0.0,0.0,0,0,2.264,2.264,55.081,20.169,0,110.00,435.8,8750,0.0,0.0,110.0,110.0,433.0,0.00,0,0,1,166.7,74.5,74.5,63.8,63.8,34.0,-6.43,7.28,-28.86,26.2,5,-316.950,0.3,100.0,23.7,22.1,39.4,43.8,0,1,100.0,0.00,0.00,0.00,0.00,2175,2281,5493,6025,319.4,318.7,342.4,339.4,25.53,23.79,26.53,25.82,325.0,325.0,355.0,355.0,99.88,100.00,99.92,99.96,-0.01,-0.04,-0.07,0.04,-0.1,-0.0,1.8,1.9,85.6,74.7,85.6,81.1,88.2,75.3,90.1,84.7,85.0,72.4,88.8,82.7,81.8,70.7,87.9,81.5,0.02,-0.02,0.06,0.03,0.00,127.26,127.34,118.92,118.92,19.5,25.8,0.47528938553264577,137.19875184571725,42.131900136354155,-115.23254778514769,-36.01017107616677
2.300,83.5,44.053913233857550,-78.681749932320486,-251.3,-158.6,148.0,49.7,8582.6,8583,149.9,0,1,1,0,1,1,0,0,0,100,1,1.186,26.0,0.0,0.483,51.476,66.0,0.0,26.0,26.0,26.0,26.0,0.05,0.38,-0.08,383.6,-1.88,-1.92,-2.01,-1.29,-716.55,611.04,5.7,0.00,0.00,0.00,0.00,0.05,-7.49,-7.49,0.61,-4.86,0.25,1.44,41.66,0.04,-0.18,-0.27,100.0,0,0,119.16,0,0,0.0,0,0,0,0,7988,0,30.00,3,149.9,1,0,0.0,0.0,0.0,0.0,0,0,2.310,2.310,55.081,20.169,1,110.00,435.8,8750,0.0,0.0,110.0,110.0,433.0,0.00,0,0,1,333.3,88.7,88.7,52.9,52.9,34.0,0.00,7.00,-21.06,22.2,5,-316.990,0.3,100.0,11.1,14.2,46.8,46.2,0,1,100.0,0.00,0.00,0.00,0.00,0,2508,5327,5958,325.0,318.6,342.8,340.4,25.53,23.79,26.53,25.82,325.0,325.0,355.0,355.0,99.88,100.00,99.92,99.96,0.00,0.01,-0.02,0.09,0.0,-0.0,1.8,1.8,85.6,74.7,85.6,81.1,88.2,75.3,90.1,84.7,84.9,72.3,88.8,82.7,81.8,70.6,87.8,81.5,0.03,-0.03,0.04,0.04,0.00,127.52,127.63,119.16,119.16,19.5,25.8,0.39153543900903787,137.55885354509843,42.49200189263772,97.22746196255258,32.40915465137846
2.350,85.5,44.053894977628950,-78.681744266594364,-29.3,-9.1,-263.1,-223.4,8584.7,8585,150.7,0,1,1,0,1,1,0,0,0,100,1,1.186,26.0,0.0,0.492,51.476,66.0,0.0,26.0,26.0,26.0,26.0,0.02,0.45,-0.47,391.1,-2.02,-2.20,-1.21,-1.57,-715.92,609.01,5.8,0.00,0.00,0.00,0.00,0.05,-7.49,-7.49,0.20,-8.55,0.04,-5.69,41.86,0.02,-0.34,0.02,100.0,0,0,121.06,0,0,0.0,0,0,0,0,8116,0,30.00,3,150.7,0,0,0.0,0.0,0.0,0.0,0,0,2.361,2.361,55.081,20.169,0,110.00,435.8,8750,0.0,0.0,110.0,110.0,433.0,0.00,0,0,1,333.3,86.2,86.2,71.3,71.3,34.0,-5.26,9.88,-4.89,9.6,5,-317.040,0.1,100.0,9.6,13.7,33.6,35.1,0,1,100.0,0.00,0.00,0.00,0.00,2208,2469,3806,3063,319.6,318.9,345.6,347.4,25.53,23.79,26.53,25.82,325.0,325.0,355.0,355.0,99.88,100.00,99.92,99.96,0.03,0.09,0.04,0.13,-0.1,-0.1,3.1,3.1,85.6,74.7,85.6,81.1,88.1,75.2,90.1,84.6,84.8,72.3,88.8,82.7,81.7,70.6,87.8,81.5,0.02,-0.02,0.07,0.07,0.00,128.04,128.00,121.06,121.06,19.5,25.8,0.6509992319503918,146.9214980419725,45.372815601492,57.6162738925737,18.00508553808335
2.400,87.6,44.053876541536027,-78.681738600868243,117.7,59.8,-120.5,-147.5,8586.8,8587,151.4,0,1,1,0,1,1,0,0,0,100,1,1.186,26.0,0.0,0.498,51.476,66.0,0.0,26.0,26.0,26.0,26.0,0.02,0.40,-0.18,391.1,-2.47,-2.59,-0.63,-1.14,-715.29,606.96,5.8,0.00,0.00,0.00,0.00,0.05,-7.49,-7.49,-0.10,-3.68,-0.26,-5.25,42.07,0.01,-0.45,0.16,100.0,0,0,121.79,0,0,0.0,0,0,0,0,8164,0,30.00,3,151.4,1,0,0.0,0.0,0.0,0.0,0,0,2.411,2.411,55.081,20.169,1,110.00,435.8,8750,0.0,0.0,110.0,110.0,433.0,0.00,0,0,1,333.3,79.5,79.5,77.9,77.9,34.0,-9.64,14.83,-4.31,6.2,5,-317.100,-0.1,100.0,15.5,16.7,27.6,27.7,0,1,100.0,0.00,0.00,0.00,0.00,2890,3044,3920,2512,317.7,316.7,345.4,348.6,25.53,23.79,26.53,25.82,325.0,325.0,355.0,355.0,99.88,100.00,99.92,99.96,0.03,0.08,-0.02,0.13,-0.0,-0.1,3.1,3.0,85.6,74.7,85.6,81.1,88.0,75.2,90.0,84.6,84.8,72.3,88.7,82.6,81.6,70.5,87.8,81.5,0.02,-0.02,0.09,0.07,0.00,128.88,128.88,121.79,121.79,19.5,25.8,0.439089968002003,143.3204809343558,44.29251044644605,-32.40915408235537,-7.202034556647519
2.450,89.8,44.053859184629033,-78.681733204938610,120.0,26.0,18.3,-22.8,8588.9,8589,152.2,0,1,1,0,1,1,0,0,0,100,1,1.186,26.0,0.0,0.501,51.476,66.0,0.0,26.0,26.0,26.0,26.0,-0.04,0.40,-0.10,388.3,-2.93,-2.79,-1.65,-1.55,-714.69,605.03,5.8,0.00,0.00,0.00,0.00,0.05,-7.49,-7.49,-0.15,1.00,-0.28,2.28,42.28,-0.01,-0.45,0.84,100.0,0,0,121.88,0,0,0.0,0,0,0,0,8170,0,30.00,3,152.2,0,0,0.0,0.0,0.0,0.0,0,0,2.460,2.460,55.081,20.169,0,110.00,435.8,8750,0.0,0.0,110.0,110.0,433.0,0.00,0,0,1,333.3,75.3,75.3,80.3,80.3,34.0,-17.58,10.24,-17.29,9.6,5,-317.140,-0.8,100.0,21.5,18.0,28.5,26.6,0,1,100.0,0.00,0.00,0.00,0.00,3753,2359,4137,3547,315.6,318.1,345.0,346.5,25.53,23.79,26.53,25.82,325.0,325.0,355.0,355.0,99.88,100.00,99.92,99.96,-0.01,0.03,-0.15,0.04,-0.0,-0.1,2.5,2.6,85.6,74.7,85.6,81.1,88.0,75.2,90.0,84.6,84.7,72.2,88.7,82.6,81.6,70.5,87.7,81.4,-0.02,0.02,0.09,0.08,0.00,129.68,129.64,121.88,121.88,19.5,25.8,0.41424630354415964,143.68058263373698,44.65261214582725,54.01525661425012,18.00508553808342
2.500,91.9,44.053840658603953,-78.681727449280331,-155.0,-71.8,61.3,89.8,8591.0,8591,152.9,0,1,1,0,1,1,0,0,0,100,1,1.186,26.0,0.0,0.507,51.476,66.0,0.0,26.0,26.0,26.0,26.0,-0.01,0.35,-0.02,387.4,-2.90,-2.52,-1.96,-0.98,-714.05,602.97,5.8,0.00,0.00,0.00,0.00,0.05,-7.49,-7.49,-0.18,-2.83,-0.17,1.13,42.49,-0.02,-0.36,-0.21,100.0,0,0,120.31,0,0,0.0,0,0,0,0,8065,0,30.00,3,152.9,1,0,0.0,0.0,0.0,0.0,0,0,2.511,2.511,55.081,20.169,1,110.00,435.8,8750,0.0,0.0,110.0,110.0,433.0,0.00,0,0,1,333.3,82.0,82.0,69.0,69.0,34.0,-9.75,20.82,-34.02,12.9,5,-317.190,-3.6,100.0,13.8,14.4,31.6,31.0,0,1,31.3,0.00,0.00,0.00,0.00,2908,3406,5469,5038,318.8,315.8,341.1,342.6,25.53,23.78,26.54,25.82,325.0,325.0,355.0,355.0,99.88,100.00,99.92,99.96,0.05,0.19,-0.16,0.04,-0.0,-0.1,1.4,1.3,85.6,74.7,85.6,81.1,87.9,75.1,90.0,84.6,84.6,72.2,88.7,82.6,81.5,70.5,87.7,81.4,-0.17,0.18,0.07,0.06,0.00,130.21,130.20,120.31,120.31,19.5,25.8,0.3507135583350036,148.7220065957808,46.093019000254394,10.803051265947943,3.6010169938120384
2.550,94.0,44.053822042646708,-78.681721693622052,63.7,131.0,-83.3,-29.7,8593.1,8593,152.8,0,1,1,0,1,1,0,0,0,100,1,1.186,26.0,0.0,0.510,51.476,66.0,0.0,26.0,26.0,26.0,26.0,0.12,-0.19,-0.28,388.7,-2.43,-2.13,-2.06,-1.84,-713.41,600.90,5.8,0.00,0.00,0.00,0.00,0.06,-7.49,-7.49,-0.32,-1.25,-0.14,-1.86,42.43,-0.02,-0.41,-2.11,100.0,0,0,118.52,0,0,0.0,0,0,0,0,7945,0,30.00,3,152.8,0,0,0.0,0.0,0.0,0.0,0,0,2.561,2.561,55.081,20.169,0,110.00,435.8,8750,0.0,0.0,110.0,110.0,433.0,0.00,0,0,1,333.3,75.4,75.4,76.8,76.8,34.0,0.32,30.22,-14.32,10.5,5,-317.250,-8.0,100.0,17.0,21.0,27.4,29.6,0,1,0.0,0.00,0.00,0.00,0.00,2860,3899,3213,2294,318.0,314.4,347.4,348.9,25.53,23.78,26.54,25.82,325.0,325.0,355.0,355.0,99.88,100.00,99.92,99.96,0.29,0.36,-0.04,0.10,-0.0,-0.0,-0.6,-0.7,85.6,74.6,85.6,81.1,87.8,75.1,89.9,84.5,84.6,72.1,88.6,82.5,81.4,70.4,87.6,81.3,-0.42,0.43,0.09,0.06,0.00,130.09,130.23,118.52,118.52,19.5,25.8,0.35902646142032485,144.76088776033177,45.01271384520845,-46.81322262662604,-7.202034556647519
2.600,96.1,44.053804505875398,-78.681716207760260,28.5,29.5,68.9,90.2,8595.3,8595,152.4,0,1,1,0,1,1,0,0,0,100,1,1.186,26.0,0.0,0.513,51.476,66.0,0.0,26.0,26.0,26.0,26.0,0.27,-0.18,0.11,383.9,-2.99,-2.28,-1.57,-1.95,-712.80,598.95,5.8,0.00,0.00,0.00,0.00,0.06,-7.49,-7.49,-0.40,-2.79,-0.20,-1.55,42.33,-0.00,-0.45,-4.11,100.0,0,0,118.32,0,0,0.0,0,0,0,0,7932,0,30.00,3,152.4,1,0,0.0,0.0,0.0,0.0,0,0,2.610,2.610,55.081,20.169,1,110.00,435.8,8750,0.0,0.0,110.0,110.0,433.0,0.00,0,0,1,333.3,72.4,72.4,70.9,70.9,34.0,5.16,48.71,-12.11,24.4,5,-317.290,-11.8,100.0,18.4,22.5,30.8,34.1,0,1,0.0,0.00,0.00,0.00,0.00,3158,4682,3830,3644,317.2,312.2,345.5,345.5,25.53,23.78,26.54,25.82,325.0,325.0,355.0,355.0,99.88,100.00,99.92,99.96,0.49,0.55,0.02,0.20,0.0,-0.0,-0.3,-0.5,85.5,74.6,85.6,81.1,87.8,75.0,89.8,84.5,84.5,72.1,88.5,82.5,81.4,70.4,87.6,81.3,-0.66,0.64,0.09,0.06,0.00,129.62,130.00,118.32,118.32,19.5,25.8,0.3426368339802363,144.0406843331182,45.37281554458964,28.80813708854305,18.00508553808335
2.650,98.2,44.053786069782475,-78.681710362169824,19.8,20.4,-8.4,-52.5,8597.4,8597,152.1,0,1,1,0,1,1,0,0,0,100,1,1.186,26.0,0.0,0.513,51.476,66.0,0.0,26.0,26.0,26.0,26.0,0.32,-0.24,-0.25,385.0,-3.18,-2.25,-1.68,-1.20,-712.15,596.90,5.8,0.00,0.00,0.00,0.00,0.06,-7.49,-7.49,-0.52,-1.98,-0.28,-0.50,42.23,0.06,-0.50,-6.80,100.0,0,0,118.10,0,0,0.0,0,0,0,0,7917,0,30.00,3,152.1,0,0,0.0,0.0,0.0,0.0,1,0,2.661,2.661,55.081,20.169,0,110.00,435.8,8750,0.0,0.0,110.0,110.0,433.0,0.00,0,0,1,333.3,73.7,73.7,73.6,73.6,34.0,7.64,36.27,-2.59,33.1,5,-317.340,-14.2,100.0,19.4,23.5,30.4,31.5,0,1,0.0,0.00,0.00,0.00,0.00,2958,3375,3431,4481,318.0,315.7,346.5,344.3,25.53,23.78,26.54,25.82,325.0,325.0,355.0,355.0,99.88,100.00,99.92,99.96,0.61,0.68,0.20,0.37,0.0,-0.0,-0.4,-0.6,85.5,74.6,85.6,81.1,87.7,75.0,89.8,84.4,84.5,72.1,88.5,82.4,81.3,70.4,87.5,81.3,-0.80,0.79,0.08,0.06,0.00,129.18,129.77,117.91,118.29,19.5,25.8,0.4716990566028302,147.64170146918607,46.81322239901679,-10.803050981435831,7.202034556647519
2.700,100.3,44.053767633689553,-78.681704516579387,124.0,59.2,-39.9,33.2,8599.5,8599,151.7,0,1,1,0,1,1,0,0,0,100,1,1.186,26.0,0.0,0.516,51.476,66.0,8.0,26.0,26.0,26.0,26.0,0.46,-0.31,0.12,380.0,-2.28,-1.26,-2.09,-1.33,-711.50,594.85,5.8,0.00,0.00,0.00,0.00,0.06,-7.49,-7.49,-0.62,0.32,-0.24,3.33,42.12,0.15,-0.58,-9.56,69.8,0,0,117.00,0,0,0.0,0,0,0,0,7868,0,30.00,3,151.7,1,0,0.0,0.0,0.0,0.0,1,0,2.711,2.711,55.081,20.169,1,110.00,435.8,8750,0.0,0.0,110.0,110.0,433.0,0.00,0,0,1,333.3,63.2,63.2,78.0,78.0,34.0,21.01,65.30,1.78,47.3,5,-317.390,-13.8,100.0,25.6,26.4,28.4,33.1,0,1,0.0,0.00,0.00,0.00,0.00,5087,5845,3053,4719,312.6,310.0,347.7,343.1,25.53,23.78,26.54,25.82,325.0,325.0,355.0,355.0,99.88,100.00,99.92,99.96,0.59,0.74,0.37,0.53,-0.2,-0.3,-0.4,-0.1,85.5,74.6,85.6,81.1,87.7,75.0,89.7,84.4,84.4,72.1,88.4,82.4,81.3,70.4,87.4,81.2,-0.80,0.81,0.09,0.06,0.00,128.44,129.27,117.23,116.76,19.5,25.8,0.5675385449465085,142.96037923497462,46.093019000254394,-64.81830816470989,-3.6010169938120384
2.750,102.4,44.053750366714716,-78.681698850853266,32.3,122.0,-53.7,18.0,8601.6,8602,150.5,0,1,1,0,1,1,0,0,0,100,1,1.186,26.0,0.0,0.516,51.476,66.0,65.8,26.0,26.0,26.0,26.0,0.53,-1.05,0.21,378.2,-2.03,-2.17,-2.26,-1.63,-710.87,592.93,5.8,0.00,0.00,0.00,0.00,0.06,-7.49,-7.49,-0.46,5.01,-0.08,2.72,41.78,0.28,-0.53,-10.90,18.4,0,0,116.02,0,0,0.0,0,0,0,0,7726,0,30.00,3,150.5,0,0,0.0,0.0,0.0,0.0,1,0,2.760,2.760,55.081,20.169,0,110.00,435.8,8750,0.0,0.0,110.0,110.0,433.0,0.00,0,0,1,333.3,61.5,61.5,73.1,73.1,34.0,11.43,41.97,13.34,64.3,5,-317.440,-10.4,100.0,27.2,32.5,25.7,34.0,0,1,0.0,0.00,0.00,0.00,0.00,3839,4763,5015,5109,315.1,312.0,343.2,341.9,25.53,23.78,26.54,25.82,325.0,325.0,355.0,355.0,99.88,100.00,99.92,99.96,0.59,0.66,0.56,0.78,-2.9,-2.7,-1.2,-1.3,85.5,74.6,85.6,81.1,87.6,75.0,89.6,84.3,84.4,72.1,88.3,82.4,81.3,70.4,87.4,81.2,-0.63,0.65,0.09,0.06,0.00,123.29,124.43,115.95,116.09,19.5,25.8,1.1947803145348521,141.15987065271509,46.45312069963558,-2.8451211164792767e-07,18.00508553808335
