Time,Distance,GPS Latitude,GPS Longitude,Damper Velocity (Calc) FL,Damper Velocity (Calc) FR,Damper Velocity (Calc) RL,Damper Velocity (Calc) RR,Corr Dist,Corr Dist (Unstretched),Corr Speed,ABS Active,ABS Enabled,AID Allow Tire Blankets,AID Auto Blip,AID Auto Clutch,AID Auto Shift,AID Fuel Rate,AID Ideal Line,AID Mech Damage,AID Stability,AID Tire Wear Rate,Air Density,Air Temp,Ballast,Best Lap Delta,Best Lap Time,Brake Bias,Brake Pos,Brake Temp FL,Brake Temp FR,Brake Temp RL,Brake Temp RR,CG Accel Lateral,CG Accel Longitudinal,CG Accel Vertical,CG Height,Camber FL,Camber FR,Camber RL,Camber RR,Car Coord X,Car Coord Y,Car Coord Z,Car Damage Front,Car Damage Left,Car Damage Rear,Car Damage Right,Car Pos Norm,Caster FL,Caster FR,Chassis Pitch Angle,Chassis Pitch Rate,Chassis Roll Angle,Chassis Roll Rate,Chassis Velocity X,Chassis Velocity Y,Chassis Velocity Z,Chassis Yaw Rate,Clutch Pos,DRS Active,DRS Available,Drive Train Speed,ERS Heat Charging,ERS Is Charging,ERS Max Energy,ERS Power Level,ERS Recovery Level,Engine Brake Setting,Engine Limiter,Engine RPM,Flags,Fuel Level,Gear,Ground Speed,HR Sample Clock,In Pit,KERS Charge,KERS Deployed Energy,KERS Input,KERS Max Energy,LR Sample Clock,Lap Invalidated,Lap Time,Lap Time2,Last Lap Time,Last Sector Time,MR Sample Clock,Max Fuel,Max Power,Max RPM,Max Sus Travel FL,Max Sus Travel FR,Max Sus Travel RL,Max Sus Travel RR,Max Torque,Max Turbo Boost,Num Tires Off Track,Penalties Enabled,Position,Raw Data Sample Rate,Ride Height FL,Ride Height FR,Ride Height RL,Ride Height RR,Road Temp,Self Align Torque FL,Self Align Torque FR,Self Align Torque RL,Self Align Torque RR,Session Lap Count,Session Time Left,Steering Angle,Surface Grip,Suspension Travel FL,Suspension Travel FR,Suspension Travel RL,Suspension Travel RR,TC Active,TC Enabled,Throttle Pos,Tire Dirt Level FL,Tire Dirt Level FR,Tire Dirt Level RL,Tire Dirt Level RR,Tire Load FL,Tire Load FR,Tire Load RL,Tire Load RR,Tire Loaded Radius FL,Tire Loaded Radius FR,Tire Loaded Radius RL,Tire Loaded Radius RR,Tire Pressure FL,Tire Pressure FR,Tire Pressure RL,Tire Pressure RR,Tire Radius FL,Tire Radius FR,Tire Radius RL,Tire Radius RR,Tire Rubber Grip FL,Tire Rubber Grip FR,Tire Rubber Grip RL,Tire Rubber Grip RR,Tire Slip Angle FL,Tire Slip Angle FR,Tire Slip Angle RL,Tire Slip Angle RR,Tire Slip Ratio FL,Tire Slip Ratio FR,Tire Slip Ratio RL,Tire Slip Ratio RR,Tire Temp Core FL,Tire Temp Core FR,Tire Temp Core RL,Tire Temp Core RR,Tire Temp Inner FL,Tire Temp Inner FR,Tire Temp Inner RL,Tire Temp Inner RR,Tire Temp Middle FL,Tire Temp Middle FR,Tire Temp Middle RL,Tire Temp Middle RR,Tire Temp Outer FL,Tire Temp Outer FR,Tire Temp Outer RL,Tire Temp Outer RR,Toe In FL,Toe In FR,Toe In RL,Toe In RR,Turbo Boost,Wheel Angular Speed FL,Wheel Angular Speed FR,Wheel Angular Speed RL,Wheel Angular Speed RR,Wind Direction,Wind Speed,CG Distance,Lateral Velocity,Longitudinal Velocity,Lateral Acceleration,Longitudinal Acceleration
s,m,deg,deg,mm/s,mm/s,mm/s,mm/s,m,m,km/h,,,,,,,,,%,%,,kg/m3,C,kg,s,s,%,%,C,C,C,C,G,G,G,mm,deg,deg,deg,deg,m,m,m,,,,,,deg,deg,deg,deg/s,deg,deg/s,m/s,m/s,m/s,deg/s,%,,,rad/s,,,MJ,,,,,rpm,,l,,km/h,,,%,kJ,%,MJ,,,s,s,s,s,,l,hp,rpm,mm,mm,mm,mm,N.m,,,,,Hz,mm,mm,mm,mm,C,N.m,N.m,N.m,N.m,,s,deg,%,mm,mm,mm,mm,,,%,,,,,N,N,N,N,mm,mm,mm,mm,psi,psi,psi,psi,mm,mm,mm,mm,%,%,%,%,deg,deg,deg,deg,%,%,%,%,C,C,C,C,C,C,C,C,C,C,C,C,C,C,C,C,deg,deg,deg,deg,,rad/s,rad/s,rad/s,rad/s,deg,km/h,G,Km/h,Km/h,Km/h^2,Km/h^2
0.000,0.0,44.054632421345801,-78.681902367332683,124.8,108.5,-92.1,-138.0,1581.9,1582,163.1,0,1,1,0,1,1,0,0,0,100,1,1.186,26.0,0.0,0.006,68.644,66.0,0.0,26.0,26.0,26.0,26.0,0.09,0.34,-0.08,383.8,-2.72,-1.71,-1.66,-1.46,-733.50,691.01,5.7,0.00,0.00,0.00,0.00,0.00,-7.49,-7.49,-0.52,-0.28,0.42,-22.70,45.30,0.62,-0.39,13.17,100.0,0,0,130.51,0,0,0.0,0,0,0,0,6962,0,30.00,4,163.1,0,0,0.0,0.0,0.0,0.0,1,0,0.046,0.046,68.644,19.926,0,110.00,435.8,8750,0.0,0.0,110.0,110.0,433.0,0.00,0,0,1,333.3,73.4,73.4,65.6,65.6,34.0,-18.19,-0.77,17.0,15.8,1,-71.260,29.3,100.0,14.0,26.3,27.6,37.4,0,1,100.0,0.00,0.00,0.00,0.00,2631,4831,5320,2218,318.8,311.4,342.4,348.5,25.02,23.15,25.62,24.86,325.0,325.0,355.0,355.0,99.70,99.60,99.68,99.65,-0.30,-0.21,0.55,0.65,-0.1,-0.0,2.1,2.8,82.4,70.7,79.9,75.1,90.7,73.0,85.6,79.3,87.7,70.9,84.5,77.5,85.7,69.8,84.3,76.6,1.68,-1.68,0.08,0.06,0.00,139.45,138.46,130.51,130.51,19.8,15.9,0.3606937759374287
0.050,2.3,44.054614704710168,-78.681893913709587,154.1,-118.0,301.8,-86.8,1584.2,1584,163.7,0,1,1,0,1,1,0,0,0,100,1,1.186,26.0,0.0,0.078,68.644,66.0,0.0,26.0,26.0,26.0,26.0,-0.33,0.29,0.12,380.3,-2.24,-2.24,-0.13,-1.56,-732.56,689.04,5.7,0.00,0.00,0.00,0.00,0.00,-7.49,-7.49,-0.48,0.11,-0.45,-13.25,45.49,0.10,-0.36,18.66,100.0,0,0,130.22,0,0,0.0,0,0,0,0,6946,0,30.00,4,163.7,1,0,0.0,0.0,0.0,0.0,1,0,0.093,0.093,68.644,19.926,1,110.00,435.8,8750,0.0,0.0,110.0,110.0,433.0,0.00,0,0,1,166.7,73.9,73.9,63.9,63.9,34.0,-53.83,-15.75,-19.6,3.6,1,-71.310,31.1,100.0,21.7,20.4,42.7,33.0,0,1,100.0,0.00,0.00,0.00,0.00,4032,2385,4687,4290,314.6,318.4,342.6,344.2,25.02,23.16,25.63,24.86,325.0,325.0,355.0,355.0,99.70,99.60,99.68,99.65,-0.95,-0.92,-0.29,-0.16,-0.1,-0.0,1.2,2.3,82.4,70.7,79.9,75.1,90.7,72.9,85.6,79.3,87.7,70.9,84.5,77.5,85.6,69.8,84.2,76.6,1.79,-1.81,0.05,0.05,0.00,140.29,138.70,130.22,130.22,19.8,15.9,0.455411901469428,146.56139631414013,69.49963019976278
0.100,4.6,44.054595818956443,-78.681885010425688,132.4,-108.0,71.8,-65.2,1586.4,1586,164.3,0,1,1,0,1,1,0,0,0,100,1,1.186,26.0,0.0,0.114,68.644,66.0,0.0,26.0,26.0,26.0,26.0,-0.84,0.38,-0.04,379.1,-3.54,-3.12,0.10,-1.93,-731.57,686.94,5.7,0.00,0.00,0.00,0.00,0.00,-7.49,-7.49,-0.48,-0.41,-0.93,0.16,45.66,-0.40,-0.39,22.25,100.0,0,0,131.10,0,0,0.0,0,0,0,0,6993,0,30.00,4,164.3,0,0,0.0,0.0,0.0,0.0,1,0,0.144,0.144,68.644,19.926,0,110.00,435.8,8750,0.0,0.0,110.0,110.0,433.0,0.00,0,0,1,166.7,72.8,72.8,67.5,67.5,34.0,-118.21,-6.49,-82.2,-20.2,1,-71.360,32.2,100.0,28.3,15.0,46.3,29.8,0,1,100.0,0.00,0.00,0.00,0.00,6327,836,6205,3481,309.4,322.7,338.4,346.0,25.02,23.15,25.63,24.86,325.0,325.0,355.0,355.0,99.70,99.60,99.68,99.65,-1.65,-1.65,-1.12,-1.02,-0.1,-0.1,1.5,2.9,82.4,70.7,79.9,75.1,90.7,72.9,85.6,79.3,87.7,70.8,84.5,77.5,85.6,69.7,84.2,76.6,1.85,-1.89,0.04,0.07,0.00,140.80,138.83,131.10,131.10,19.8,15.9,0.9228217596047461,151.96292200401632,70.57993529790636,25.207119810219183,-36.0101710761667
0.150,6.8,44.054576753338395,-78.681876287006119,-51.9,22.9,13.3,-12.1,1588.7,1589,164.9,0,1,1,0,1,1,0,0,0,100,1,1.186,26.0,0.0,0.150,68.644,66.0,0.0,26.0,26.0,26.0,26.0,-1.12,0.32,0.08,378.7,-2.14,-3.04,-0.56,-2.47,-730.60,684.82,5.7,0.00,0.00,0.00,0.00,0.01,-7.49,-7.49,-0.46,-0.13,-0.98,-2.33,45.81,-0.81,-0.40,23.49,100.0,0,0,131.79,0,0,0.0,0,0,0,0,7030,0,30.00,4,164.9,1,0,0.0,0.0,0.0,0.0,1,0,0.194,0.194,68.644,19.926,1,110.00,435.8,8750,0.0,0.0,110.0,110.0,433.0,0.00,0,0,1,166.7,71.4,71.4,64.2,64.2,34.0,-148.06,-16.17,-123.4,-21.3,1,-71.410,32.8,100.0,25.7,16.2,46.9,29.2,0,1,100.0,0.00,0.00,0.00,0.00,7162,1529,6842,2683,306.8,321.0,337.4,348.0,25.03,23.15,25.63,24.86,325.0,325.0,355.0,355.0,99.70,99.60,99.68,99.65,-2.15,-2.16,-1.71,-1.61,-0.1,-0.1,1.6,3.0,82.4,70.7,80.0,75.1,90.7,72.9,85.6,79.3,87.7,70.8,84.5,77.5,85.6,69.7,84.2,76.6,1.89,-1.93,0.05,0.07,0.00,141.31,139.28,131.79,131.79,19.8,15.9,1.1675615615461141,149.08210829516204,65.8986130921461,-14.404068544271524,-118.83356420993607
0.200,9.1,44.054558587041960,-78.681868552840299,31.0,-32.5,-31.3,-21.8,1591.0,1591,163.6,0,1,1,0,1,1,0,0,0,100,1,1.186,26.0,0.0,0.216,68.644,66.0,0.0,26.0,26.0,26.0,26.0,-7.86,-1.86,0.34,378.8,-2.05,-2.86,-0.70,-2.01,-729.74,682.80,5.7,0.00,0.00,0.00,0.00,0.01,-7.49,-7.49,-0.40,1.43,-1.13,-10.49,45.39,-0.19,-0.42,86.67,100.0,0,0,132.07,0,0,0.0,0,0,0,0,7045,0,30.00,4,163.6,0,0,0.0,0.0,0.0,0.0,0,0,0.243,0.243,68.644,19.926,0,110.00,435.8,8750,0.0,0.0,110.0,110.0,433.0,0.00,0,0,1,166.7,74.2,74.2,61.2,61.2,34.0,-7.31,12.00,-189.2,-25.2,1,-71.460,31.5,100.0,27.2,14.5,45.4,28.1,0,1,100.0,0.00,0.00,0.00,0.00,5255,1579,8491,4217,311.6,320.4,333.6,344.1,25.03,23.15,25.63,24.86,325.0,325.0,355.0,355.0,99.70,99.60,99.68,99.65,0.15,0.47,-2.47,-2.52,-0.2,1.0,1.1,6.2,82.4,70.7,80.0,75.1,90.7,72.8,85.7,79.3,87.7,70.8,84.5,77.5,85.6,69.7,84.3,76.6,1.83,-1.86,0.05,0.06,0.00,143.20,136.92,132.07,132.07,19.8,15.9,8.084231565213852,150.52251514958917,58.69657887691275,75.62135943065726,-162.04576984275042
0.250,11.4,44.054539161695267,-78.681861628063942,-24.6,-90.0,76.9,-68.3,1593.2,1593,161.1,0,1,1,0,1,1,0,0,0,100,1,1.186,26.0,0.0,0.252,68.644,66.0,0.0,26.0,26.0,26.0,26.0,-9.84,-1.74,-2.18,385.5,-1.70,-3.22,-0.44,-3.05,-728.97,680.64,5.7,0.00,0.00,0.00,0.00,0.01,-7.49,-7.49,-0.33,0.56,-1.37,16.54,44.68,-1.25,-0.12,79.21,100.0,0,0,132.69,0,0,0.0,0,0,0,0,7078,0,30.00,4,161.1,1,0,0.0,0.0,0.0,0.0,0,0,0.294,0.294,68.644,19.926,1,110.00,435.8,8750,0.0,0.0,110.0,110.0,433.0,0.00,0,0,1,166.7,84.3,84.3,69.2,69.2,34.0,-51.55,0.00,-77.4,-0.6,1,-71.510,31.1,100.0,26.0,10.0,49.2,24.7,0,1,100.0,0.00,0.00,0.00,0.00,4856,0,6996,2559,312.7,325.0,337.4,348.9,25.03,23.15,25.64,24.86,325.0,325.0,355.0,355.0,99.70,99.60,99.69,99.65,-0.63,0.00,-4.50,-4.55,0.4,0.0,2.3,9.0,82.4,70.7,80.0,75.1,90.6,72.8,85.8,79.3,87.6,70.7,84.7,77.5,85.6,69.6,84.4,76.6,1.79,-1.84,0.04,0.08,0.00,141.32,136.20,133.65,131.73,19.8,15.9,10.227687910764583,156.64424423822777,49.694036107871064,79.22237613995719,-162.04576984275036
0.300,13.6,44.054519466552101,-78.681856142202136,-296.0,227.2,-10.7,739.7,1595.5,1595,160.3,0,1,1,0,1,1,0,0,0,100,1,1.186,26.0,0.0,0.285,68.644,66.0,0.0,26.0,26.0,26.0,26.0,-2.37,-0.09,0.59,367.5,-3.70,-0.95,-2.89,-0.70,-728.36,678.45,5.7,0.00,0.00,0.00,0.00,0.01,-7.49,-7.49,0.25,11.29,1.05,44.12,44.54,0.49,0.62,-13.55,100.0,0,0,126.88,0,0,0.0,0,0,0,0,6768,0,30.00,4,160.3,0,0,0.0,0.0,0.0,0.0,0,0,0.344,0.344,68.644,19.926,0,110.00,435.8,8750,0.0,0.0,110.0,110.0,433.0,0.00,0,0,1,166.7,79.4,79.4,37.1,37.1,34.0,-0.76,-91.82,-14.1,45.8,1,-71.560,28.5,100.0,11.2,21.4,48.7,61.6,0,1,100.0,0.00,0.00,0.00,0.00,80,5664,6205,12109,324.5,310.4,339.5,325.4,25.03,23.15,25.64,24.87,325.0,325.0,355.0,355.0,99.70,99.60,99.69,99.65,-1.97,-1.98,0.29,0.11,0.5,-0.1,1.5,0.9,82.5,70.7,80.0,75.2,90.6,72.7,85.8,79.4,87.6,70.7,84.7,77.6,85.5,69.6,84.4,76.7,1.70,-1.69,0.04,-0.01,0.00,136.92,137.76,127.48,126.29,19.8,15.9,2.4439926350134527,158.4447527635849,42.49200189263772,25.2071198102189,-82.82339370279288
0.350,15.8,44.054499591544612,-78.681851016068990,22.6,292.2,84.7,313.7,1597.7,1598,161.0,0,1,1,0,1,1,0,0,0,100,1,1.186,26.0,0.0,0.354,68.644,66.0,0.0,26.0,26.0,26.0,26.0,0.42,0.42,0.97,356.4,-4.22,-0.65,-3.62,-0.53,-727.79,676.24,5.7,0.00,0.00,0.00,0.00,0.01,-7.49,-7.49,0.39,-5.51,1.47,-21.85,44.74,0.60,0.24,3.77,100.0,0,0,126.83,0,0,0.0,0,0,0,0,6765,0,30.00,4,161.0,1,0,0.0,0.0,0.0,0.0,0,0,0.396,0.396,68.644,19.926,1,110.00,435.8,8750,0.0,0.0,110.0,110.0,433.0,0.00,0,0,1,166.7,69.4,69.4,21.4,21.4,34.0,0.00,-54.03,27.0,220.0,1,-71.610,26.0,100.0,12.3,36.0,52.9,77.3,0,1,100.0,0.00,0.00,0.00,0.00,0,7523,7088,14078,325.0,304.0,337.3,317.8,25.03,23.15,25.64,24.87,325.0,325.0,355.0,355.0,99.70,99.60,99.69,99.65,0.00,-0.57,0.86,0.85,0.0,-0.0,1.4,0.7,82.5,70.7,80.0,75.2,90.5,72.8,85.8,79.4,87.5,70.7,84.7,77.7,85.4,69.6,84.4,76.7,1.54,-1.48,0.04,-0.04,0.00,136.73,136.92,126.54,127.13,19.8,15.9,1.1374093370462544,159.16495621924966,41.411696737591775,10.803051550460054,-7.202033987623864
0.400,18.1,44.054479716537116,-78.681845800003671,272.1,-133.8,70.6,-464.9,1599.9,1600,161.7,0,1,1,0,1,1,0,0,0,100,1,1.186,26.0,0.0,0.390,68.644,66.0,0.0,26.0,26.0,26.0,26.0,-0.21,0.29,0.31,366.3,-1.52,-3.05,-1.75,-1.78,-727.21,674.03,5.7,0.00,0.00,0.00,0.00,0.01,-7.49,-7.49,-0.28,-16.19,-0.40,-36.34,44.92,0.14,-0.63,13.83,100.0,0,0,128.15,0,0,0.0,0,0,0,0,6836,0,30.00,4,161.7,0,0,0.0,0.0,0.0,0.0,0,0,0.447,0.447,68.644,19.926,0,110.00,435.8,8750,0.0,0.0,110.0,110.0,433.0,0.00,0,0,1,166.7,61.5,61.5,52.4,52.4,34.0,-76.41,-2.54,-10.4,18.1,1,-71.660,22.1,100.0,25.9,29.3,56.4,54.1,0,1,100.0,0.00,0.00,0.00,0.00,7979,2310,5689,3844,305.3,317.6,341.1,344.0,25.04,23.16,25.65,24.88,325.0,325.0,355.0,355.0,99.70,99.60,99.69,99.65,-0.48,-0.45,0.14,0.13,-0.1,0.0,1.2,2.0,82.5,70.7,80.0,75.2,90.4,72.8,85.8,79.5,87.4,70.7,84.7,77.7,85.4,69.6,84.4,76.8,1.31,-1.31,0.02,0.02,0.00,137.85,136.41,128.15,128.15,19.8,15.9,0.4736032094485847,159.5250579186309,41.77179849387533,-82.82339370279345,-25.207119525707355
0.450,20.3,44.054459751597470,-78.681840583938353,116.8,-272.6,-316.8,-701.8,1602.2,1602,162.2,0,1,1,0,1,1,0,0,0,100,1,1.186,26.0,0.0,0.426,68.644,66.0,0.0,26.0,26.0,26.0,26.0,-0.49,0.19,-0.37,386.6,-1.71,-3.55,-0.58,-1.85,-726.63,671.81,5.7,0.00,0.00,0.00,0.00,0.01,-7.49,-7.49,-0.90,-8.79,-1.39,-2.38,45.04,-0.33,-1.04,19.43,100.0,0,0,131.95,0,0,0.0,0,0,0,0,7039,0,30.00,4,162.2,1,0,0.0,0.0,0.0,0.0,0,0,0.498,0.498,68.644,19.926,1,110.00,435.8,8750,0.0,0.0,110.0,110.0,433.0,0.00,0,0,1,166.7,69.7,69.7,83.8,83.8,34.0,-96.61,-3.75,-32.4,0.0,1,-71.710,18.7,100.0,31.8,15.7,40.6,19.0,0,1,100.0,0.00,0.00,0.00,0.00,6920,1170,3547,0,307.5,322.2,345.3,354.9,25.04,23.15,25.65,24.88,325.0,325.0,355.0,355.0,99.70,99.60,99.69,99.65,-0.88,-0.83,-0.93,0.00,-0.1,-0.1,2.7,0.0,82.5,70.7,80.1,75.2,90.4,72.7,85.8,79.4,87.4,70.7,84.7,77.6,85.4,69.6,84.4,76.7,1.11,-1.12,0.06,0.09,0.00,138.65,136.79,131.00,132.91,19.8,15.9,0.6427285585688565,150.88261684897032,38.89098478502104,-82.82339341828163,-39.61118863900239
0.500,22.6,44.054442034961831,-78.681836087330325,-211.1,-52.0,-333.0,-189.1,1604.5,1604,162.4,0,1,1,0,1,1,0,0,0,100,1,1.186,26.0,0.0,0.495,68.644,66.0,0.0,26.0,26.0,26.0,26.0,-0.40,0.11,-0.87,399.9,-1.55,-1.56,-0.35,-2.01,-726.13,669.84,5.7,0.00,0.00,0.00,0.00,0.02,-7.49,-7.49,-1.11,-2.33,-0.98,15.13,45.09,-0.94,-0.95,24.99,100.0,0,0,138.44,0,0,0.0,0,0,0,0,7384,0,30.00,4,162.4,0,0,0.0,0.0,0.0,0.0,0,0,0.543,0.543,68.644,19.926,0,110.00,435.8,8750,0.0,0.0,110.0,110.0,433.0,0.00,0,0,1,333.3,80.9,80.9,93.6,93.6,34.0,-39.96,-22.29,-7.5,0.0,1,-71.760,14.9,100.0,21.2,13.1,23.9,9.5,0,1,100.0,0.00,0.00,0.00,0.00,2900,2351,2099,0,317.9,319.7,350.0,355.0,25.04,23.15,25.65,24.88,325.0,325.0,355.0,355.0,99.70,99.61,99.69,99.65,-1.41,-1.37,-2.06,0.00,-0.1,-0.0,7.2,0.0,82.5,70.7,80.1,75.2,90.4,72.7,85.8,79.3,87.4,70.6,84.7,77.5,85.3,69.5,84.4,76.6,0.89,-0.92,0.10,0.12,0.00,139.04,136.99,137.71,139.17,19.8,15.9,0.9638464608017192,151.24271857680273,37.81067962997509,104.42949623468877,3.6010169938119674
0.550,24.8,44.054421980090019,-78.681831141061494,-95.7,17.0,-176.8,76.9,1606.7,1607,162.8,0,1,1,0,1,1,0,0,0,100,1,1.186,26.0,0.0,0.528,68.644,66.0,0.0,26.0,26.0,26.0,26.0,-0.58,0.34,-0.62,399.7,-2.64,-3.24,-0.85,-1.33,-725.58,667.61,5.7,0.00,0.00,0.00,0.00,0.02,-7.49,-7.49,-1.00,4.81,-0.43,3.28,45.20,-1.78,-0.55,28.25,100.0,0,0,137.73,0,0,0.0,0,0,0,0,7347,0,30.00,4,162.8,1,0,0.0,0.0,0.0,0.0,0,0,0.594,0.594,68.644,19.926,1,110.00,435.8,8750,0.0,0.0,110.0,110.0,433.0,0.00,0,0,1,333.3,83.4,83.4,98.8,98.8,34.0,-32.89,-14.66,-3.6,-3.1,1,-71.810,8.6,100.0,16.4,14.0,15.1,13.4,0,1,100.0,0.00,0.00,0.00,0.00,2224,1484,1310,2714,319.1,320.9,351.3,348.2,25.04,23.15,25.65,24.88,325.0,325.0,355.0,355.0,99.70,99.61,99.69,99.65,-1.92,-1.89,-3.17,-2.97,-0.1,-0.1,7.3,9.4,82.5,70.7,80.1,75.2,90.3,72.6,85.8,79.3,87.4,70.6,84.7,77.6,85.3,69.5,84.4,76.6,0.55,-0.54,0.11,0.11,0.00,139.88,137.41,137.73,137.73,19.8,15.9,0.9145490692138941,161.3255664724392,39.25108648440224,68.41932487400982,-7.202033987623864
0.600,27.1,44.054401745353886,-78.681826284724821,-38.4,-72.0,321.6,173.4,1609.0,1609,163.7,0,1,1,0,1,1,0,0,0,100,1,1.186,26.0,0.0,0.564,68.644,66.0,0.0,26.0,26.0,26.0,26.0,-1.36,0.52,-0.04,388.9,-2.15,-2.38,-0.94,-1.17,-725.04,665.36,5.7,0.00,0.00,0.00,0.00,0.02,-7.49,-7.49,-0.76,2.98,-0.82,-14.39,45.41,-2.35,-0.20,22.67,100.0,0,0,132.90,0,0,0.0,0,0,0,0,7089,0,30.00,4,163.7,0,0,0.0,0.0,0.0,0.0,0,0,0.644,0.644,68.644,19.926,0,110.00,435.8,8750,0.0,0.0,110.0,110.0,433.0,0.00,0,0,1,333.3,83.2,83.2,77.1,77.1,34.0,-85.75,-14.06,-56.0,-39.7,1,-71.860,3.4,100.0,14.5,10.4,31.2,22.1,0,1,100.0,0.00,0.00,0.00,0.00,4905,1310,5364,4973,312.6,321.6,341.3,342.6,25.04,23.15,25.65,24.88,325.0,325.0,355.0,355.0,99.70,99.61,99.69,99.65,-2.40,-2.34,-3.63,-3.41,-0.2,-0.2,3.8,5.2,82.5,70.7,80.1,75.2,90.3,72.6,85.9,79.4,87.3,70.6,84.7,77.6,85.3,69.4,84.5,76.7,0.23,-0.23,0.07,0.09,0.00,140.35,138.05,132.90,132.90,19.8,15.9,1.4565713164826501,158.0846510642037,37.090476231212705,-21.606102531895317,-43.21220563281436
0.650,29.4,44.054382499871522,-78.681821878048950,314.5,-22.6,285.2,37.6,1611.3,1611,164.2,0,1,1,0,1,1,0,0,0,100,1,1.186,26.0,0.0,0.633,68.644,66.0,0.0,26.0,26.0,26.0,26.0,-1.51,0.43,0.23,380.1,-1.22,-3.72,-0.20,-2.14,-724.55,663.22,5.7,0.00,0.00,0.00,0.00,0.02,-7.49,-7.49,-0.64,2.45,-1.53,-9.41,45.55,-2.46,-0.17,18.79,100.0,0,0,132.37,0,0,0.0,0,0,0,0,7061,0,30.00,4,164.2,1,0,0.0,0.0,0.0,0.0,0,0,0.693,0.693,68.644,19.926,1,110.00,435.8,8750,0.0,0.0,110.0,110.0,433.0,0.00,0,0,1,333.3,73.8,73.8,69.3,69.3,34.0,-135.77,-1.47,-114.7,-22.1,1,-71.910,-0.1,100.0,30.2,9.2,45.4,23.9,0,1,100.0,0.00,0.00,0.00,0.00,7082,319,8165,2663,306.9,324.6,334.2,348.4,25.05,23.15,25.66,24.88,325.0,325.0,355.0,355.0,99.70,99.61,99.69,99.65,-2.49,-2.40,-3.63,-3.47,-0.1,-0.2,3.0,4.0,82.5,70.7,80.1,75.2,90.3,72.5,86.0,79.4,87.4,70.5,84.9,77.6,85.3,69.4,84.6,76.7,0.03,-0.02,0.05,0.08,0.00,140.69,138.61,132.37,132.37,19.8,15.9,1.5867892109539943,159.16495621924966,34.9298659211208,115.23254778514826,-32.409154082354874
0.700,31.7,44.054361995338901,-78.681817561305252,46.5,-11.7,218.7,99.4,1613.6,1614,164.8,0,1,1,0,1,1,0,0,0,100,1,1.186,26.0,0.0,0.666,68.644,66.0,0.0,26.0,26.0,26.0,26.0,-1.79,0.48,0.27,375.3,-1.53,-3.71,-0.18,-2.31,-724.07,660.94,5.7,0.00,0.00,0.00,0.00,0.02,-7.49,-7.49,-0.58,-1.26,-1.65,5.14,45.72,-2.22,-0.26,9.63,100.0,0,0,131.31,0,0,0.0,0,0,0,0,7004,0,30.00,4,164.8,0,0,0.0,0.0,0.0,0.0,1,0,0.744,0.744,68.644,19.926,0,110.00,435.8,8750,0.0,0.0,110.0,110.0,433.0,0.00,0,0,1,166.7,78.2,78.2,58.3,58.3,34.0,-137.14,0.00,-211.8,-54.3,1,-71.960,-3.2,100.0,32.6,8.6,56.4,28.9,0,1,100.0,0.00,0.00,0.00,0.00,7085,0,11216,4316,306.8,325.0,326.7,344.2,25.05,23.15,25.66,24.88,325.0,325.0,355.0,355.0,99.70,99.61,99.69,99.65,-2.40,0.00,-3.25,-3.11,-0.1,0.0,2.2,2.8,82.6,70.7,80.1,75.2,90.4,72.5,86.1,79.5,87.4,70.5,85.0,77.7,85.3,69.3,84.7,76.7,-0.14,0.17,0.02,0.06,0.00,140.54,138.75,131.31,131.31,19.8,15.9,1.8728053823075157,169.60790584271854,33.84956082297722,18.005085253571735,-50.4142390514145
0.750,34.0,44.054340141823879,-78.681813424425854,-122.9,-18.4,-116.1,-1.3,1615.9,1616,165.3,0,1,1,0,1,1,0,0,0,100,1,1.186,26.0,0.0,0.696,68.644,66.0,0.0,26.0,26.0,26.0,26.0,-1.10,0.32,-0.16,382.1,-2.56,-3.66,-0.76,-3.17,-723.61,658.51,5.7,0.00,0.00,0.00,0.00,0.02,-7.49,-7.49,-0.85,-6.62,-0.97,17.92,45.90,-1.73,-0.46,1.80,100.0,0,0,132.44,0,0,0.0,0,0,0,0,7064,0,30.00,4,165.3,1,0,0.0,0.0,0.0,0.0,1,0,0.798,0.798,68.644,19.926,1,110.00,435.8,8750,0.0,0.0,110.0,110.0,433.0,0.00,0,0,1,166.7,78.7,78.7,69.1,69.1,34.0,-115.12,-0.65,-94.2,-17.2,1,-72.010,-5.0,100.0,26.4,7.7,50.6,28.8,0,1,100.0,0.00,0.00,0.00,0.00,6099,327,5750,1823,309.6,324.9,339.9,350.0,25.05,23.15,25.66,24.88,325.0,325.0,355.0,355.0,99.70,99.61,99.69,99.65,-2.04,-1.87,-2.46,-2.36,-0.1,-1.2,2.7,2.7,82.6,70.7,80.2,75.2,90.4,72.4,86.2,79.5,87.4,70.4,85.1,77.7,85.4,69.3,84.8,76.7,-0.28,0.30,0.03,0.07,0.00,140.50,138.90,132.44,132.44,19.8,15.9,1.1567194992737004,160.96546474460683,29.88844201597935,-126.03559905109591,-64.81830816470956
0.800,36.3,44.054321795663121,-78.681810096935919,-69.6,169.6,-365.3,-74.5,1618.2,1618,165.8,0,1,1,0,1,1,0,0,0,100,1,1.186,26.0,0.0,0.771,68.644,66.0,0.0,26.0,26.0,26.0,26.0,-0.90,0.34,-0.16,386.0,-2.82,-3.20,-1.69,-1.95,-723.24,656.47,5.6,0.00,0.00,0.00,0.00,0.02,-7.49,-7.49,-1.06,-1.97,-0.20,10.34,46.03,-1.42,-0.50,3.25,100.0,0,0,134.14,0,0,0.0,0,0,0,0,7155,0,30.00,4,165.8,0,0,0.0,0.0,0.0,0.0,1,0,0.843,0.843,68.644,19.926,0,110.00,435.8,8750,0.0,0.0,110.0,110.0,433.0,0.00,0,0,1,333.3,73.1,73.1,80.3,80.3,34.0,-77.48,-31.04,-38.6,-21.6,1,-72.060,-5.2,100.0,22.9,16.2,32.3,25.1,0,1,100.0,0.00,0.00,0.00,0.00,4538,3055,3280,2622,313.4,315.9,346.8,348.3,25.06,23.15,25.67,24.88,325.0,325.0,355.0,355.0,99.70,99.61,99.69,99.65,-1.55,-1.46,-2.05,-1.95,-0.2,-0.1,3.5,3.9,82.6,70.7,80.2,75.2,90.4,72.4,86.2,79.5,87.4,70.4,85.1,77.7,85.3,69.2,84.8,76.7,-0.29,0.29,0.07,0.07,0.00,141.12,141.02,134.14,134.14,19.8,15.9,0.9752948272189287,157.00434593760895,27.36773000650626,64.81830816470932,-21.60610253189528
0.850,38.6,44.054300931401862,-78.681806589581655,53.7,93.5,16.0,53.9,1620.5,1620,166.4,0,1,1,0,1,1,0,0,0,100,1,1.186,26.0,0.0,0.774,68.644,66.0,0.0,26.0,26.0,26.0,26.0,-0.84,0.38,-0.04,381.5,-2.09,-2.87,-1.96,-2.09,-722.85,654.15,5.6,0.00,0.00,0.00,0.00,0.02,-7.49,-7.49,-0.99,3.45,-0.28,-8.14,46.23,-1.07,-0.46,1.73,100.0,0,0,133.01,0,0,0.0,0,0,0,0,7095,0,30.00,4,166.4,1,0,0.0,0.0,0.0,0.0,1,0,0.894,0.894,68.644,19.926,1,110.00,435.8,8750,0.0,0.0,110.0,110.0,433.0,0.00,0,0,1,333.3,70.1,70.1,76.8,76.8,34.0,-80.81,-9.49,-82.3,-32.3,1,-72.110,-6.4,100.0,25.6,20.9,33.1,27.8,0,1,100.0,0.00,0.00,0.00,0.00,5571,1915,5464,4006,310.4,320.3,342.0,344.7,25.06,23.15,25.67,24.88,325.0,325.0,355.0,355.0,99.70,99.61,99.69,99.65,-0.96,-0.89,-1.46,-1.25,-0.1,-0.1,2.4,2.5,82.6,70.7,80.2,75.3,90.4,72.4,86.2,79.5,87.4,70.3,85.1,77.7,85.3,69.2,84.8,76.7,-0.34,0.35,0.08,0.07,0.00,142.03,141.59,133.00,133.00,19.8,15.9,0.9228217596047461,167.44729556107777,27.727831762789823,64.81830788019806,-14.404067975247763
0.900,40.9,44.054279977208445,-78.681803172159547,-86.4,-121.8,217.5,134.5,1622.8,1623,167.1,0,1,1,0,1,1,0,0,0,100,1,1.186,26.0,0.0,0.837,68.644,66.0,0.0,26.0,26.0,26.0,26.0,-0.43,0.32,-0.05,383.1,-1.57,-3.46,-0.34,-2.45,-722.47,651.82,5.6,0.00,0.00,0.00,0.00,0.03,-7.49,-7.49,-0.89,-0.93,-0.67,-6.62,46.43,-0.73,-0.38,-2.50,100.0,0,0,132.79,0,0,0.0,0,0,0,0,7083,0,30.00,4,167.1,0,0,0.0,0.0,0.0,0.0,1,0,0.944,0.944,68.644,19.926,0,110.00,435.8,8750,0.0,0.0,110.0,110.0,433.0,0.00,0,0,1,333.3,83.1,83.1,63.2,63.2,34.0,-22.33,0.00,-84.8,-6.9,1,-72.160,-8.4,100.0,21.3,14.8,44.0,34.5,0,1,100.0,0.00,0.00,0.00,0.00,2998,0,7182,1959,317.4,325.0,337.3,349.3,25.06,23.15,25.67,24.88,325.0,325.0,355.0,355.0,99.70,99.61,99.69,99.65,-0.45,0.00,-0.92,-0.76,-0.0,0.0,1.8,1.6,82.6,70.7,80.2,75.3,90.3,72.3,86.3,79.4,87.3,70.3,85.1,77.6,85.3,69.2,84.8,76.7,-0.48,0.47,0.06,0.06,0.00,142.15,142.33,132.79,132.79,19.8,15.9,0.5383307533477908,163.48617672562875,25.927323208981484,-32.4091540823548,-25.207120094730904
0.950,43.2,44.054260102200956,-78.681800114466085,-61.3,-49.1,-39.0,-86.7,1625.1,1625,167.8,0,1,1,0,1,1,0,0,0,100,1,1.186,26.0,0.0,0.906,68.644,66.0,0.0,26.0,26.0,26.0,26.0,-0.27,0.31,-0.08,383.6,-1.59,-2.81,-0.81,-2.13,-722.13,649.61,5.6,0.00,0.00,0.00,0.00,0.03,-7.49,-7.49,-1.05,-4.10,-0.55,4.85,46.60,-0.44,-0.39,-3.95,100.0,0,0,133.51,0,0,0.0,0,0,0,0,7122,0,30.00,4,167.8,1,0,0.0,0.0,0.0,0.0,1,0,0.993,0.993,68.644,19.926,1,110.00,435.8,8750,0.0,0.0,110.0,110.0,433.0,0.00,0,0,1,166.7,79.2,79.2,70.7,70.7,34.0,-34.46,2.35,-27.4,-4.0,1,-72.210,-7.7,100.0,18.2,12.3,42.0,30.2,0,1,100.0,0.00,0.00,0.00,0.00,4971,2248,3824,4072,313.0,318.9,345.2,344.7,25.06,23.15,25.67,24.88,325.0,325.0,355.0,355.0,99.70,99.61,99.69,99.65,-0.33,-0.24,-0.55,-0.42,-0.1,-0.1,2.0,1.9,82.6,70.7,80.2,75.3,90.2,72.3,86.2,79.4,87.3,70.3,85.1,77.6,85.2,69.1,84.8,76.7,-0.45,0.44,0.06,0.07,0.00,142.59,142.97,133.51,133.51,19.8,15.9,0.41880783182743847,164.20638015284229,25.207119753316732,111.63153050682354,7.202033418600209
1.000,45.6,44.054238968143217,-78.681796876908308,88.9,69.5,-213.2,-8.2,1627.5,1627,168.4,0,1,1,0,1,1,0,0,0,100,1,1.186,26.0,0.0,0.939,68.644,66.0,0.0,26.0,26.0,26.0,26.0,-0.15,0.42,0.03,381.1,-2.46,-2.12,-1.20,-1.14,-721.77,647.26,5.6,0.00,0.00,0.00,0.00,0.03,-7.49,-7.49,-1.15,0.30,-0.21,7.22,46.78,-0.19,-0.38,-4.10,100.0,0,0,134.08,0,0,0.0,0,0,0,0,7152,0,30.00,4,168.4,0,0,0.0,0.0,0.0,0.0,1,0,1.044,1.044,68.644,19.926,0,110.00,435.8,8750,0.0,0.0,110.0,110.0,433.0,0.00,0,0,1,166.7,70.9,70.9,75.8,75.8,34.0,-27.39,17.79,-21.8,4.1,1,-72.260,-5.0,100.0,22.7,15.8,31.4,29.8,0,1,100.0,0.00,0.00,0.00,0.00,4256,5692,4280,5476,313.4,310.9,344.4,341.2,25.06,23.15,25.68,24.88,325.0,325.0,355.0,355.0,99.70,99.61,99.69,99.65,-0.17,-0.03,-0.29,-0.11,-0.0,-0.1,2.3,2.1,82.6,70.7,80.2,75.3,90.2,72.2,86.2,79.4,87.2,70.2,85.1,77.6,85.2,69.1,84.8,76.7,-0.30,0.30,0.07,0.07,0.00,143.35,143.68,134.08,134.08,19.8,15.9,0.4469899327725402,174.6493297763111,26.647526550841505,14.404068544271809,0.0
1.050,47.9,44.054216485103069,-78.681793459486215,82.3,125.6,59.7,101.2,1629.8,1630,169.1,0,1,1,0,1,1,0,0,0,100,1,1.186,26.0,0.0,1.005,68.644,66.0,0.0,26.0,26.0,26.0,26.0,-0.02,0.45,0.06,377.6,-2.50,-3.13,-2.06,-0.86,-721.39,644.76,5.5,0.00,0.00,0.00,0.00,0.03,-7.49,-7.49,-0.99,3.96,0.17,9.05,46.99,0.01,-0.33,-3.68,100.0,0,0,134.09,0,0,0.0,0,0,0,0,7152,0,30.00,4,169.1,1,0,0.0,0.0,0.0,0.0,1,0,1.098,1.098,68.644,19.926,1,110.00,435.8,8750,0.0,0.0,110.0,110.0,433.0,0.00,0,0,1,166.7,70.7,70.7,68.0,68.0,34.0,-11.36,15.51,-30.5,18.5,1,-72.310,-3.2,100.0,26.8,22.1,34.4,34.9,0,1,100.0,0.00,0.00,0.00,0.00,3127,3041,5982,6264,317.3,316.8,339.7,340.5,25.07,23.15,25.68,24.89,325.0,325.0,355.0,355.0,99.70,99.61,99.69,99.65,0.00,0.05,-0.07,0.10,-0.0,-0.1,1.9,1.6,82.7,70.7,80.2,75.3,90.1,72.2,86.2,79.4,87.2,70.2,85.0,77.6,85.1,69.1,84.7,76.6,-0.18,0.19,0.06,0.06,0.00,143.92,144.37,134.09,134.09,19.8,15.9,0.45442271070007056,165.64678700726947,25.207119753316732,-133.23763303871914,-18.00508496905973
1.100,50.3,44.054197599349344,-78.681790581657069,-25.3,84.6,192.7,220.4,1632.2,1632,169.7,0,1,1,0,1,1,0,0,0,100,1,1.186,26.0,0.0,1.041,68.644,66.0,0.0,26.0,26.0,26.0,26.0,0.15,0.31,0.36,370.8,-2.14,-2.69,-1.64,-1.83,-721.07,642.66,5.5,0.00,0.00,0.00,0.00,0.03,-7.49,-7.49,-0.86,2.50,0.44,6.09,47.14,0.11,-0.38,-3.69,100.0,0,0,134.82,0,0,0.0,0,0,0,0,7191,0,30.00,4,169.7,0,0,0.0,0.0,0.0,0.0,1,0,1.143,1.143,68.644,19.926,0,110.00,435.8,8750,0.0,0.0,110.0,110.0,433.0,0.00,0,0,1,333.3,64.2,64.2,56.2,56.2,34.0,-7.20,39.78,-8.9,28.3,1,-72.360,-3.3,100.0,25.5,26.3,44.0,45.9,0,1,100.0,0.00,0.00,0.00,0.00,4135,5544,5036,4461,314.0,309.6,342.1,343.5,25.07,23.15,25.68,24.89,325.0,325.0,355.0,355.0,99.70,99.61,99.69,99.65,0.13,0.18,0.12,0.23,-0.0,-0.1,1.7,1.4,82.7,70.7,80.3,75.3,90.1,72.2,86.2,79.4,87.1,70.1,85.0,77.6,85.0,69.0,84.7,76.6,-0.18,0.18,0.05,0.04,0.00,144.50,144.77,134.82,134.82,19.8,15.9,0.498196748283246,161.3255664724392,24.847018053935532,61.217290886385456,14.404068544271382
1.150,52.6,44.054176195495124,-78.681787254167133,-24.3,45.7,-75.0,54.0,1634.5,1635,170.3,0,1,1,0,1,1,0,0,0,100,1,1.186,26.0,0.0,1.074,68.644,66.0,0.0,26.0,26.0,26.0,26.0,0.22,0.37,0.23,371.5,-4.21,-2.48,-1.65,-1.55,-720.70,640.28,5.5,0.00,0.00,0.00,0.00,0.03,-7.49,-7.49,-0.62,4.78,0.60,-1.04,47.33,0.16,-0.32,-3.63,100.0,0,0,134.96,0,0,0.0,0,0,0,0,7199,0,30.00,4,170.3,1,0,0.0,0.0,0.0,0.0,1,0,1.194,1.194,68.644,19.926,1,110.00,435.8,8750,0.0,0.0,110.0,110.0,433.0,0.00,0,0,1,333.3,69.2,69.2,53.1,53.1,34.0,-2.23,31.10,-3.7,47.4,1,-72.410,-3.2,100.0,24.3,28.6,40.2,48.6,0,1,100.0,0.00,0.00,0.00,0.00,1459,4129,6861,5936,319.9,313.8,338.1,339.4,25.07,23.15,25.68,24.89,325.0,325.0,355.0,355.0,99.70,99.61,99.69,99.65,0.37,0.29,0.21,0.34,0.0,-0.0,1.6,1.3,82.7,70.7,80.3,75.3,90.0,72.2,86.1,79.4,87.0,70.1,85.0,77.6,85.0,69.0,84.7,76.6,-0.19,0.20,0.05,0.03,0.00,145.01,145.37,134.96,134.96,19.8,15.9,0.48805737367649715,171.768516095908,26.64752660774387,61.21729088638574,14.404068544271489
1.200,55.0,44.054154701708740,-78.681783926677184,-150.3,-147.1,96.4,6.6,1636.9,1637,171.0,0,1,1,0,1,1,0,0,0,100,1,1.186,26.0,0.0,1.140,68.644,66.0,0.0,26.0,26.0,26.0,26.0,0.25,0.37,0.15,375.7,-2.42,-3.08,-1.69,-1.50,-720.33,637.89,5.5,0.00,0.00,0.00,0.00,0.03,-7.49,-7.49,-0.61,-3.11,0.46,-2.35,47.51,0.16,-0.35,-2.17,100.0,0,0,135.38,0,0,0.0,0,0,0,0,7221,0,30.00,4,171.0,0,0,0.0,0.0,0.0,0.0,0,0,1.244,1.244,68.644,19.926,0,110.00,435.8,8750,0.0,0.0,110.0,110.0,433.0,0.00,0,0,1,333.3,77.8,77.8,56.1,56.1,34.0,0.15,17.38,-1.1,43.0,1,-72.460,-2.7,100.0,16.8,21.2,45.1,48.9,0,1,100.0,0.00,0.00,0.00,0.00,2820,2326,4995,5707,317.9,317.9,341.7,339.3,25.07,23.15,25.69,24.89,325.0,325.0,355.0,355.0,99.70,99.61,99.69,99.65,0.28,0.27,0.24,0.32,-0.0,-0.1,1.5,1.4,82.7,70.7,80.3,75.3,89.9,72.1,86.1,79.4,87.0,70.1,85.0,77.5,84.9,69.0,84.6,76.6,-0.15,0.15,0.04,0.03,0.00,145.47,145.62,135.38,135.38,19.8,15.9,0.4710626285325551,167.44729556107777,26.28742490836268,-39.61118835449042,0.0
1.250,57.4,44.054134377040448,-78.681780689119407,59.1,6.7,-216.7,-186.9,1639.3,1639,171.6,0,1,1,0,1,1,0,0,0,100,1,1.186,26.0,0.0,1.173,68.644,66.0,0.0,26.0,26.0,26.0,26.0,0.24,0.35,0.07,378.4,-2.10,-2.42,-2.01,-1.44,-719.97,635.63,5.5,0.00,0.00,0.00,0.00,0.04,-7.49,-7.49,-0.75,-0.93,0.36,-2.19,47.66,0.17,-0.41,-2.90,100.0,0,0,136.50,0,0,0.0,0,0,0,0,7281,0,30.00,4,171.6,1,0,0.0,0.0,0.0,0.0,0,0,1.293,1.293,68.644,19.926,1,110.00,435.8,8750,0.0,0.0,110.0,110.0,433.0,0.00,0,0,1,333.3,69.6,69.6,67.9,67.9,34.0,0.66,43.50,-5.2,27.4,1,-72.510,-3.3,100.0,19.8,21.6,34.2,39.6,0,1,100.0,0.00,0.00,0.00,0.00,5090,4993,4848,4342,312.7,311.6,342.9,344.0,25.07,23.15,25.69,24.89,325.0,325.0,355.0,355.0,99.70,99.61,99.69,99.65,0.25,0.37,0.21,0.33,-0.1,-0.1,2.1,1.9,82.7,70.7,80.3,75.3,89.9,72.1,86.1,79.3,86.9,70.1,84.9,77.5,84.8,68.9,84.6,76.6,-0.18,0.18,0.06,0.04,0.00,146.07,146.23,136.50,136.50,19.8,15.9,0.4301162633521313,167.80739726045897,26.64752660774387,108.03051322850052,25.207119525707284
1.300,59.8,44.054112793321906,-78.681777271697300,256.3,193.4,8.6,-21.0,1641.7,1642,172.2,0,1,1,0,1,1,0,0,0,100,1,1.186,26.0,0.0,1.206,68.644,66.0,0.0,26.0,26.0,26.0,26.0,0.25,0.39,0.53,368.7,-4.26,-2.89,-2.02,-1.30,-719.59,633.23,5.5,0.00,0.00,0.00,0.00,0.04,-7.49,-7.49,-0.52,9.06,0.52,6.20,47.84,0.18,-0.38,-3.27,100.0,0,0,136.63,0,0,0.0,0,0,0,0,7288,0,30.00,4,172.2,0,0,0.0,0.0,0.0,0.0,0,0,1.344,1.344,68.644,19.926,0,110.00,435.8,8750,0.0,0.0,110.0,110.0,433.0,0.00,0,0,1,333.3,52.6,52.6,64.5,64.5,34.0,-27.40,77.28,-9.0,48.4,1,-72.560,-3.5,100.0,32.6,31.3,34.7,38.5,0,1,100.0,0.00,0.00,0.00,0.00,6179,7695,5251,6599,309.6,304.4,341.9,338.1,25.08,23.15,25.69,24.89,325.0,325.0,355.0,355.0,99.70,99.61,99.69,99.65,0.20,0.35,0.18,0.34,-0.1,-0.1,1.6,1.6,82.7,70.7,80.3,75.3,89.8,72.1,86.0,79.3,86.9,70.1,84.9,77.5,84.8,68.9,84.6,76.6,-0.18,0.22,0.06,0.05,0.00,146.89,147.15,136.63,136.63,19.8,15.9,0.7039176088151227,178.25034688392782,28.80813686093341,10.80305155045977,14.404068544271453
1.350,62.2,44.054089860620955,-78.681773494546562,-202.6,-10.3,319.2,288.9,1644.1,1644,172.9,0,1,1,0,1,1,0,0,0,100,1,1.186,26.0,0.0,1.272,68.644,66.0,0.0,26.0,26.0,26.0,26.0,0.20,0.40,0.31,367.6,-4.82,-3.06,-2.60,-1.47,-719.17,630.68,5.5,0.00,0.00,0.00,0.00,0.04,-7.49,-7.49,-0.04,5.52,0.63,-1.36,48.03,0.18,-0.25,-3.02,100.0,0,0,136.71,0,0,0.0,0,0,0,0,7292,0,30.00,4,172.9,1,0,0.0,0.0,0.0,0.0,0,0,1.398,1.398,68.644,19.926,1,110.00,435.8,8750,0.0,0.0,110.0,110.0,433.0,0.00,0,0,1,166.7,70.2,70.2,40.1,40.1,34.0,-3.91,29.13,-16.4,69.5,1,-72.610,-3.7,100.0,22.5,30.7,50.6,53.0,0,1,100.0,0.00,0.00,0.00,0.00,1864,3443,7115,8243,320.1,314.8,336.7,335.1,25.08,23.15,25.69,24.90,325.0,325.0,355.0,355.0,99.70,99.61,99.69,99.65,0.38,0.30,0.25,0.34,-0.1,-0.0,1.4,1.1,82.7,70.7,80.3,75.4,89.7,72.1,86.0,79.3,86.8,70.0,84.9,77.5,84.7,68.9,84.5,76.6,-0.21,0.22,0.04,0.02,0.00,147.17,147.47,136.71,136.71,19.8,15.9,0.5441507144165116,168.88770241550495,28.087933462171016,-136.83865003253118,-10.803050981435867
1.400,64.6,44.054070615138585,-78.681770256988770,-48.2,-183.9,-35.2,17.8,1646.5,1646,173.4,0,1,1,0,1,1,0,0,0,100,1,1.186,26.0,0.0,1.305,68.644,66.0,0.0,26.0,26.0,26.0,26.0,0.20,0.28,0.14,373.0,-3.07,-1.97,-2.43,-1.02,-718.81,628.54,5.5,0.00,0.00,0.00,0.00,0.04,-7.49,-7.49,-0.03,-2.68,0.49,-2.76,48.18,0.16,-0.34,-2.26,100.0,0,0,137.50,0,0,0.0,0,0,0,0,7334,0,30.00,4,173.4,0,0,0.0,0.0,0.0,0.0,0,0,1.443,1.443,68.644,19.926,0,110.00,435.8,8750,0.0,0.0,110.0,110.0,433.0,0.00,0,0,1,333.3,72.7,72.7,57.0,57.0,34.0,0.91,25.94,-7.4,35.6,1,-72.660,-5.0,100.0,20.0,21.5,48.9,53.8,0,1,100.0,0.00,0.00,0.00,0.00,4483,3397,4491,5846,313.8,316.2,344.1,339.6,25.08,23.15,25.70,24.90,325.0,325.0,355.0,355.0,99.70,99.61,99.69,99.65,0.37,0.41,0.24,0.29,-0.0,-0.1,1.5,1.4,82.7,70.7,80.3,75.4,89.7,72.0,86.0,79.3,86.7,70.0,84.8,77.5,84.7,68.9,84.5,76.6,-0.28,0.26,0.04,0.01,0.00,147.60,147.63,137.49,137.49,19.8,15.9,0.3714835124201342,164.5664818806747,27.727831762789823,61.21729060187391,18.00508496905966
1.450,67.0,44.054048761623562,-78.681766569770190,232.8,189.9,-205.9,-266.3,1648.9,1649,174.0,0,1,1,0,1,1,0,0,0,100,1,1.186,26.0,0.0,1.368,68.644,66.0,0.0,26.0,26.0,26.0,26.0,0.32,0.34,0.46,369.6,-2.81,-2.55,-2.16,-1.79,-718.40,626.11,5.5,0.00,0.00,0.00,0.00,0.04,-7.49,-7.49,-0.02,4.90,0.38,1.56,48.33,0.16,-0.42,-4.15,100.0,0,0,138.28,0,0,0.0,0,0,0,0,7376,0,30.00,4,174.0,1,0,0.0,0.0,0.0,0.0,0,0,1.494,1.494,68.644,19.926,1,110.00,435.8,8750,0.0,0.0,110.0,110.0,433.0,0.00,0,0,1,333.3,53.0,53.0,60.5,60.5,34.0,-4.76,83.96,-8.2,30.6,1,-72.710,-5.2,100.0,31.7,31.0,38.6,40.5,0,1,100.0,0.00,0.00,0.00,0.00,6405,7708,5837,4240,308.7,305.0,340.6,343.8,25.08,23.15,25.70,24.90,325.0,325.0,355.0,355.0,99.70,99.61,99.69,99.65,0.28,0.47,0.22,0.32,-0.0,-0.1,1.9,1.6,82.8,70.7,80.4,75.4,89.6,72.0,86.0,79.3,86.7,70.0,84.8,77.5,84.6,68.9,84.5,76.6,-0.28,0.32,0.06,0.05,0.00,148.39,148.63,138.28,138.28,19.8,15.9,0.6554387843269576,175.00943147569234,29.88844195907698,57.616273608061874,18.005084969059695
1.500,69.4,44.054026908108540,-78.681762792619452,41.6,190.9,133.7,206.6,1651.3,1651,174.6,0,1,1,0,1,1,0,0,0,100,1,1.186,26.0,0.0,1.401,68.644,66.0,0.0,26.0,26.0,26.0,26.0,0.37,0.35,0.70,362.1,-3.91,-2.26,-1.87,-1.72,-717.98,623.68,5.5,0.00,0.00,0.00,0.00,0.04,-7.49,-7.49,0.51,12.54,0.52,-0.56,48.51,0.19,-0.31,-4.98,100.0,0,0,137.98,0,0,0.0,0,0,0,0,7360,0,30.00,4,174.6,0,0,0.0,0.0,0.0,0.0,0,0,1.546,1.546,68.644,19.926,0,110.00,435.8,8750,0.0,0.0,110.0,110.0,433.0,0.00,0,0,1,166.7,53.1,53.1,42.4,42.4,34.0,-2.72,54.80,-0.9,79.6,1,-72.760,-4.7,100.0,33.8,40.6,45.2,50.9,0,1,100.0,0.00,0.00,0.00,0.00,3093,5968,7927,7739,315.2,308.5,334.8,335.5,25.08,23.16,25.70,24.90,325.0,325.0,355.0,355.0,99.70,99.61,99.69,99.65,0.39,0.39,0.28,0.43,-0.0,-0.1,1.3,1.0,82.8,70.7,80.4,75.4,89.6,72.0,86.0,79.3,86.6,70.0,84.8,77.5,84.6,68.9,84.5,76.6,-0.25,0.32,0.05,0.02,0.00,148.91,149.30,137.98,137.98,19.8,15.9,0.8656789243131658,170.3281092414809,29.528340259695792,-43.212205063790634,3.6010175628356578
1.550,71.9,44.054006223711603,-78.681759195333029,-298.7,-322.2,174.9,181.1,1653.8,1654,175.2,0,1,1,0,1,1,0,0,0,100,1,1.186,26.0,0.0,1.434,68.644,66.0,0.0,26.0,26.0,26.0,26.0,0.33,0.34,0.40,370.4,-1.87,-3.50,-1.96,-2.13,-717.58,621.38,5.6,0.00,0.00,0.00,0.00,0.04,-7.49,-7.49,0.79,-0.74,0.31,-7.95,48.67,0.17,-0.29,-2.81,100.0,0,0,138.31,0,0,0.0,0,0,0,0,7378,0,30.00,4,175.2,1,0,0.0,0.0,0.0,0.0,0,0,1.593,1.593,68.644,19.926,1,110.00,435.8,8750,0.0,0.0,110.0,110.0,433.0,0.00,0,0,1,333.3,78.8,78.8,40.2,40.2,34.0,1.86,17.95,2.3,93.7,1,-72.810,-4.7,100.0,18.8,24.5,54.0,59.9,0,1,100.0,0.00,0.00,0.00,0.00,889,2110,7565,8740,322.6,318.9,336.7,332.3,25.08,23.16,25.70,24.91,325.0,325.0,355.0,355.0,99.70,99.61,99.69,99.65,0.45,0.38,0.32,0.37,-0.0,0.0,1.2,1.0,82.8,70.7,80.4,75.4,89.5,72.0,85.9,79.3,86.6,70.0,84.8,77.5,84.5,68.9,84.4,76.6,-0.27,0.26,0.03,0.00,0.00,149.02,149.15,138.31,138.31,19.8,15.9,0.6200806399170998,170.68821096931327,30.248543715360547,111.63153050682382,32.40915465137849
1.600,74.3,44.053984280264416,-78.681755238317962,-121.2,-283.4,-282.2,-347.4,1656.2,1656,175.7,0,1,1,0,1,1,0,0,0,100,1,1.186,26.0,0.0,1.500,68.644,66.0,0.0,26.0,26.0,26.0,26.0,0.14,0.32,-0.59,389.0,-1.95,-2.29,-1.47,-2.83,-717.14,618.94,5.6,0.00,0.00,0.00,0.00,0.05,-7.49,-7.49,0.47,-9.31,-0.02,-3.52,48.82,0.16,-0.43,-1.64,100.0,0,0,139.99,0,0,0.0,0,0,0,0,7467,0,30.00,4,175.7,0,0,0.0,0.0,0.0,0.0,0,0,1.644,1.644,68.644,19.926,0,110.00,435.8,8750,0.0,0.0,110.0,110.0,433.0,0.00,0,0,1,333.3,88.0,88.0,69.7,69.7,34.0,7.95,6.16,0.8,17.9,1,-72.860,-6.5,100.0,12.8,10.3,39.9,42.6,0,1,100.0,0.00,0.00,0.00,0.00,2534,963,4436,2551,318.4,322.6,343.7,348.0,25.08,23.16,25.71,24.91,325.0,325.0,355.0,355.0,99.70,99.61,99.69,99.65,0.50,0.52,0.24,0.29,-0.1,-0.1,2.2,2.1,82.8,70.7,80.4,75.4,89.4,72.0,85.9,79.3,86.5,69.9,84.7,77.5,84.4,68.8,84.4,76.5,-0.35,0.35,0.06,0.04,0.00,149.21,149.24,139.99,139.99,19.8,15.9,0.6856383886568779,181.49126229216327,32.76925572483364,10.803050981435831,10.803051550459521
1.650,76.8,44.053960897902662,-78.681751011506407,171.6,212.0,-297.4,-350.9,1658.6,1659,176.2,0,1,1,0,1,1,0,0,0,100,1,1.186,26.0,0.0,1.530,68.644,66.0,0.0,26.0,26.0,26.0,26.0,0.22,0.31,-0.25,390.3,-2.84,-1.86,-3.04,-1.46,-716.67,616.34,5.7,0.00,0.00,0.00,0.00,0.05,-7.49,-7.49,0.11,-1.15,0.19,7.56,48.95,0.16,-0.55,-4.20,100.0,0,0,142.36,0,0,0.0,0,0,0,0,7593,0,30.00,4,176.2,1,0,0.0,0.0,0.0,0.0,0,0,1.698,1.698,68.644,19.926,1,110.00,435.8,8750,0.0,0.0,110.0,110.0,433.0,0.00,0,0,1,166.7,72.2,72.2,84.6,84.6,34.0,7.87,29.81,-8.2,8.5,1,-72.910,-9.9,100.0,21.4,20.9,25.0,25.0,0,1,97.3,0.00,0.00,0.00,0.00,4161,3301,3279,2227,314.4,316.7,347.6,348.9,25.09,23.16,25.71,24.91,325.0,325.0,355.0,355.0,99.70,99.61,99.69,99.65,0.48,0.59,0.13,0.31,-0.0,-0.1,3.7,3.5,82.8,70.7,80.4,75.4,89.4,71.9,85.9,79.3,86.4,69.9,84.7,77.4,84.4,68.8,84.4,76.5,-0.54,0.53,0.09,0.08,0.00,149.94,150.17,142.36,142.36,19.8,15.9,0.45497252664309307,171.76851606745686,31.3288488704065,-147.64170158299066,-18.005086107107076
1.700,79.2,44.053941382623819,-78.681747414219984,54.7,144.1,17.7,230.4,1661.1,1661,176.7,0,1,1,0,1,1,0,0,0,100,1,1.186,26.0,0.0,1.593,68.644,66.0,0.0,26.0,26.0,26.0,26.0,0.45,0.07,0.32,378.9,-2.89,-2.48,-2.37,-0.92,-716.27,614.17,5.7,0.00,0.00,0.00,0.00,0.05,-7.49,-7.49,0.26,5.67,0.53,5.44,49.08,0.23,-0.43,-7.58,100.0,0,0,137.59,0,0,0.0,0,0,0,0,7339,0,30.00,4,176.7,0,0,0.0,0.0,0.0,0.0,1,0,1.743,1.743,68.644,19.926,0,110.00,435.8,8750,0.0,0.0,110.0,110.0,433.0,0.00,0,0,1,333.3,63.6,63.6,71.7,71.7,34.0,16.67,65.36,-7.9,55.2,1,-72.960,-12.4,100.0,24.1,28.1,25.9,36.5,0,1,0.0,0.00,0.00,0.00,0.00,4709,5265,5365,5584,313.1,310.6,341.3,339.9,25.09,23.16,25.71,24.91,325.0,325.0,355.0,355.0,99.70,99.61,99.69,99.65,0.62,0.70,0.27,0.54,-0.0,-0.0,0.4,0.2,82.8,70.7,80.4,75.4,89.3,71.9,85.8,79.2,86.4,69.9,84.7,77.4,84.3,68.8,84.3,76.5,-0.69,0.68,0.10,0.07,0.00,150.42,150.97,137.48,137.71,19.8,15.9,0.5565968020030299,166.7270921338642,30.968747114122934,50.41423990494991,25.207119525707178
1.750,81.7,44.053919259312309,-78.681743277340601,-126.8,-110.7,188.4,257.1,1663.6,1664,176.3,0,1,1,0,1,1,0,0,0,100,1,1.186,26.0,0.0,1.626,68.644,66.0,0.0,26.0,26.0,26.0,26.0,0.46,-0.20,-0.03,380.1,-1.92,-2.21,-2.17,-1.16,-715.81,611.71,5.7,0.00,0.00,0.00,0.00,0.05,-7.49,-7.49,0.41,-1.46,0.79,2.36,48.97,0.34,-0.34,-7.36,100.0,0,0,137.17,0,0,0.0,0,0,0,0,7317,0,30.00,4,176.3,1,0,0.0,0.0,0.0,0.0,1,0,1.794,1.794,68.644,19.926,1,110.00,435.8,8750,0.0,0.0,110.0,110.0,433.0,0.00,0,0,1,333.3,78.9,78.9,62.7,62.7,34.0,6.12,26.10,12.3,79.4,1,-73.010,-13.0,100.0,17.7,22.6,35.3,49.4,0,1,0.0,0.00,0.00,0.00,0.00,1011,2423,5628,6618,322.0,318.8,341.0,337.6,25.09,23.16,25.71,24.91,325.0,325.0,355.0,355.0,99.70,99.61,99.69,99.65,0.92,0.87,0.48,0.64,0.0,0.1,-0.1,-0.3,82.8,70.7,80.4,75.5,89.3,71.9,85.8,79.2,86.3,69.9,84.6,77.4,84.3,68.8,84.3,76.5,-0.75,0.74,0.07,0.03,0.00,149.77,150.36,137.05,137.29,19.8,15.9,0.5024937810560446,176.80994005795185,33.84956082297722,43.212205348302746,28.808137088542836
1.800,84.1,44.053897225932964,-78.681738960596888,-128.3,-42.3,-29.3,-140.5,1666.0,1666,176.0,0,1,1,0,1,1,0,0,0,100,1,1.186,26.0,0.0,1.689,68.644,66.0,0.0,26.0,26.0,26.0,26.0,0.51,-0.20,-0.26,387.0,-2.80,-2.06,-1.96,-1.87,-715.33,609.26,5.8,0.00,0.00,0.00,0.00,0.05,-7.49,-7.49,0.07,-8.27,0.71,-4.95,48.87,0.40,-0.52,-7.34,100.0,0,0,136.54,0,0,0.0,0,0,0,0,7283,0,30.00,4,176.0,0,0,0.0,0.0,0.0,0.0,1,0,1.844,1.844,68.644,19.926,0,110.00,435.8,8750,0.0,0.0,110.0,110.0,433.0,0.00,0,0,1,333.3,80.8,80.8,67.3,67.3,34.0,8.79,49.51,12.4,29.9,1,-73.060,-14.5,100.0,11.3,20.5,33.8,42.4,0,1,0.0,0.00,0.00,0.00,0.00,1340,3492,3175,2605,321.1,314.6,347.3,347.0,25.09,23.16,25.71,24.91,325.0,325.0,355.0,355.0,99.70,99.61,99.69,99.65,1.08,1.09,0.63,0.70,-0.0,-0.0,-0.2,-0.6,82.8,70.7,80.5,75.5,89.2,71.9,85.7,79.2,86.2,69.9,84.5,77.4,84.2,68.7,84.2,76.5,-0.83,0.81,0.08,0.05,0.00,149.33,149.80,136.54,136.54,19.8,15.9,0.6063827174318213,171.04831266869448,33.84956082297722,-68.41932515852164,7.202033987624006
1.850,86.6,44.053876541536027,-78.681734823717505,43.0,64.8,-239.3,-211.4,1668.4,1668,175.6,0,1,1,0,1,1,0,0,0,100,1,1.186,26.0,0.0,1.722,68.644,66.0,1.1,26.0,26.0,26.0,26.0,0.65,-0.21,-0.26,388.1,-2.85,-2.53,-2.25,-1.05,-714.87,606.96,5.8,0.00,0.00,0.00,0.00,0.05,-7.49,-7.49,-0.22,-3.93,0.35,-10.51,48.76,0.48,-0.59,-9.98,100.0,0,0,136.26,0,0,0.0,0,0,0,0,7269,0,30.00,4,175.6,1,0,0.0,0.0,0.0,0.0,1,0,1.893,1.893,68.644,19.926,1,110.00,435.8,8750,0.0,0.0,110.0,110.0,433.0,0.00,0,0,1,166.7,73.6,73.6,75.3,75.3,34.0,28.70,87.68,23.6,40.3,1,-73.110,-14.9,100.0,13.5,23.7,21.9,31.8,0,1,0.0,0.00,0.00,0.00,0.00,3758,5333,4339,3307,317.1,310.4,344.9,346.8,25.09,23.16,25.71,24.92,325.0,325.0,355.0,355.0,99.70,99.61,99.69,99.65,1.13,1.25,0.79,1.00,0.0,-0.1,-0.2,-0.7,82.8,70.7,80.5,75.5,89.1,71.9,85.6,79.2,86.2,69.9,84.5,77.3,84.1,68.8,84.1,76.4,-0.85,0.84,0.09,0.07,0.00,148.86,149.69,136.10,136.43,19.8,15.9,0.7308898685848642,169.96800754209968,34.56976422173962,25.20711952570707,21.606102531895388
1.900,89.0,44.053854777953163,-78.681730327109477,148.8,14.0,37.8,-21.5,1670.9,1671,174.4,0,1,1,0,1,1,0,0,0,100,1,1.186,26.0,0.0,1.755,68.644,66.0,100.0,26.0,26.0,26.0,26.0,0.61,-1.39,-0.16,386.3,-2.25,-2.59,-1.48,-1.21,-714.37,604.54,5.8,0.00,0.00,0.00,0.00,0.05,-7.49,-7.49,-0.33,-2.50,0.18,0.30,48.41,0.63,-0.61,-11.17,100.0,0,0,132.32,0,0,0.0,0,0,0,0,7058,0,30.00,4,174.4,0,0,0.0,0.0,0.0,0.0,1,0,1.944,1.944,68.644,19.926,0,110.00,435.8,8750,0.0,0.0,110.0,110.0,433.0,0.00,0,0,1,166.7,71.0,71.0,81.0,81.0,34.0,3.54,13.72,16.1,64.6,1,-73.160,-15.0,100.0,20.9,24.4,23.8,30.7,0,1,0.0,0.00,0.00,0.00,0.00,2537,4120,2516,5076,317.9,313.7,348.1,342.3,25.09,23.16,25.71,24.92,325.0,325.0,355.0,355.0,99.70,99.61,99.69,99.65,1.29,1.30,0.97,1.14,-7.4,-6.8,-2.4,-2.4,82.8,70.7,80.5,75.5,89.1,71.9,85.6,79.1,86.1,69.9,84.4,77.3,84.1,68.8,84.1,76.4,-0.87,0.86,0.09,0.06,0.00,134.82,137.33,131.58,133.05,19.8,15.9,1.5263682386632655,173.56902462126519,36.010171076166756,10.803050981435831,21.606103100919043
1.950,91.4,44.053833194234628,-78.681725830501449,-2.1,58.5,48.9,25.1,1673.2,1673,171.7,0,1,1,0,1,1,0,0,0,100,1,1.186,26.0,0.0,1.818,68.644,66.0,100.0,26.0,26.0,26.0,26.0,0.67,-1.70,0.07,382.8,-2.47,-2.67,-2.48,-1.32,-713.87,602.14,5.8,0.00,0.00,0.00,0.00,0.06,-7.49,-7.49,-0.67,-8.73,0.23,2.83,47.62,0.73,-0.84,-8.52,100.0,0,0,128.94,0,0,0.0,0,0,0,0,6878,0,30.00,4,171.7,1,0,0.0,0.0,0.0,0.0,1,0,1.994,1.994,68.644,19.926,1,110.00,435.8,8750,0.0,0.0,110.0,110.0,433.0,0.00,0,0,1,166.7,63.2,63.2,77.1,77.1,34.0,4.85,50.91,8.6,30.5,1,-73.210,-15.2,100.0,20.8,27.3,26.2,32.0,0,1,0.0,0.00,0.00,0.00,0.00,4778,7186,2152,3047,313.6,305.3,349.3,346.8,25.09,23.16,25.72,24.92,325.0,325.0,355.0,355.0,99.70,99.61,99.69,99.65,1.42,1.55,0.99,1.18,-8.1,-5.6,-3.3,-3.2,82.8,70.8,80.5,75.5,89.1,72.1,85.6,79.1,86.2,70.0,84.4,77.3,84.2,68.9,84.1,76.4,-0.88,0.88,0.10,0.07,0.00,133.10,137.92,128.57,129.31,19.8,15.9,1.8286060264584059,171.04831264024327,36.73037453183152,-57.61627332355033,14.404068544271382
2.000,93.7,44.053812060176888,-78.681721154029091,89.2,150.2,-205.9,-147.6,1675.6,1676,168.6,0,1,1,0,1,1,0,0,0,100,1,1.186,26.0,0.0,1.851,68.644,66.0,100.0,26.0,26.0,26.0,26.0,0.66,-1.99,0.08,382.7,-3.68,-1.45,-1.36,-0.84,-713.35,599.79,5.8,0.00,0.00,0.00,0.00,0.06,-7.49,-7.49,-0.92,-2.60,0.23,-1.66,46.77,0.84,-0.99,-10.83,100.0,0,0,122.27,0,0,0.0,0,0,0,0,6522,0,30.00,4,168.6,0,0,0.0,0.0,0.0,0.0,1,0,2.046,2.046,68.644,19.926,0,110.00,435.8,8750,0.0,0.0,110.0,110.0,433.0,0.00,0,0,1,166.7,55.6,55.6,86.9,86.9,34.0,-1.73,44.68,-0.4,44.3,1,-73.260,-15.3,100.0,25.3,34.8,15.9,24.6,0,1,0.0,0.00,0.00,0.00,0.00,5584,7333,2016,4482,310.6,305.7,349.6,344.0,25.09,23.16,25.72,24.92,325.0,325.0,355.0,355.0,99.70,99.61,99.69,99.65,1.54,1.67,1.23,1.47,-10.4,-5.9,-10.2,-3.9,82.8,70.8,80.5,75.5,89.3,72.2,85.5,79.1,86.3,70.2,84.4,77.3,84.2,69.0,84.0,76.4,-0.87,0.88,0.11,0.07,0.00,127.85,135.37,117.46,127.08,19.8,15.9,2.098118204487059,167.80739728891015,37.450577930593894,-68.41932458949799,7.202033987623722
2.050,96.0,44.053791285847787,-78.681716477556748,27.7,30.5,-2.1,64.4,1677.9,1678,165.4,1,1,1,0,1,1,0,0,0,100,1,1.186,26.0,0.0,1.920,68.644,66.0,100.0,26.0,26.0,26.0,26.0,0.54,-1.50,-0.24,384.9,-3.21,-2.32,-1.62,0.35,-712.83,597.48,5.8,0.00,0.00,0.00,0.00,0.06,-7.49,-7.49,-0.99,-0.09,0.03,-7.10,45.88,0.96,-1.06,-12.24,100.0,0,0,118.99,0,0,0.0,0,0,0,0,6347,0,30.00,4,165.4,1,0,0.0,0.0,0.0,0.0,1,0,2.097,2.097,68.644,19.926,1,110.00,435.8,8750,0.0,0.0,110.0,110.0,433.0,0.00,0,0,1,166.7,58.4,58.4,88.4,88.4,34.0,-1.50,25.27,-0.4,21.5,1,-73.310,-14.9,100.0,26.7,36.4,15.8,27.8,0,1,0.0,0.00,0.00,0.00,0.00,3667,5993,1093,2690,315.6,308.4,352.1,348.1,25.09,23.16,25.72,24.92,325.0,325.0,355.0,355.0,99.70,99.61,99.69,99.65,1.69,1.77,1.50,1.69,-13.0,-6.7,-11.6,-4.1,82.8,70.8,80.5,75.5,89.4,72.4,85.5,79.1,86.4,70.3,84.3,77.3,84.3,69.1,84.0,76.4,-0.86,0.88,0.11,0.08,0.00,120.56,131.20,114.64,123.34,19.8,15.9,1.6122034611053282,164.20638018129347,37.450577930593894,-115.2325477851474,-7.202033987623722
2.100,98.3,44.053771051111653,-78.681711801084390,4.6,-97.1,50.3,-36.7,1680.1,1680,162.3,0,1,1,0,1,1,0,0,0,100,1,1.186,26.0,0.0,1.953,68.644,66.0,100.0,26.0,26.0,26.0,26.0,0.62,-1.84,0.04,383.8,-2.84,-2.56,-1.26,-0.68,-712.31,595.23,5.9,0.00,0.00,0.00,0.00,0.06,-7.49,-7.49,-1.05,-1.37,-0.29,-4.23,45.00,1.15,-1.02,-11.93,100.0,0,0,117.06,0,0,0.0,0,0,0,0,6244,0,30.00,4,162.3,0,0,0.0,0.0,0.0,0.0,1,0,2.148,2.148,68.644,19.926,0,110.00,435.8,8750,0.0,0.0,110.0,110.0,433.0,0.00,0,0,1,166.7,56.8,56.8,88.9,88.9,34.0,11.23,-7.46,-0.3,14.3,1,-73.360,-14.4,100.0,26.9,31.5,18.3,26.0,0,1,0.0,0.00,0.00,0.00,0.00,5844,6836,1614,1987,309.9,306.6,350.6,349.5,25.10,23.17,25.72,24.92,325.0,325.0,355.0,355.0,99.70,99.61,99.69,99.65,1.88,2.03,1.75,1.93,-7.6,-11.6,-9.7,-4.7,82.9,70.8,80.5,75.5,89.5,72.5,85.5,79.1,86.5,70.5,84.4,77.3,84.4,69.3,84.0,76.4,-0.82,0.83,0.11,0.09,0.00,127.11,122.61,113.64,120.48,19.8,15.9,1.9420607611503817,156.2841425103954,36.73037453183152,-158.44475313344986,-14.404068544271382
2.150,100.5,44.053752255290092,-78.681707304476362,46.3,74.8,-87.8,-95.6,1682.3,1682,159.3,1,1,1,0,1,1,0,0,0,100,1,1.186,26.0,0.0,1.989,68.644,66.0,100.0,26.0,26.0,26.0,26.0,0.70,-1.95,0.01,383.2,-2.58,-3.05,-1.50,-0.81,-711.81,593.14,5.9,0.00,0.00,0.00,0.00,0.06,-7.49,-7.49,-0.93,5.66,-0.40,-2.20,44.15,1.36,-0.89,-13.95,100.0,0,0,114.46,0,0,0.0,0,0,0,0,6105,0,30.00,4,159.3,1,0,0.0,0.0,0.0,0.0,1,0,2.196,2.196,68.644,19.926,1,110.00,435.8,8750,0.0,0.0,110.0,110.0,433.0,0.00,0,0,1,166.7,54.1,54.1,86.4,86.4,34.0,-3.36,3.66,5.0,1.6,1,-73.410,-14.5,100.0,29.2,35.2,13.9,21.2,0,1,0.0,0.00,0.00,0.00,0.00,5125,7370,3493,2779,311.9,305.2,347.0,347.6,25.10,23.17,25.72,24.92,325.0,325.0,355.0,355.0,99.71,99.61,99.69,99.66,2.12,2.23,2.05,2.30,-12.5,-8.6,-7.8,-8.4,82.9,70.8,80.5,75.5,89.6,72.8,85.5,79.1,86.6,70.7,84.3,77.3,84.5,69.5,84.0,76.4,-0.83,0.84,0.10,0.10,0.00,122.46,124.77,114.64,114.27,19.8,15.9,2.0718590685661993,148.36190486794848,36.010171076166756,-68.41932487400982,7.202033987623722
2.200,102.6,44.053733999061492,-78.681702807868334,-26.9,-56.6,161.7,228.4,1684.5,1685,156.0,1,1,1,0,1,1,0,0,0,100,1,1.186,26.0,0.0,2.022,68.644,66.0,100.0,26.0,26.0,26.0,26.0,0.77,-1.71,0.05,380.7,-3.52,-2.45,-1.53,-0.87,-711.31,591.11,5.9,0.00,0.00,0.00,0.00,0.06,-7.49,-7.49,-0.72,2.23,-0.20,6.90,43.26,1.46,-0.78,-11.52,100.0,0,0,115.58,0,0,0.0,0,0,0,0,6165,0,30.00,4,156.0,0,0,0.0,0.0,0.0,0.0,0,0,2.244,2.244,68.644,19.926,0,110.00,435.8,8750,0.0,0.0,110.0,110.0,433.0,0.00,0,0,1,166.7,61.1,61.1,82.9,82.9,34.0,-1.95,-4.76,7.1,72.4,1,-73.460,-14.5,100.0,27.9,32.4,22.0,32.6,0,1,0.0,0.00,0.00,0.00,0.00,3967,4803,2414,5342,315.1,311.9,348.6,341.3,25.10,23.17,25.72,24.92,325.0,325.0,355.0,355.0,99.71,99.61,99.69,99.66,2.27,2.34,2.14,2.35,-14.9,-13.1,-6.7,-3.3,82.9,70.8,80.5,75.5,89.7,73.0,85.5,79.2,86.7,70.8,84.3,77.4,84.6,69.7,84.0,76.5,-0.83,0.85,0.09,0.07,0.00,116.00,119.62,113.03,118.14,19.8,15.9,1.8760330487494081,149.44221002299443,37.450577930593894,-14.404068259759697,21.606103100918972
2.250,104.8,44.053714933443445,-78.681697951531660,-149.3,-91.7,-19.8,79.4,1686.6,1687,153.3,0,1,1,0,1,1,0,0,0,100,1,1.186,26.0,0.0,2.097,68.644,66.0,100.0,26.0,26.0,26.0,26.0,0.81,-1.64,0.11,382.7,-2.55,-2.37,-2.74,-0.65,-710.77,588.99,5.9,0.00,0.00,0.00,0.00,0.06,-7.49,-7.49,-0.81,-4.57,0.14,4.83,42.49,1.37,-0.81,-5.63,100.0,0,0,112.87,0,0,0.0,0,0,0,0,6021,0,30.00,4,153.3,1,0,0.0,0.0,0.0,0.0,0,0,2.296,2.296,68.644,19.926,1,110.00,435.8,8750,0.0,0.0,110.0,110.0,433.0,0.00,0,0,1,333.3,64.2,64.2,82.9,82.9,34.0,-3.27,-9.52,2.1,61.6,1,-73.510,-14.5,100.0,20.4,27.8,21.0,36.6,0,1,0.0,0.00,0.00,0.00,0.00,4139,6980,1575,4410,314.6,306.3,350.9,343.3,25.10,23.17,25.72,24.92,325.0,325.0,355.0,355.0,99.71,99.61,99.69,99.66,2.39,2.54,1.89,2.07,-11.0,-10.8,-7.6,-2.9,82.9,70.8,80.5,75.5,89.8,73.1,85.5,79.2,86.8,71.0,84.3,77.4,84.7,69.8,84.0,76.5,-0.84,0.82,0.10,0.06,0.00,114.46,116.39,109.74,116.00,19.8,15.9,1.8324300805214915,146.9214980419725,38.17078138625865,-61.21729088638631,10.803051550459628
2.300,106.9,44.053697306739970,-78.681693275059303,210.3,126.4,-174.8,-240.1,1688.7,1689,150.5,1,1,1,0,1,1,0,0,0,100,1,1.186,26.0,0.0,2.133,68.644,66.0,100.0,26.0,26.0,26.0,26.0,0.55,-1.54,-0.27,384.2,-2.94,-1.73,-2.57,-0.34,-710.25,587.03,5.9,0.00,0.00,0.00,0.00,0.06,-7.49,-7.49,-0.85,3.79,0.20,3.08,41.73,1.24,-0.86,-9.26,100.0,0,0,104.41,0,0,0.0,0,0,0,0,5569,0,30.00,4,150.5,0,0,0.0,0.0,0.0,0.0,0,0,2.343,2.343,68.644,19.926,0,110.00,435.8,8750,0.0,0.0,110.0,110.0,433.0,0.00,0,0,1,333.3,53.8,53.8,94.9,94.9,34.0,7.38,-6.42,-0.3,27.8,1,-73.560,-13.8,100.0,30.9,34.1,12.3,24.6,0,1,0.0,0.00,0.00,0.00,0.00,4946,7351,1398,3467,312.3,305.8,352.4,347.8,25.10,23.17,25.72,24.92,325.0,325.0,355.0,355.0,99.71,99.61,99.69,99.66,2.11,2.22,1.86,2.05,-7.8,-10.0,-17.7,-4.4,82.9,70.8,80.5,75.5,89.8,73.3,85.5,79.2,86.8,71.2,84.3,77.4,84.7,70.0,83.9,76.5,-0.79,0.82,0.11,0.08,0.00,117.10,115.74,95.96,112.86,19.8,15.9,1.657407614318216,143.3204809343558,38.53088308563986,-25.207119810219183,18.005084969059766
2.350,108.9,44.053679140443528,-78.681688328790472,-130.6,19.1,122.1,434.6,1690.8,1691,147.2,1,1,1,0,1,1,0,0,0,100,1,1.186,26.0,0.0,2.172,68.644,66.0,100.0,26.0,26.0,26.0,26.0,0.56,-1.55,0.30,380.0,-2.96,-1.32,-2.83,-1.12,-709.70,585.01,5.9,0.00,0.00,0.00,0.00,0.07,-7.49,-7.49,-0.69,-0.36,0.19,-8.94,40.81,1.07,-0.82,-5.24,100.0,0,0,108.29,0,0,0.0,0,0,0,0,5776,0,30.00,4,147.2,1,0,0.0,0.0,0.0,0.0,0,0,2.394,2.394,68.644,19.926,1,110.00,435.8,8750,0.0,0.0,110.0,110.0,433.0,0.00,0,0,1,333.3,59.7,59.7,75.3,75.3,34.0,-1.75,21.06,12.7,0.0,1,-73.610,-13.0,100.0,24.4,35.1,18.4,46.3,0,1,0.0,0.00,0.00,0.00,0.00,3012,7739,4073,0,317.9,304.6,345.0,355.0,25.10,23.17,25.72,24.92,325.0,325.0,355.0,355.0,99.71,99.61,99.69,99.66,2.11,2.26,1.53,0.00,-11.2,-7.4,-6.2,0.0,82.9,70.8,80.5,75.5,89.9,73.5,85.5,79.3,86.9,71.4,84.3,77.5,84.8,70.2,84.0,76.5,-0.75,0.77,0.11,0.04,0.00,113.91,116.37,109.02,107.56,19.8,15.9,1.675141785043881,144.4007860609506,39.97128988316463,-61.217290886385456,10.803050981435831
2.400,110.9,44.053661243943573,-78.681683292589483,-40.7,63.1,103.4,-343.4,1692.8,1693,144.1,1,1,1,0,1,1,0,0,0,100,1,1.186,26.0,0.0,2.211,68.644,66.0,100.0,26.0,26.0,26.0,26.0,0.86,-1.64,0.06,381.5,-3.72,-2.09,-1.74,-1.63,-709.14,583.02,5.9,0.00,0.00,0.00,0.00,0.07,-7.49,-7.49,-0.69,0.48,-0.23,-10.12,39.96,0.92,-0.82,-6.28,100.0,0,0,106.26,0,0,0.0,0,0,0,0,5668,0,30.00,4,144.1,0,0,0.0,0.0,0.0,0.0,0,0,2.444,2.444,68.644,19.926,0,110.00,435.8,8750,0.0,0.0,110.0,110.0,433.0,0.00,0,0,1,333.3,59.6,59.6,72.7,72.7,34.0,-1.25,51.04,2.5,47.9,1,-73.660,-12.6,100.0,22.3,38.3,23.6,29.1,0,1,0.0,0.00,0.00,0.00,0.00,3069,7102,2130,3584,317.6,305.5,349.8,344.4,25.10,23.18,25.72,24.92,325.0,325.0,355.0,355.0,99.71,99.61,99.69,99.66,1.88,2.01,1.55,1.73,-13.0,-5.7,-7.8,-3.1,82.9,70.8,80.5,75.5,90.0,73.7,85.5,79.3,87.0,71.5,84.3,77.5,84.8,70.3,83.9,76.6,-0.73,0.75,0.09,0.07,0.00,104.65,115.46,103.50,109.01,19.8,15.9,1.8527816924829539,137.19875184571725,39.61118818378344,-108.03051322850024,0.0
2.450,112.9,44.053644876290342,-78.681678436252810,33.4,-70.4,-63.6,-32.1,1694.7,1695,141.2,0,1,1,0,1,1,0,0,0,100,1,1.186,26.0,0.0,2.250,68.644,66.0,100.0,26.0,26.0,26.0,26.0,0.75,-1.94,0.08,381.2,-3.27,-1.99,-1.66,-1.16,-708.60,581.20,5.9,0.00,0.00,0.00,0.00,0.07,-7.49,-7.49,-0.64,0.84,-0.70,-10.35,39.15,0.83,-0.76,-6.18,100.0,0,0,104.19,0,0,0.0,0,0,0,0,5557,0,30.00,4,141.2,1,0,0.0,0.0,0.0,0.0,0,0,2.493,2.493,68.644,19.926,1,110.00,435.8,8750,0.0,0.0,110.0,110.0,433.0,0.00,0,0,1,333.3,59.4,59.4,77.9,77.9,34.0,-0.54,11.08,2.8,71.3,1,-73.710,-12.2,100.0,24.0,34.7,20.4,27.5,0,1,0.0,0.00,0.00,0.00,0.00,4169,6611,3208,5338,314.4,307.1,347.0,341.5,25.11,23.18,25.72,24.92,325.0,325.0,355.0,355.0,99.71,99.61,99.69,99.66,1.75,1.86,1.42,1.68,-9.7,-8.0,-8.2,-3.2,82.9,70.9,80.5,75.5,90.1,73.8,85.5,79.3,87.0,71.6,84.3,77.5,84.9,70.4,83.9,76.6,-0.71,0.72,0.11,0.07,0.00,112.03,110.74,101.31,107.07,19.8,15.9,2.081465829649865,133.59773473810057,39.97128988316463,-28.80813708854305,10.803051550459415
2.500,114.8,44.053627879111993,-78.681673310119663,38.9,-124.0,37.7,-19.9,1696.7,1697,138.1,0,1,1,0,1,1,0,0,0,100,1,1.186,26.0,0.0,2.331,68.644,66.0,100.0,26.0,26.0,26.0,26.0,0.60,-1.88,0.08,383.1,-2.57,-1.64,-0.92,-0.37,-708.03,579.31,6.0,0.00,0.00,0.00,0.00,0.07,-7.49,-7.49,-0.70,-1.81,-1.02,0.15,38.28,0.75,-0.78,-6.52,100.0,0,0,102.86,0,0,0.0,0,0,0,0,5486,0,30.00,4,138.1,0,0,0.0,0.0,0.0,0.0,0,0,2.544,2.544,68.644,19.926,0,110.00,435.8,8750,0.0,0.0,110.0,110.0,433.0,0.00,0,0,1,333.3,59.2,59.2,84.3,84.3,34.0,1.82,2.95,12.4,21.5,1,-73.760,-12.5,100.0,26.0,28.5,22.3,26.5,0,1,0.0,0.00,0.00,0.00,0.00,5561,6775,2074,3128,310.9,306.3,349.5,347.3,25.11,23.18,25.72,24.92,325.0,325.0,355.0,355.0,99.71,99.61,99.69,99.66,1.53,1.66,1.24,1.43,-9.0,-9.0,-4.0,-4.7,82.9,70.9,80.5,75.5,90.1,73.9,85.5,79.3,87.1,71.7,84.3,77.5,85.0,70.5,83.9,76.6,-0.70,0.72,0.09,0.07,0.00,106.47,107.40,102.56,103.14,19.8,15.9,1.9750443033005614,134.31793813686295,40.69149333882938,-61.217290886386024,-3.6010164247882415
2.550,116.7,44.053611331594446,-78.681668273918660,26.2,74.3,-102.1,-88.0,1698.5,1699,134.9,0,1,1,0,1,1,0,0,0,100,1,1.186,26.0,0.0,2.373,68.644,66.0,100.0,26.0,26.0,26.0,26.0,0.43,-1.42,-0.20,388.1,-3.31,-2.59,-2.26,-1.23,-707.47,577.47,6.0,0.00,0.00,0.00,0.00,0.07,-7.49,-7.49,-0.71,2.56,-0.92,1.75,37.42,0.71,-0.80,-7.38,100.0,0,0,97.29,0,0,0.0,0,0,0,0,5189,0,30.00,4,134.9,1,0,0.0,0.0,0.0,0.0,0,0,2.594,2.594,68.644,19.926,1,110.00,435.8,8750,0.0,0.0,110.0,110.0,433.0,0.00,0,0,1,333.3,61.6,61.6,88.6,88.6,34.0,-0.93,14.47,0.4,6.6,1,-73.810,-12.9,100.0,27.3,32.3,17.2,22.1,0,1,0.0,0.00,0.00,0.00,0.00,2536,5902,1152,1988,318.3,308.4,352.8,350.1,25.11,23.18,25.72,24.92,325.0,325.0,355.0,355.0,99.71,99.61,99.69,99.66,1.53,1.56,1.21,1.40,-11.0,-7.6,-8.5,-6.3,82.9,70.9,80.5,75.5,90.2,74.1,85.4,79.3,87.2,71.9,84.2,77.5,85.0,70.7,83.9,76.5,-0.75,0.74,0.11,0.10,0.00,104.58,106.10,95.71,98.87,19.8,15.9,1.4970971912337554,127.47600564946197,39.611188240685806,-97.22746167804075,-7.202034556647519
2.600,118.5,44.053596043127143,-78.681663417581987,-114.3,-84.0,21.0,95.8,1700.4,1700,132.2,1,1,1,0,1,1,0,0,0,100,1,1.186,26.0,0.0,2.415,68.644,66.0,100.0,26.0,26.0,26.0,26.0,0.49,-1.55,-0.16,387.3,-2.77,-2.22,-1.20,-0.78,-706.93,575.77,6.0,0.00,0.00,0.00,0.00,0.07,-7.49,-7.49,-0.69,-2.16,-0.90,-0.95,36.67,0.66,-0.70,-4.71,100.0,0,0,97.59,0,0,0.0,0,0,0,0,5205,0,30.00,4,132.2,0,0,0.0,0.0,0.0,0.0,0,0,2.643,2.643,68.644,19.926,0,110.00,435.8,8750,0.0,0.0,110.0,110.0,433.0,0.00,0,0,1,333.3,67.2,67.2,84.4,84.4,34.0,-1.10,-2.17,4.2,32.8,1,-73.860,-13.2,100.0,21.6,28.1,18.2,26.9,0,1,0.0,0.00,0.00,0.00,0.00,3028,5362,2534,3664,317.6,310.5,348.8,345.7,25.11,23.18,25.72,24.92,325.0,325.0,355.0,355.0,99.71,99.62,99.69,99.66,1.57,1.65,1.09,1.34,-13.2,-9.8,-7.0,-3.9,82.9,70.9,80.5,75.5,90.3,74.2,85.4,79.3,87.2,72.0,84.2,77.5,85.1,70.8,83.9,76.5,-0.77,0.74,0.11,0.08,0.00,100.37,101.02,95.88,99.29,19.8,15.9,1.633462579920336,124.59519196905887,39.97128988316463,-21.60610253189546,10.803050412412034
2.650,120.3,44.053580215066880,-78.681658291448841,47.7,-58.4,-93.2,-35.8,1702.2,1702,129.5,0,1,1,0,1,1,0,0,0,100,1,1.186,26.0,0.0,2.457,68.644,66.0,100.0,26.0,26.0,26.0,26.0,0.45,-1.52,-0.20,389.4,-1.71,-2.91,-2.12,-0.16,-706.36,574.01,6.0,0.00,0.00,0.00,0.00,0.07,-7.49,-7.49,-0.89,-3.26,-0.87,2.35,35.92,0.57,-0.75,-5.07,100.0,0,0,92.60,0,0,0.0,0,0,0,0,4940,0,30.00,4,129.5,1,0,0.0,0.0,0.0,0.0,0,0,2.694,2.694,68.644,19.926,1,110.00,435.8,8750,0.0,0.0,110.0,110.0,433.0,0.00,0,0,1,333.3,64.9,64.9,100.3,100.3,34.0,8.05,0.54,-0.2,20.1,1,-73.910,-13.9,100.0,23.9,25.1,13.6,25.1,0,1,0.0,0.00,0.00,0.00,0.00,5581,4285,1024,2849,310.7,313.3,352.4,348.1,25.11,23.18,25.72,24.92,325.0,325.0,355.0,355.0,99.71,99.62,99.69,99.66,1.41,1.55,0.96,1.16,-7.8,-9.1,-12.1,-3.8,82.9,70.9,80.5,75.5,90.3,74.3,85.4,79.3,87.3,72.1,84.2,77.5,85.1,70.9,83.8,76.5,-0.79,0.80,0.12,0.09,0.00,101.21,98.94,87.93,97.28,19.8,15.9,1.597779709471866,125.31539539627242,40.69149328192701,-57.616273892573986,-7.202033987623935
2.700,122.0,44.053564746735255,-78.681653255247852,63.1,52.9,-41.7,-47.6,1703.9,1704,126.6,0,1,1,0,1,1,0,0,0,100,1,1.186,26.0,0.0,2.502,68.644,66.0,100.0,26.0,26.0,26.0,26.0,0.40,-1.77,0.02,387.4,-3.04,-2.29,-1.76,-1.00,-705.80,572.29,6.0,0.00,0.00,0.00,0.00,0.07,-7.49,-7.49,-0.95,0.41,-0.63,5.67,35.09,0.54,-0.74,-6.60,100.0,0,0,90.42,0,0,0.0,0,0,0,0,4823,0,30.00,4,126.6,0,0,0.0,0.0,0.0,0.0,1,0,2.744,2.744,68.644,19.926,0,110.00,435.8,8750,0.0,0.0,110.0,110.0,433.0,0.00,0,0,1,333.3,59.4,59.4,97.0,97.0,34.0,4.75,-0.62,-0.3,14.4,1,-73.960,-16.7,100.0,27.1,27.8,11.5,22.8,0,1,0.0,0.00,0.00,0.00,0.00,5068,6691,1663,2222,311.6,307.0,350.9,349.0,25.11,23.18,25.72,24.92,325.0,325.0,355.0,355.0,99.71,99.62,99.69,99.66,1.49,1.58,0.92,1.16,-8.2,-9.5,-12.0,-4.4,83.0,70.9,80.5,75.5,90.4,74.4,85.4,79.3,87.4,72.2,84.2,77.4,85.2,71.0,83.8,76.5,-0.94,0.93,0.12,0.08,0.00,102.95,97.90,86.48,94.36,19.8,15.9,1.8147451611727747,118.83356457980148,39.25108648440224,-93.62644496874054,-14.404067975247727
2.750,123.8,44.053550537453887,-78.681648488843337,-135.4,65.1,80.7,-12.8,1705.6,1706,123.8,1,1,1,0,1,1,0,0,0,100,1,1.186,26.0,0.0,2.547,68.644,66.0,100.0,26.0,26.0,26.0,26.0,0.49,-1.56,-0.09,389.0,-3.04,-2.70,-0.59,-1.50,-705.27,570.71,6.0,0.00,0.00,0.00,0.00,0.07,-7.49,-7.49,-0.89,0.47,-0.52,-2.33,34.33,0.49,-0.66,-5.33,100.0,0,0,90.69,0,0,0.0,0,0,0,0,4837,0,30.00,4,123.8,1,0,0.0,0.0,0.0,0.0,1,0,2.793,2.793,68.644,19.926,1,110.00,435.8,8750,0.0,0.0,110.0,110.0,433.0,0.00,0,0,1,333.3,65.7,65.7,83.8,83.8,34.0,-1.04,5.00,1.6,17.9,1,-74.010,-19.2,100.0,20.3,31.0,15.5,22.1,0,1,0.0,0.00,0.00,0.00,0.00,2668,6109,2196,2269,318.2,308.4,349.6,348.6,25.11,23.18,25.72,24.92,325.0,325.0,355.0,355.0,99.71,99.62,99.69,99.66,1.69,1.74,0.91,1.14,-12.9,-8.6,-8.1,-3.9,83.0,70.9,80.5,75.5,90.5,74.6,85.4,79.2,87.4,72.3,84.2,77.4,85.2,71.1,83.8,76.5,-1.11,1.08,0.11,0.09,0.00,89.56,96.30,88.84,92.54,19.8,15.9,1.6376202245942129,115.95275089939837,39.25108648440224,-21.606102531895175,10.803051550459415
