Time,Distance,GPS Latitude,GPS Longitude,Damper Velocity (Calc) FL,Damper Velocity (Calc) FR,Damper Velocity (Calc) RL,Damper Velocity (Calc) RR,Corr Dist,Corr Dist (Unstretched),Corr Speed,ABS Active,ABS Enabled,AID Allow Tire Blankets,AID Auto Blip,AID Auto Clutch,AID Auto Shift,AID Fuel Rate,AID Ideal Line,AID Mech Damage,AID Stability,AID Tire Wear Rate,Air Density,Air Temp,Ballast,Best Lap Delta,Best Lap Time,Brake Bias,Brake Pos,Brake Temp FL,Brake Temp FR,Brake Temp RL,Brake Temp RR,CG Accel Lateral,CG Accel Longitudinal,CG Accel Vertical,CG Height,Camber FL,Camber FR,Camber RL,Camber RR,Car Coord X,Car Coord Y,Car Coord Z,Car Damage Front,Car Damage Left,Car Damage Rear,Car Damage Right,Car Pos Norm,Caster FL,Caster FR,Chassis Pitch Angle,Chassis Pitch Rate,Chassis Roll Angle,Chassis Roll Rate,Chassis Velocity X,Chassis Velocity Y,Chassis Velocity Z,Chassis Yaw Rate,Clutch Pos,DRS Active,DRS Available,Drive Train Speed,ERS Heat Charging,ERS Is Charging,ERS Max Energy,ERS Power Level,ERS Recovery Level,Engine Brake Setting,Engine Limiter,Engine RPM,Flags,Fuel Level,Gear,Ground Speed,HR Sample Clock,In Pit,KERS Charge,KERS Deployed Energy,KERS Input,KERS Max Energy,LR Sample Clock,Lap Invalidated,Lap Time,Lap Time2,Last Lap Time,Last Sector Time,MR Sample Clock,Max Fuel,Max Power,Max RPM,Max Sus Travel FL,Max Sus Travel FR,Max Sus Travel RL,Max Sus Travel RR,Max Torque,Max Turbo Boost,Num Tires Off Track,Penalties Enabled,Position,Raw Data Sample Rate,Ride Height FL,Ride Height FR,Ride Height RL,Ride Height RR,Road Temp,Self Align Torque FL,Self Align Torque FR,Self Align Torque RL,Self Align Torque RR,Session Lap Count,Session Time Left,Steering Angle,Surface Grip,Suspension Travel FL,Suspension Travel FR,Suspension Travel RL,Suspension Travel RR,TC Active,TC Enabled,Throttle Pos,Tire Dirt Level FL,Tire Dirt Level FR,Tire Dirt Level RL,Tire Dirt Level RR,Tire Load FL,Tire Load FR,Tire Load RL,Tire Load RR,Tire Loaded Radius FL,Tire Loaded Radius FR,Tire Loaded Radius RL,Tire Loaded Radius RR,Tire Pressure FL,Tire Pressure FR,Tire Pressure RL,Tire Pressure RR,Tire Radius FL,Tire Radius FR,Tire Radius RL,Tire Radius RR,Tire Rubber Grip FL,Tire Rubber Grip FR,Tire Rubber Grip RL,Tire Rubber Grip RR,Tire Slip Angle FL,Tire Slip Angle FR,Tire Slip Angle RL,Tire Slip Angle RR,Tire Slip Ratio FL,Tire Slip Ratio FR,Tire Slip Ratio RL,Tire Slip Ratio RR,Tire Temp Core FL,Tire Temp Core FR,Tire Temp Core RL,Tire Temp Core RR,Tire Temp Inner FL,Tire Temp Inner FR,Tire Temp Inner RL,Tire Temp Inner RR,Tire Temp Middle FL,Tire Temp Middle FR,Tire Temp Middle RL,Tire Temp Middle RR,Tire Temp Outer FL,Tire Temp Outer FR,Tire Temp Outer RL,Tire Temp Outer RR,Toe In FL,Toe In FR,Toe In RL,Toe In RR,Turbo Boost,Wheel Angular Speed FL,Wheel Angular Speed FR,Wheel Angular Speed RL,Wheel Angular Speed RR,Wind Direction,Wind Speed,CG Distance,Lateral Velocity,Longitudinal Velocity,Lateral Acceleration,Longitudinal Acceleration
s,m,deg,deg,mm/s,mm/s,mm/s,mm/s,m,m,km/h,,,,,,,,,%,%,,kg/m3,C,kg,s,s,%,%,C,C,C,C,G,G,G,mm,deg,deg,deg,deg,m,m,m,,,,,,deg,deg,deg,deg/s,deg,deg/s,m/s,m/s,m/s,deg/s,%,,,rad/s,,,MJ,,,,,rpm,,l,,km/h,,,%,kJ,%,MJ,,,s,s,s,s,,l,hp,rpm,mm,mm,mm,mm,N.m,,,,,Hz,mm,mm,mm,mm,C,N.m,N.m,N.m,N.m,,s,deg,%,mm,mm,mm,mm,,,%,,,,,N,N,N,N,mm,mm,mm,mm,psi,psi,psi,psi,mm,mm,mm,mm,%,%,%,%,deg,deg,deg,deg,%,%,%,%,C,C,C,C,C,C,C,C,C,C,C,C,C,C,C,C,deg,deg,deg,deg,,rad/s,rad/s,rad/s,rad/s,deg,km/h,G,Km/h,Km/h,Km/h^2,Km/h^2
0.000,0.0,44.054635389107105,-78.681938160332606,-66.6,-68.8,108.2,58.4,8537.7,8538,107.3,0,1,1,0,1,1,0,0,0,100,1,1.186,26.0,0.0,0.000,57.136,66.0,0.0,26.0,26.0,26.0,26.0,0.31,0.69,0.13,383.4,-2.44,-2.71,-1.84,-1.19,-737.48,691.34,5.7,0.00,0.00,0.00,0.00,0.00,-7.49,-7.49,-0.22,-0.54,0.28,2.55,29.81,0.13,-0.17,-6.09,100.0,0,0,86.11,0,0,0.0,0,0,0,0,7400,0,30.00,2,107.3,0,0,0.0,0.0,0.0,0.0,1,0,0.020,0.020,57.308,23.012,0,110.00,435.8,8750,0.0,0.0,110.0,110.0,433.0,0.00,0,0,1,333.3,81.6,81.6,67.8,67.8,34.0,8.28,19.24,6.6,51.3,5,-354.560,-11.5,100.0,14.6,16.4,33.9,39.1,0,1,100.0,0.00,0.00,0.00,0.00,2559,2099,5231,5982,318.6,319.0,341.8,339.2,25.43,22.07,26.07,24.17,325.0,325.0,355.0,355.0,99.94,100.00,99.94,100.00,0.58,0.60,0.42,0.60,-0.1,-0.1,3.3,2.5,84.9,63.9,82.7,70.8,98.9,68.4,93.6,77.9,94.8,65.7,91.9,75.3,92.0,64.8,91.3,74.2,-0.66,0.66,0.07,0.04,0.00,91.21,91.70,86.10,86.11,152.3,2.9,0.7675285010994706
0.050,1.5,44.054622888536784,-78.681934832842657,14.8,70.0,-23.0,1.5,8539.3,8539,108.3,0,1,1,0,1,1,0,0,0,100,1,1.186,26.0,0.0,0.015,57.136,66.0,0.0,26.0,26.0,26.0,26.0,0.32,0.56,-0.06,384.3,-2.39,-2.51,-1.92,-1.04,-737.11,689.95,5.7,0.00,0.00,0.00,0.00,0.00,-7.49,-7.49,-0.29,-1.11,0.49,1.73,30.09,0.12,-0.27,-6.72,100.0,0,0,87.88,0,0,0.0,0,0,0,0,7553,0,30.00,2,108.3,1,0,0.0,0.0,0.0,0.0,1,0,0.070,0.070,57.308,23.012,1,110.00,435.8,8750,0.0,0.0,110.0,110.0,433.0,0.00,0,0,1,333.3,78.1,78.1,67.8,67.8,34.0,2.67,45.60,2.7,28.3,5,-354.610,-11.2,100.0,15.4,19.9,32.8,39.1,0,1,100.0,0.00,0.00,0.00,0.00,1161,4327,2969,4644,322.3,312.5,347.3,342.7,25.43,22.07,26.07,24.17,325.0,325.0,355.0,355.0,99.94,100.00,99.94,100.00,0.54,0.57,0.43,0.52,-0.1,-0.1,3.9,3.3,84.9,63.9,82.7,70.8,98.9,68.3,93.6,77.9,94.8,65.7,91.9,75.3,91.9,64.8,91.3,74.2,-0.65,0.64,0.07,0.05,0.00,91.87,92.62,87.88,87.88,152.3,2.9,0.647765389628066,106.59010643097548,29.168238617216968
0.100,3.0,44.054608769187567,-78.681930875827589,-11.6,-25.1,-66.8,-95.0,8540.8,8541,109.4,0,1,1,0,1,1,0,0,0,100,1,1.186,26.0,0.0,0.036,57.136,66.0,0.0,26.0,26.0,26.0,26.0,0.31,0.66,-0.09,385.8,-3.03,-2.68,-2.91,-1.53,-736.67,688.38,5.7,0.00,0.00,0.00,0.00,0.00,-7.49,-7.49,-0.32,0.11,0.44,1.04,30.42,0.16,-0.23,-6.79,100.0,0,0,88.83,0,0,0.0,0,0,0,0,7635,0,30.00,2,109.4,0,0,0.0,0.0,0.0,0.0,0,0,0.122,0.122,57.308,23.012,0,110.00,435.8,8750,0.0,0.0,110.0,110.0,433.0,0.00,0,0,1,166.7,79.2,79.2,70.9,70.9,34.0,3.73,29.86,1.5,35.4,5,-354.660,-9.0,100.0,14.8,18.6,29.4,34.4,0,1,100.0,0.00,0.00,0.00,0.00,2352,3220,4871,4887,319.1,316.2,343.3,342.8,25.43,22.07,26.08,24.17,325.0,325.0,355.0,355.0,99.94,100.00,99.94,100.00,0.50,0.52,0.49,0.67,-0.1,-0.1,4.4,3.7,85.0,64.0,82.7,70.8,98.8,68.3,93.6,77.9,94.7,65.7,91.9,75.3,91.8,64.8,91.3,74.2,-0.54,0.53,0.08,0.06,0.00,93.00,93.63,88.83,88.84,152.3,2.9,0.7347108274688757,107.31030985818907,29.88844201597935,-43.21220534830232,-3.6010175628355867
0.150,4.6,44.054596088752923,-78.681927368473325,-25.8,-8.4,3.2,65.4,8542.3,8542,110.5,0,1,1,0,1,1,0,0,0,100,1,1.186,26.0,0.0,0.036,57.136,66.0,0.0,26.0,26.0,26.0,26.0,0.29,0.57,-0.24,387.2,-2.73,-1.84,-1.54,-1.55,-736.28,686.97,5.7,0.00,0.00,0.00,0.00,0.00,-7.49,-7.49,-0.37,-1.97,0.46,-3.15,30.72,0.16,-0.26,-5.84,100.0,0,0,89.65,0,0,0.0,0,0,0,0,7705,0,30.00,2,110.5,1,0,0.0,0.0,0.0,0.0,0,0,0.170,0.170,57.308,23.012,1,110.00,435.8,8750,0.0,0.0,110.0,110.0,433.0,0.00,0,0,1,333.3,82.0,82.0,71.8,71.8,34.0,0.83,27.49,6.3,35.6,5,-354.710,-6.9,100.0,13.5,18.2,29.6,37.7,0,1,100.0,0.00,0.00,0.00,0.00,594,3392,3299,4649,323.3,315.7,347.0,342.3,25.44,22.07,26.08,24.17,325.0,325.0,355.0,355.0,99.94,100.00,99.94,100.00,0.50,0.48,0.52,0.63,-0.1,-0.1,3.9,3.3,85.0,64.0,82.7,70.8,98.7,68.3,93.6,77.9,94.6,65.7,91.9,75.3,91.8,64.8,91.3,74.2,-0.42,0.40,0.07,0.06,0.00,93.78,94.42,89.65,89.66,152.3,2.9,0.6830812543175225,102.26888589614525,28.80813686093341,-7.202034556647732,10.803050981435831
0.200,6.1,44.054583228453957,-78.681923681254744,-37.2,1.7,18.6,-94.0,8543.9,8544,111.6,0,1,1,0,1,1,0,0,0,100,1,1.186,26.0,0.0,0.054,57.136,66.0,0.0,26.0,26.0,26.0,26.0,0.29,0.61,0.01,386.0,-2.25,-2.55,-2.00,-1.85,-735.87,685.54,5.7,0.00,0.00,0.00,0.00,0.00,-7.49,-7.49,-0.49,-2.60,0.23,-4.42,31.02,0.15,-0.27,-4.54,100.0,0,0,90.33,0,0,0.0,0,0,0,0,7764,0,30.00,2,111.6,0,0,0.0,0.0,0.0,0.0,0,0,0.220,0.220,57.308,23.012,0,110.00,435.8,8750,0.0,0.0,110.0,110.0,433.0,0.00,0,0,1,166.7,78.7,78.7,68.8,68.8,34.0,1.74,36.35,5.3,31.4,5,-354.760,-3.7,100.0,11.6,18.3,30.5,33.0,0,1,100.0,0.00,0.00,0.00,0.00,3123,4101,4508,4213,317.1,313.5,343.8,344.1,25.44,22.07,26.08,24.18,325.0,325.0,355.0,355.0,99.94,100.00,99.94,100.00,0.30,0.43,0.47,0.63,-0.1,-0.1,4.0,3.5,85.0,64.0,82.8,70.8,98.7,68.3,93.5,77.9,94.6,65.6,91.8,75.3,91.7,64.8,91.2,74.2,-0.23,0.24,0.07,0.07,0.00,94.91,95.24,90.33,90.33,152.3,2.9,0.6754998149518622,106.5901064025243,30.968747114122934,82.82339341828106,36.01017107616677
0.250,7.7,44.054569468833392,-78.681919634307519,54.5,-43.0,-29.6,-32.0,8545.4,8545,112.7,0,1,1,0,1,1,0,0,0,100,1,1.186,26.0,0.0,0.069,57.136,66.0,0.0,26.0,26.0,26.0,26.0,0.18,0.54,-0.28,389.7,-2.35,-2.83,-1.70,-1.49,-735.42,684.01,5.7,0.00,0.00,0.00,0.00,0.01,-7.49,-7.49,-0.59,-2.13,0.21,0.50,31.31,0.15,-0.27,-3.22,100.0,0,0,91.81,0,0,0.0,0,0,0,0,7890,0,30.00,2,112.7,1,0,0.0,0.0,0.0,0.0,0,0,0.270,0.270,57.308,23.012,1,110.00,435.8,8750,0.0,0.0,110.0,110.0,433.0,0.00,0,0,1,333.3,82.4,82.4,77.4,77.4,34.0,-0.79,18.58,1.2,24.2,5,-354.810,-0.8,100.0,14.4,16.1,29.0,31.4,0,1,100.0,0.00,0.00,0.00,0.00,1279,2881,2355,4496,321.7,317.0,349.0,343.2,25.44,22.07,26.08,24.18,325.0,325.0,355.0,355.0,99.94,100.00,99.94,100.00,0.21,0.23,0.35,0.48,-0.1,-0.1,4.3,4.0,85.0,64.0,82.8,70.9,98.6,68.2,93.5,77.9,94.5,65.6,91.8,75.3,91.7,64.7,91.2,74.2,-0.07,0.06,0.08,0.05,0.00,95.79,96.11,91.81,91.81,152.3,2.9,0.6343500610861482,110.55122523797336,32.409153968550086,46.81322262662647,18.00508553808342
0.300,9.3,44.054555619280656,-78.681915587360294,26.5,20.4,9.7,41.9,8547.0,8547,113.9,0,1,1,0,1,1,0,0,0,100,1,1.186,26.0,0.0,0.087,57.136,66.0,0.0,26.0,26.0,26.0,26.0,0.17,0.67,0.16,384.8,-3.01,-2.71,-2.67,-1.63,-734.97,682.47,5.7,0.00,0.00,0.00,0.00,0.01,-7.49,-7.49,-0.64,-0.64,0.05,-3.57,31.65,0.14,-0.28,-1.83,100.0,0,0,91.67,0,0,0.0,0,0,0,0,7878,0,30.00,2,113.9,0,0,0.0,0.0,0.0,0.0,0,0,0.320,0.320,57.308,23.012,0,110.00,435.8,8750,0.0,0.0,110.0,110.0,433.0,0.00,0,0,1,333.3,77.5,77.5,73.0,73.0,34.0,-16.62,18.25,-6.9,27.8,5,-354.860,1.9,100.0,15.7,17.1,29.5,33.5,0,1,100.0,0.00,0.00,0.00,0.00,4144,3155,5284,4193,315.3,315.9,342.2,343.3,25.44,22.07,26.09,24.18,325.0,325.0,355.0,355.0,99.94,100.00,99.94,100.00,0.05,0.15,0.27,0.48,-0.1,-0.1,3.5,3.2,85.0,64.0,82.8,70.9,98.5,68.2,93.5,77.9,94.4,65.6,91.8,75.3,91.6,64.7,91.2,74.2,0.09,-0.09,0.08,0.06,0.00,97.00,97.18,91.67,91.67,152.3,2.9,0.7095068710026705,111.27142866518695,32.769255667931276,-14.404068544271382,0.0
0.350,10.9,44.054541679795769,-78.681911450480911,97.4,-24.4,-9.1,-45.9,8548.6,8549,114.9,0,1,1,0,1,1,0,0,0,100,1,1.186,26.0,0.0,0.102,57.136,66.0,0.0,26.0,26.0,26.0,26.0,-0.00,0.68,-0.02,384.8,-2.87,-2.04,-2.21,-1.90,-734.51,680.92,5.7,0.00,0.00,0.00,0.00,0.01,-7.49,-7.49,-0.59,2.45,0.23,6.66,31.93,0.13,-0.25,0.41,100.0,0,0,93.24,0,0,0.0,0,0,0,0,8013,0,30.00,2,114.9,1,0,0.0,0.0,0.0,0.0,0,0,0.372,0.372,57.308,23.012,1,110.00,435.8,8750,0.0,0.0,110.0,110.0,433.0,0.00,0,0,1,166.7,75.6,75.6,79.4,79.4,34.0,-20.87,9.38,-8.7,23.4,5,-354.910,3.7,100.0,20.6,15.9,29.0,31.2,0,1,100.0,0.00,0.00,0.00,0.00,3846,3296,3922,5359,315.4,316.2,345.4,341.1,25.45,22.07,26.09,24.18,325.0,325.0,355.0,355.0,99.94,100.00,99.94,100.00,-0.08,-0.01,0.05,0.24,-0.1,-0.1,3.9,4.0,85.0,64.0,82.8,70.9,98.5,68.2,93.5,77.9,94.4,65.5,91.8,75.3,91.5,64.7,91.2,74.2,0.21,-0.22,0.08,0.07,0.00,98.05,98.05,93.24,93.23,152.3,2.9,0.680294054067798,109.11081838354622,32.409153968550086,-10.803051265947943,5.690236548616667e-07
0.400,12.5,44.054528369836000,-78.681907493465843,-25.9,64.8,42.7,114.4,8550.2,8550,116.0,0,1,1,0,1,1,0,0,0,100,1,1.186,26.0,0.0,0.117,57.136,66.0,0.0,26.0,26.0,26.0,26.0,0.02,0.70,0.14,381.5,-2.84,-2.47,-1.39,-0.79,-734.07,679.44,5.7,0.00,0.00,0.00,0.00,0.01,-7.49,-7.49,-0.42,3.40,0.40,-0.20,32.24,0.10,-0.23,1.04,100.0,0,0,93.19,0,0,0.0,0,0,0,0,8009,0,30.00,2,116.0,0,0,0.0,0.0,0.0,0.0,0,0,0.420,0.420,57.308,23.012,0,110.00,435.8,8750,0.0,0.0,110.0,110.0,433.0,0.00,0,0,1,333.3,75.4,75.4,68.8,68.8,34.0,-12.35,12.81,-10.6,19.2,5,-354.960,5.2,100.0,19.3,19.2,31.2,36.9,0,1,100.0,0.00,0.00,0.00,0.00,2576,3898,5245,5831,318.6,314.0,341.9,339.6,25.45,22.08,26.09,24.18,325.0,325.0,355.0,355.0,99.94,100.00,99.94,100.00,-0.07,-0.04,0.02,0.19,-0.1,-0.1,2.8,2.9,85.1,64.0,82.8,70.9,98.4,68.2,93.4,77.9,94.3,65.5,91.7,75.3,91.5,64.6,91.1,74.2,0.28,-0.30,0.07,0.05,0.00,99.02,99.08,93.19,93.19,152.3,2.9,0.714142842854285,110.19112353859215,32.76925572483364,54.01525689876209,14.404068544271311
0.450,14.1,44.054514160554625,-78.681903266654288,-60.1,38.9,134.7,-34.3,8551.8,8552,117.1,0,1,1,0,1,1,0,0,0,100,1,1.186,26.0,0.0,0.132,57.136,66.0,0.0,26.0,26.0,26.0,26.0,-0.03,0.66,0.27,380.2,-2.17,-2.15,-1.97,-1.48,-733.60,677.86,5.7,0.00,0.00,0.00,0.00,0.01,-7.49,-7.49,-0.30,1.73,0.26,-4.88,32.55,0.06,-0.21,2.03,100.0,0,0,93.94,0,0,0.0,0,0,0,0,8074,0,30.00,2,117.1,1,0,0.0,0.0,0.0,0.0,0,0,0.470,0.470,57.308,23.012,1,110.00,435.8,8750,0.0,0.0,110.0,110.0,433.0,0.00,0,0,1,333.3,75.5,75.5,56.5,56.5,34.0,-9.61,11.62,-21.6,20.1,5,-355.010,6.4,100.0,16.3,21.1,37.9,35.2,0,1,100.0,0.00,0.00,0.00,0.00,2139,4758,5994,5184,319.5,311.7,340.3,341.1,25.45,22.08,26.10,24.18,325.0,325.0,355.0,355.0,99.94,100.00,99.94,100.00,-0.14,-0.07,-0.02,0.14,-0.1,-0.1,2.7,2.9,85.1,64.0,82.8,70.9,98.3,68.1,93.4,77.9,94.2,65.5,91.7,75.3,91.4,64.6,91.1,74.2,0.36,-0.37,0.07,0.06,0.00,100.00,99.90,93.94,93.95,152.3,2.9,0.7137226352022192,114.51234407342243,33.84956082297722,21.60610253189546,3.6010164247882415
0.500,15.7,44.054499771408928,-78.681899039842747,43.1,-104.7,22.8,9.6,8553.5,8553,118.2,0,1,1,0,1,1,0,0,0,100,1,1.186,26.0,0.0,0.144,57.136,66.0,0.0,26.0,26.0,26.0,26.0,-0.11,0.58,-0.02,382.5,-3.19,-2.11,-1.47,-2.09,-733.13,676.26,5.7,0.00,0.00,0.00,0.00,0.01,-7.49,-7.49,-0.24,0.18,0.05,-1.50,32.84,0.01,-0.23,3.76,100.0,0,0,95.07,0,0,0.0,0,0,0,0,8171,0,30.00,2,118.2,0,0,0.0,0.0,0.0,0.0,0,0,0.522,0.522,57.308,23.012,0,110.00,435.8,8750,0.0,0.0,110.0,110.0,433.0,0.00,0,0,1,166.7,78.3,78.3,67.6,67.6,34.0,-27.67,1.09,-18.6,13.9,5,-355.060,6.7,100.0,18.4,15.9,39.1,35.7,0,1,100.0,0.00,0.00,0.00,0.00,3712,2377,4699,4893,315.9,318.3,343.2,342.1,25.45,22.08,26.10,24.19,325.0,325.0,355.0,355.0,99.94,100.00,99.94,100.00,-0.22,-0.21,-0.16,-0.03,-0.1,-0.1,2.7,3.1,85.1,64.0,82.9,70.9,98.2,68.1,93.4,77.9,94.2,65.5,91.7,75.3,91.3,64.6,91.1,74.2,0.40,-0.40,0.07,0.05,0.00,100.96,100.52,95.07,95.07,152.3,2.9,0.5906775770248943,112.3517337917817,33.129357367312465,-10.803051550459912,-3.6010169938118963
0.550,17.4,44.054486101720521,-78.681894992895522,-80.2,-81.8,-57.8,41.2,8555.1,8555,119.2,0,1,1,0,1,1,0,0,0,100,1,1.186,26.0,0.0,0.159,57.136,66.0,0.0,26.0,26.0,26.0,26.0,-0.17,0.62,-0.05,385.7,-2.09,-2.29,-2.49,-2.29,-732.68,674.74,5.7,0.00,0.00,0.00,0.00,0.01,-7.49,-7.49,-0.32,-4.61,-0.04,-3.72,33.13,-0.04,-0.22,3.54,100.0,0,0,95.54,0,0,0.0,0,0,0,0,8211,0,30.00,2,119.2,1,0,0.0,0.0,0.0,0.0,0,0,0.570,0.570,57.308,23.012,1,110.00,435.8,8750,0.0,0.0,110.0,110.0,433.0,0.00,0,0,1,333.3,85.7,85.7,68.5,68.5,34.0,-13.17,-0.02,-42.6,11.8,5,-355.110,6.4,100.0,14.4,11.8,36.2,37.7,0,1,100.0,0.00,0.00,0.00,0.00,2307,1345,5968,4759,319.2,321.5,340.7,342.0,25.46,22.08,26.10,24.19,325.0,325.0,355.0,355.0,99.94,100.00,99.94,100.00,-0.26,-0.27,-0.27,-0.11,-0.1,-0.1,2.7,3.0,85.1,64.0,82.9,70.9,98.2,68.1,93.4,77.9,94.1,65.4,91.7,75.3,91.3,64.6,91.0,74.2,0.38,-0.39,0.07,0.05,0.00,101.63,101.22,95.54,95.54,152.3,2.9,0.6448255578061403,113.43203891837643,33.48945912359603,54.01525661425012,10.803052119483283
0.600,19.1,44.054471442778343,-78.681890676151809,5.6,38.7,10.8,-183.5,8556.8,8557,120.2,0,1,1,0,1,1,0,0,0,100,1,1.186,26.0,0.0,0.171,57.136,66.0,0.0,26.0,26.0,26.0,26.0,-0.19,0.49,-0.13,388.1,-2.52,-2.15,-1.50,-2.14,-732.20,673.11,5.7,0.00,0.00,0.00,0.00,0.01,-7.49,-7.49,-0.63,-5.82,-0.12,1.11,33.39,-0.07,-0.34,4.35,100.0,0,0,97.24,0,0,0.0,0,0,0,0,8357,0,30.00,2,120.2,0,0,0.0,0.0,0.0,0.0,1,0,0.620,0.620,57.308,23.012,0,110.00,435.8,8750,0.0,0.0,110.0,110.0,433.0,0.00,0,0,1,333.3,81.3,81.3,70.4,70.4,34.0,-25.73,0.54,-22.4,1.4,5,-355.160,4.5,100.0,14.7,13.7,36.7,28.5,0,1,100.0,0.00,0.00,0.00,0.00,3517,2489,4329,2405,316.2,318.1,344.1,348.5,25.46,22.08,26.11,24.19,325.0,325.0,355.0,355.0,99.94,100.00,99.94,100.00,-0.29,-0.23,-0.36,-0.24,-0.1,-0.1,3.4,3.8,85.1,64.0,82.9,70.9,98.1,68.0,93.3,77.9,94.0,65.4,91.6,75.3,91.2,64.5,91.0,74.2,0.27,-0.29,0.05,0.07,0.00,102.47,102.02,97.24,97.24,152.3,2.9,0.5413871073455666,117.75325945320671,34.209662579260794,18.00508553808342,-3.6010169938119674
0.650,20.7,44.054456693904008,-78.681886449340254,36.5,34.2,-177.4,-62.0,8558.5,8558,121.1,0,1,1,0,1,1,0,0,0,100,1,1.186,26.0,0.0,0.183,57.136,66.0,0.0,26.0,26.0,26.0,26.0,-0.14,0.61,-0.10,389.3,-2.57,-2.49,-1.33,-2.32,-731.73,671.47,5.7,0.00,0.00,0.00,0.00,0.01,-7.49,-7.49,-0.80,-1.22,-0.02,0.28,33.65,-0.12,-0.32,4.03,100.0,0,0,98.71,0,0,0.0,0,0,0,0,8483,0,30.00,2,121.1,1,0,0.0,0.0,0.0,0.0,1,0,0.672,0.672,57.308,23.012,1,110.00,435.8,8750,0.0,0.0,110.0,110.0,433.0,0.00,0,0,1,166.7,79.0,79.0,79.0,79.0,34.0,-14.54,8.16,-13.8,1.4,5,-355.210,1.0,100.0,16.5,15.4,27.8,25.4,0,1,100.0,0.00,0.00,0.00,0.00,2632,3405,3130,4172,318.4,315.0,347.3,343.7,25.46,22.08,26.11,24.19,325.0,325.0,355.0,355.0,99.94,100.00,99.94,100.00,-0.17,-0.11,-0.48,-0.30,-0.1,-0.1,4.2,4.7,85.1,64.0,82.9,70.9,98.0,68.0,93.3,77.9,94.0,65.4,91.6,75.3,91.1,64.5,91.0,74.2,0.08,-0.09,0.09,0.08,0.00,103.33,103.07,98.71,98.71,152.3,2.9,0.6337980750996329,115.23254747218478,33.12935742421483,-14.404068259759413,-10.803052119483283
0.700,22.4,44.054442664486956,-78.681882402393029,-32.7,17.7,61.1,47.7,8560.2,8560,122.2,0,1,1,0,1,1,0,0,0,100,1,1.186,26.0,0.0,0.198,57.136,66.0,0.0,26.0,26.0,26.0,26.0,-0.16,0.64,0.01,387.2,-2.23,-1.08,-1.31,-2.47,-731.28,669.91,5.7,0.00,0.00,0.00,0.00,0.01,-7.49,-7.49,-0.83,-0.94,-0.23,-6.03,33.95,-0.15,-0.29,2.41,100.0,0,0,98.37,0,0,0.0,0,0,0,0,8454,0,30.00,2,122.2,0,0,0.0,0.0,0.0,0.0,1,0,0.720,0.720,57.308,23.012,0,110.00,435.8,8750,0.0,0.0,110.0,110.0,433.0,0.00,0,0,1,333.3,80.1,80.1,72.0,72.0,34.0,-15.45,3.40,-30.8,5.2,5,-355.260,-1.5,100.0,14.9,16.3,30.9,27.8,0,1,100.0,0.00,0.00,0.00,0.00,3566,2280,5356,3515,316.2,318.2,341.8,345.2,25.46,22.08,26.11,24.19,325.0,325.0,355.0,355.0,99.94,100.00,99.94,100.00,-0.07,-0.00,-0.40,-0.21,-0.0,-0.1,3.2,3.3,85.2,64.0,82.9,71.0,98.0,68.0,93.3,77.9,93.9,65.3,91.6,75.3,91.1,64.5,91.0,74.2,-0.07,0.07,0.08,0.08,0.00,104.29,103.95,98.36,98.36,152.3,2.9,0.6597726881282674,116.31285262723077,33.129357367312465,14.404068544271809,-5.690236548616667e-07
0.750,24.1,44.054427645816133,-78.681878175581488,185.8,65.3,50.6,20.0,8561.9,8562,122.6,0,1,1,0,1,1,0,0,0,100,1,1.186,26.0,0.0,0.210,57.136,66.0,0.0,26.0,26.0,26.0,26.0,-0.19,-0.02,0.20,381.0,-1.81,-2.31,-0.46,-0.58,-730.81,668.24,5.7,0.00,0.00,0.00,0.00,0.02,-7.49,-7.49,-0.83,1.25,-0.24,2.85,34.05,-0.13,-0.33,0.76,100.0,0,0,95.78,0,0,0.0,0,0,0,0,8275,0,30.00,0,122.6,1,0,0.0,0.0,0.0,0.0,1,0,0.770,0.770,57.308,23.012,1,110.00,435.8,8750,0.0,0.0,110.0,110.0,433.0,0.00,0,0,1,333.3,68.7,68.7,75.3,75.3,34.0,-26.45,15.44,-25.1,-8.0,5,-355.310,-3.2,100.0,24.2,19.6,33.4,28.8,0,1,0.0,0.00,0.00,0.00,0.00,5367,4005,4004,4927,311.6,314.0,344.6,342.8,25.47,22.08,26.11,24.19,325.0,325.0,355.0,355.0,99.94,100.00,99.94,100.00,-0.13,0.02,-0.39,-0.20,-0.0,-0.0,0.2,0.2,85.2,64.0,83.0,71.0,97.9,67.9,93.3,77.9,93.8,65.3,91.5,75.2,91.0,64.4,90.9,74.2,-0.17,0.18,0.08,0.08,0.00,104.66,104.55,95.76,95.80,152.3,2.9,0.27658633371878666,116.67295432661196,33.129357367312465,39.61118806997831,10.803051550459557
0.800,25.8,44.054413526466924,-78.681874128634263,99.0,70.2,-43.2,60.2,8563.6,8564,122.5,0,1,1,0,1,1,0,0,0,100,1,1.186,26.0,0.0,0.219,57.136,66.0,0.0,26.0,26.0,26.0,26.0,-0.06,-0.07,0.32,378.2,-2.78,-3.69,-0.84,-1.47,-730.36,666.67,5.7,0.00,0.00,0.00,0.00,0.02,-7.49,-7.49,-0.65,5.35,-0.13,3.85,34.02,-0.07,-0.32,-0.80,100.0,0,0,95.83,0,0,0.0,0,0,0,0,7920,0,30.00,0,122.5,0,0,0.0,0.0,0.0,0.0,1,0,0.820,0.820,57.308,23.012,0,110.00,435.8,8750,0.0,0.0,110.0,110.0,433.0,0.00,0,0,1,166.7,63.6,63.6,75.2,75.2,34.0,-27.72,27.79,-29.4,9.2,5,-355.360,-3.9,100.0,29.1,23.1,31.3,31.8,0,1,0.0,0.00,0.00,0.00,0.00,5523,4224,5240,3928,310.9,313.1,342.2,344.4,25.47,22.08,26.12,24.20,325.0,325.0,355.0,355.0,99.94,100.00,99.94,100.00,-0.02,0.08,-0.25,-0.06,-0.0,-0.0,-0.0,-0.0,85.2,64.0,83.0,71.0,97.8,67.9,93.2,77.8,93.8,65.3,91.5,75.2,91.0,64.4,90.9,74.1,-0.22,0.22,0.08,0.08,0.00,104.72,104.69,95.83,95.83,152.3,2.9,0.3330165161069342,120.2739714342286,34.20966252235842,39.61118806997888,7.202034556647519
0.850,27.5,44.054397608474495,-78.681869632026235,-233.1,-122.8,137.1,143.6,8565.3,8565,123.1,0,1,1,0,1,1,0,0,0,100,1,1.186,26.0,0.0,0.231,57.136,66.0,0.0,26.0,26.0,26.0,26.0,-0.01,0.40,-0.12,382.3,-2.44,-2.62,-0.96,-1.97,-729.86,664.90,5.7,0.00,0.00,0.00,0.00,0.02,-7.49,-7.49,-0.45,0.32,0.19,6.28,34.20,-0.01,-0.27,-1.80,100.0,0,0,94.75,0,0,0.0,0,0,0,0,6352,0,30.00,3,123.1,1,0,0.0,0.0,0.0,0.0,1,0,0.872,0.872,57.308,23.012,1,110.00,435.8,8750,0.0,0.0,110.0,110.0,433.0,0.00,0,0,1,166.7,81.8,81.8,64.0,64.0,34.0,-3.28,6.96,-20.3,28.2,5,-355.410,-3.9,100.0,17.5,17.0,38.1,39.0,0,1,0.0,0.00,0.00,0.00,0.00,1557,1876,5364,5779,320.9,319.6,341.6,340.1,25.47,22.08,26.12,24.20,325.0,325.0,355.0,355.0,99.94,100.00,99.94,100.00,0.09,0.03,-0.10,0.02,-0.1,-0.1,0.5,0.6,85.2,64.0,83.0,71.0,97.8,67.9,93.2,77.8,93.7,65.2,91.5,75.2,90.9,64.4,90.9,74.1,-0.23,0.22,0.06,0.05,0.00,104.80,105.00,94.75,94.75,152.3,2.9,0.41773197148410846,120.63407313360985,33.84956082297722,-64.81830816470946,-21.606102531895317
0.900,29.3,44.054383399193128,-78.681865675011167,-143.1,-47.4,1.1,23.0,8567.0,8567,122.9,0,1,1,0,1,1,0,0,0,100,1,1.186,26.0,0.0,0.243,57.136,66.0,0.0,26.0,26.0,26.0,26.0,0.10,-0.10,-0.07,385.2,-2.89,-1.59,-0.92,-1.57,-729.42,663.32,5.7,0.00,0.00,0.00,0.00,0.02,-7.49,-7.49,-0.78,-10.93,0.30,-0.96,34.12,0.03,-0.40,-1.94,100.0,0,0,95.19,0,0,0.0,0,0,0,0,6381,0,30.00,3,122.9,0,0,0.0,0.0,0.0,0.0,1,0,0.920,0.920,57.308,23.012,0,110.00,435.8,8750,0.0,0.0,110.0,110.0,433.0,0.00,0,0,1,333.3,81.8,81.8,67.0,67.0,34.0,-8.43,22.81,-2.9,19.3,5,-355.460,-3.8,100.0,10.3,14.6,38.2,40.2,0,1,0.0,0.00,0.00,0.00,0.00,2727,4416,2579,3481,318.2,313.4,347.9,345.4,25.48,22.08,26.12,24.20,325.0,325.0,355.0,355.0,99.94,100.00,99.94,100.00,0.09,0.22,0.06,0.17,-0.1,-0.0,-0.2,-0.4,85.2,64.0,83.0,71.0,97.7,67.8,93.1,77.8,93.6,65.2,91.4,75.2,90.8,64.3,90.8,74.1,-0.21,0.21,0.06,0.06,0.00,104.38,104.45,95.19,95.19,152.3,2.9,0.157797338380595,113.79214061775765,32.04905226916889,-39.61118806997888,-3.6010169938118963
0.950,31.0,44.054369189911753,-78.681861628063942,225.0,198.6,-305.6,-330.7,8568.7,8569,122.6,0,1,1,0,1,1,0,0,0,100,1,1.186,26.0,0.0,0.252,57.136,66.0,0.0,26.0,26.0,26.0,26.0,0.12,-0.11,-0.20,389.2,-2.68,-2.27,-1.45,-1.83,-728.97,661.74,5.7,0.00,0.00,0.00,0.00,0.02,-7.49,-7.49,-1.13,-2.43,0.12,-4.51,34.05,0.03,-0.52,-2.29,100.0,0,0,94.98,0,0,0.0,0,0,0,0,6367,0,30.00,3,122.6,1,0,0.0,0.0,0.0,0.0,1,0,0.970,0.970,57.308,23.012,1,110.00,435.8,8750,0.0,0.0,110.0,110.0,433.0,0.00,0,0,1,333.3,67.7,67.7,90.6,90.6,34.0,-12.31,26.62,-0.0,7.3,5,-355.510,-3.9,100.0,21.6,24.5,22.9,23.6,0,1,0.0,0.00,0.00,0.00,0.00,4753,3997,86,1378,313.2,313.4,354.3,351.1,25.48,22.08,26.12,24.20,325.0,325.0,355.0,355.0,99.94,100.00,99.94,100.00,0.13,0.25,0.18,0.26,-0.0,0.0,-0.6,-0.8,85.2,64.0,83.0,71.0,97.6,67.8,93.1,77.8,93.6,65.2,91.3,75.1,90.8,64.3,90.7,74.1,-0.22,0.21,0.10,0.09,0.00,104.47,104.51,94.98,94.98,152.3,2.9,0.25787593916455254,116.67295432661196,33.48945912359603,64.81830816470946,21.606103100919043
1.000,32.7,44.054354261173096,-78.681857311320229,7.6,-58.7,13.3,45.9,8570.4,8570,122.3,0,1,1,0,1,1,0,0,0,100,1,1.186,26.0,0.0,0.264,57.136,66.0,0.0,26.0,26.0,26.0,26.0,0.15,-0.02,0.03,386.6,-2.24,-3.06,-1.75,-1.50,-728.49,660.08,5.7,0.00,0.00,0.00,0.00,0.02,-7.49,-7.49,-1.09,0.63,0.02,-0.63,33.98,0.04,-0.39,-2.25,100.0,0,0,97.68,0,0,0.0,0,0,0,0,6548,0,30.00,3,122.3,0,0,0.0,0.0,0.0,0.0,1,0,1.020,1.020,57.308,23.012,0,110.00,435.8,8750,0.0,0.0,110.0,110.0,433.0,0.00,0,0,1,333.3,73.1,73.1,81.5,81.5,34.0,-1.37,22.95,-12.9,30.3,5,-355.560,-4.4,100.0,21.9,21.6,23.6,25.9,0,1,100.0,0.00,0.00,0.00,0.00,2689,3186,4004,4198,318.0,315.8,345.6,343.6,25.48,22.08,26.13,24.20,325.0,325.0,355.0,355.0,99.94,100.00,99.94,100.00,0.22,0.24,0.02,0.31,-0.0,-0.0,0.9,0.7,85.3,64.0,83.0,71.0,97.6,67.8,93.0,77.7,93.5,65.2,91.3,75.1,90.7,64.3,90.7,74.0,-0.24,0.23,0.10,0.06,0.00,104.19,104.36,97.68,97.68,152.3,2.9,0.15427248620541514,120.2739714342286,34.209662579260794,43.21220534830232,10.803050981435902
1.050,34.4,44.054339152570115,-78.681853084508674,23.8,-19.1,161.9,109.2,8572.1,8572,123.2,0,1,1,0,1,1,0,0,0,100,1,1.186,26.0,0.0,0.273,57.136,66.0,0.0,26.0,26.0,26.0,26.0,0.10,0.47,0.08,382.8,-2.73,-1.97,-1.89,-1.31,-728.02,658.40,5.7,0.00,0.00,0.00,0.00,0.02,-7.49,-7.49,-1.05,1.96,0.19,7.57,34.23,0.07,-0.42,-2.24,100.0,0,0,99.24,0,0,0.0,0,0,0,0,6653,0,30.00,3,123.2,1,0,0.0,0.0,0.0,0.0,1,0,1.070,1.070,57.308,23.012,1,110.00,435.8,8750,0.0,0.0,110.0,110.0,433.0,0.00,0,0,1,166.7,71.6,71.6,75.1,75.1,34.0,-4.36,23.56,-8.4,14.3,5,-355.610,-5.3,100.0,23.1,20.6,31.7,31.4,0,1,100.0,0.00,0.00,0.00,0.00,3214,3634,3451,3973,316.5,313.9,346.1,344.8,25.48,22.08,26.13,24.20,325.0,325.0,355.0,355.0,99.94,100.00,99.94,100.00,0.21,0.27,0.02,0.17,-0.0,-0.1,3.0,2.8,85.3,64.0,83.1,71.0,97.5,67.8,93.0,77.7,93.5,65.1,91.3,75.1,90.7,64.3,90.6,74.0,-0.29,0.29,0.08,0.06,0.00,104.96,105.19,99.24,99.25,152.3,2.9,0.487134478352744,120.99417486144219,34.56976422173962,-21.606102531895175,-5.690237259159403e-07
1.100,36.1,44.054324043967135,-78.681848677832818,-218.4,-17.1,-57.7,25.2,8573.8,8574,124.1,0,1,1,0,1,1,0,0,0,100,1,1.186,26.0,0.0,0.288,57.136,66.0,0.0,26.0,26.0,26.0,26.0,0.18,0.63,-0.12,387.2,-2.50,-3.43,-1.91,-1.95,-727.53,656.72,5.7,0.00,0.00,0.00,0.00,0.02,-7.49,-7.49,-0.93,1.50,0.34,-2.67,34.50,0.08,-0.27,-3.32,100.0,0,0,99.64,0,0,0.0,0,0,0,0,6680,0,30.00,3,124.1,0,0,0.0,0.0,0.0,0.0,0,0,1.122,1.122,57.308,23.012,0,110.00,435.8,8750,0.0,0.0,110.0,110.0,433.0,0.00,0,0,1,166.7,83.5,83.5,67.1,67.1,34.0,0.41,17.01,-6.2,28.5,5,-355.660,-5.9,100.0,12.2,19.8,28.8,32.6,0,1,100.0,0.00,0.00,0.00,0.00,577,2097,5177,4383,323.6,317.1,342.3,343.3,25.49,22.08,26.13,24.21,325.0,325.0,355.0,355.0,99.94,100.00,99.94,100.00,0.38,0.27,0.17,0.35,-0.1,-0.0,3.0,2.7,85.3,64.0,83.1,71.0,97.4,67.7,92.9,77.7,93.4,65.1,91.2,75.1,90.6,64.3,90.6,74.0,-0.33,0.32,0.09,0.04,0.00,105.52,105.96,99.64,99.64,152.3,2.9,0.6661080993352355,118.11336118103908,34.20966252235842,-21.606102816407144,3.60101756283548
1.150,37.8,44.054309654821438,-78.681844540953421,6.2,-94.5,100.3,55.6,8575.6,8576,125.0,0,1,1,0,1,1,0,0,0,100,1,1.186,26.0,0.0,0.297,57.136,66.0,0.0,26.0,26.0,26.0,26.0,0.16,0.49,-0.32,387.3,-1.50,-1.45,-2.15,-0.96,-727.07,655.12,5.6,0.00,0.00,0.00,0.00,0.02,-7.49,-7.49,-0.99,-3.16,0.26,-0.92,34.75,0.10,-0.26,-3.16,100.0,0,0,100.54,0,0,0.0,0,0,0,0,6740,0,30.00,3,125.0,1,0,0.0,0.0,0.0,0.0,0,0,1.170,1.170,57.308,23.012,1,110.00,435.8,8750,0.0,0.0,110.0,110.0,433.0,0.00,0,0,1,333.3,84.9,84.9,70.8,70.8,34.0,2.89,12.75,-3.0,22.8,5,-355.710,-5.7,100.0,12.5,15.0,33.8,35.4,0,1,100.0,0.00,0.00,0.00,0.00,1545,2255,3488,4476,321.2,319.1,346.0,343.5,25.49,22.08,26.14,24.21,325.0,325.0,355.0,355.0,99.94,100.00,99.94,100.00,0.36,0.37,0.24,0.36,-0.1,-0.0,2.9,2.6,85.3,64.0,83.1,71.0,97.3,67.7,92.9,77.7,93.3,65.1,91.2,75.1,90.5,64.2,90.6,74.0,-0.33,0.32,0.08,0.05,0.00,106.32,106.54,100.54,100.54,152.3,2.9,0.6067124524847005,118.83356457980148,34.929865978023166,14.404068259759697,14.404068544271382
1.200,39.6,44.054294366354142,-78.681839954413235,110.6,-6.0,-128.6,-45.9,8577.3,8577,125.9,0,1,1,0,1,1,0,0,0,100,1,1.186,26.0,0.0,0.297,57.136,66.0,0.0,26.0,26.0,26.0,26.0,0.20,0.61,-0.02,384.1,-2.03,-2.75,-2.10,-1.24,-726.56,653.42,5.6,0.00,0.00,0.00,0.00,0.02,-7.49,-7.49,-1.17,-1.85,0.21,0.77,35.00,0.11,-0.27,-3.75,100.0,0,0,101.41,0,0,0.0,0,0,0,0,6798,0,30.00,3,126.0,0,0,0.0,0.0,0.0,0.0,0,0,1.220,1.220,57.308,23.012,0,110.00,435.8,8750,0.0,0.0,110.0,110.0,433.0,0.00,0,0,1,333.3,75.8,75.8,78.2,78.2,34.0,1.97,34.40,-4.1,26.1,5,-355.760,-4.9,100.0,18.0,14.7,27.4,33.1,0,1,100.0,0.00,0.00,0.00,0.00,4368,3998,4949,4857,314.2,314.4,343.2,342.6,25.49,22.08,26.14,24.21,325.0,325.0,355.0,355.0,99.94,100.00,99.94,100.00,0.27,0.41,0.23,0.41,-0.1,-0.1,3.6,3.3,85.3,64.0,83.1,71.1,97.3,67.7,92.9,77.7,93.2,65.1,91.2,75.1,90.5,64.2,90.5,74.0,-0.30,0.29,0.08,0.05,0.00,107.28,107.47,101.41,101.41,152.3,2.9,0.6422616289332564,119.55376800701505,35.65006937678556,54.01525689876195,18.005085538083563
1.250,41.3,44.054279797344122,-78.681835637669522,165.7,247.3,25.8,-27.9,8579.1,8579,126.8,0,1,1,0,1,1,0,0,0,100,1,1.186,26.0,0.0,0.315,57.136,66.0,0.0,26.0,26.0,26.0,26.0,0.17,0.50,0.07,378.0,-2.56,-2.91,-2.08,-0.91,-726.08,651.80,5.6,0.00,0.00,0.00,0.00,0.03,-7.49,-7.49,-1.07,6.33,0.41,4.60,35.24,0.13,-0.32,-4.25,100.0,0,0,102.50,0,0,0.0,0,0,0,0,6871,0,30.00,3,126.8,1,0,0.0,0.0,0.0,0.0,0,0,1.268,1.268,57.308,23.012,1,110.00,435.8,8750,0.0,0.0,110.0,110.0,433.0,0.00,0,0,1,333.3,61.8,61.8,72.6,72.6,34.0,-8.02,53.01,-3.1,22.3,5,-355.810,-3.2,100.0,26.3,27.1,28.7,31.7,0,1,100.0,0.00,0.00,0.00,0.00,4036,6232,3621,4732,314.9,306.7,346.2,343.2,25.49,22.08,26.14,24.21,325.0,325.0,355.0,355.0,99.94,100.00,99.94,100.00,0.15,0.25,0.21,0.37,-0.1,-0.1,3.4,3.1,85.3,64.0,83.1,71.1,97.2,67.7,92.8,77.7,93.2,65.1,91.1,75.1,90.4,64.2,90.5,74.0,-0.20,0.20,0.08,0.06,0.00,108.07,108.57,102.50,102.50,152.3,2.9,0.5327288240746881,124.23509026967767,36.73037453183152,90.0254276904171,28.808136519519252
1.300,43.1,44.054263339758734,-78.681830781332849,-227.0,-62.9,192.1,210.1,8580.9,8581,127.9,0,1,1,0,1,1,0,0,0,100,1,1.186,26.0,0.0,0.324,57.136,66.0,0.0,26.0,26.0,26.0,26.0,0.20,0.56,0.15,376.9,-2.68,-2.60,-2.21,-2.55,-725.54,649.97,5.6,0.00,0.00,0.00,0.00,0.03,-7.49,-7.49,-0.70,3.75,0.50,-2.34,35.55,0.13,-0.18,-2.31,100.0,0,0,101.75,0,0,0.0,0,0,0,0,6821,0,30.00,3,127.9,0,0,0.0,0.0,0.0,0.0,0,0,1.322,1.322,57.308,23.012,0,110.00,435.8,8750,0.0,0.0,110.0,110.0,433.0,0.00,0,0,1,166.7,77.5,77.5,56.1,56.1,34.0,-5.66,10.88,-12.3,72.2,5,-355.860,-0.6,100.0,15.0,24.0,38.3,42.2,0,1,100.0,0.00,0.00,0.00,0.00,3116,2128,6930,6915,317.9,318.4,338.3,336.4,25.50,22.08,26.14,24.21,325.0,325.0,355.0,355.0,99.94,100.00,99.94,100.00,0.17,0.14,0.20,0.42,-0.1,0.0,2.0,1.8,85.3,64.0,83.1,71.1,97.1,67.7,92.8,77.7,93.1,65.0,91.1,75.1,90.3,64.2,90.5,74.0,-0.05,0.05,0.06,0.05,0.00,109.00,109.19,101.75,101.75,152.3,2.9,0.6132699242584786,128.55631077605676,38.530883028737485,-57.616273892573844,-7.202034556647661
1.350,44.9,44.054247691562793,-78.681826014928347,8.4,-124.2,65.9,68.0,8582.7,8583,128.8,0,1,1,0,1,1,0,0,0,100,1,1.186,26.0,0.0,0.333,57.136,66.0,0.0,26.0,26.0,26.0,26.0,0.05,0.47,-0.07,381.1,-2.72,-2.98,-2.25,-1.63,-725.01,648.23,5.6,0.00,0.00,0.00,0.00,0.03,-7.49,-7.49,-0.74,-3.53,0.39,-3.53,35.79,0.10,-0.27,-0.34,100.0,0,0,103.26,0,0,0.0,0,0,0,0,6922,0,30.00,3,128.8,1,0,0.0,0.0,0.0,0.0,0,0,1.374,1.374,57.308,23.012,1,110.00,435.8,8750,0.0,0.0,110.0,110.0,433.0,0.00,0,0,1,166.7,81.7,81.7,64.1,64.1,34.0,-5.20,7.69,-5.9,25.6,5,-355.910,2.0,100.0,15.4,17.8,41.6,45.6,0,1,100.0,0.00,0.00,0.00,0.00,1914,1707,3672,4740,319.7,319.8,345.5,342.5,25.50,22.08,26.15,24.21,325.0,325.0,355.0,355.0,99.94,100.00,99.94,100.00,0.09,0.06,0.19,0.25,-0.1,-0.1,2.5,2.4,85.4,64.0,83.2,71.1,97.1,67.6,92.8,77.7,93.0,65.0,91.1,75.1,90.3,64.1,90.4,74.0,0.11,-0.10,0.06,0.04,0.00,109.63,109.65,103.26,103.27,152.3,2.9,0.4778074926160116,118.47346288042029,36.010171076166756,-93.62644468422914,-21.606101962871662
1.400,46.7,44.054233752077899,-78.681821788116793,-19.1,-64.5,-134.6,-215.5,8584.5,8584,129.6,0,1,1,0,1,1,0,0,0,100,1,1.186,26.0,0.0,0.342,57.136,66.0,0.0,26.0,26.0,26.0,26.0,0.01,0.62,-0.14,385.5,-1.44,-1.95,-1.80,-1.88,-724.54,646.68,5.6,0.00,0.00,0.00,0.00,0.03,-7.49,-7.49,-0.95,-5.03,0.19,-1.99,36.03,0.07,-0.29,0.88,100.0,0,0,103.81,0,0,0.0,0,0,0,0,6959,0,30.00,3,129.6,0,0,0.0,0.0,0.0,0.0,0,0,1.418,1.418,57.308,23.012,0,110.00,435.8,8750,0.0,0.0,110.0,110.0,433.0,0.00,0,0,1,333.3,83.2,83.2,70.3,70.3,34.0,-6.84,4.01,-11.3,20.6,5,-355.960,3.5,100.0,14.4,14.5,34.8,34.9,0,1,100.0,0.00,0.00,0.00,0.00,2744,1665,4860,4504,318.2,320.2,342.8,343.0,25.50,22.08,26.15,24.22,325.0,325.0,355.0,355.0,99.94,100.00,99.94,100.00,-0.04,-0.00,0.05,0.17,-0.1,-0.1,2.9,2.9,85.4,64.0,83.2,71.1,97.0,67.6,92.8,77.7,93.0,65.0,91.0,75.1,90.2,64.1,90.4,74.0,0.20,-0.20,0.07,0.06,0.00,110.34,110.27,103.81,103.81,152.3,2.9,0.6356886030125127,119.19366630763385,36.37027283245032,90.02542769041682,28.808137088542836
1.450,48.5,44.054217924017635,-78.681816931780119,9.8,-48.1,-85.1,-109.1,8586.3,8586,130.5,0,1,1,0,1,1,0,0,0,100,1,1.186,26.0,0.0,0.351,57.136,66.0,0.0,26.0,26.0,26.0,26.0,-0.08,0.55,-0.33,388.7,-2.46,-2.53,-1.80,-0.81,-724.00,644.92,5.5,0.00,0.00,0.00,0.00,0.03,-7.49,-7.49,-1.23,-5.24,0.32,4.75,36.27,0.05,-0.34,1.88,100.0,0,0,105.41,0,0,0.0,0,0,0,0,7067,0,30.00,3,130.5,1,0,0.0,0.0,0.0,0.0,0,0,1.470,1.470,57.308,23.012,1,110.00,435.8,8750,0.0,0.0,110.0,110.0,433.0,0.00,0,0,1,333.3,83.2,83.2,78.4,78.4,34.0,-13.49,4.79,-10.3,6.4,5,-356.010,4.8,100.0,14.9,12.1,30.6,29.4,0,1,100.0,0.00,0.00,0.00,0.00,2442,2631,3345,5137,319.0,317.9,346.8,342.4,25.50,22.08,26.15,24.22,325.0,325.0,355.0,355.0,99.94,100.00,99.94,100.00,-0.20,-0.14,-0.12,0.03,-0.1,-0.1,3.6,3.8,85.4,64.0,83.2,71.1,96.9,67.5,92.7,77.7,92.9,64.9,91.0,75.0,90.1,64.1,90.4,74.0,0.28,-0.28,0.08,0.06,0.00,111.10,110.93,105.41,105.42,152.3,2.9,0.6463745044476925,127.47600564946197,38.89098478502104,54.01525661425026,10.80305098143576
1.500,50.3,44.054201916093049,-78.681812075443446,191.0,147.5,-54.8,-35.8,8588.1,8588,131.4,0,1,1,0,1,1,0,0,0,100,1,1.186,26.0,0.0,0.357,57.136,66.0,0.0,26.0,26.0,26.0,26.0,-0.16,0.41,-0.03,385.1,-2.66,-2.24,-0.78,-1.36,-723.46,643.14,5.5,0.00,0.00,0.00,0.00,0.03,-7.49,-7.49,-1.34,1.66,0.38,2.64,36.51,0.02,-0.39,3.56,100.0,0,0,106.52,0,0,0.0,0,0,0,0,7141,0,30.00,3,131.4,0,0,0.0,0.0,0.0,0.0,0,0,1.520,1.520,57.308,23.012,0,110.00,435.8,8750,0.0,0.0,110.0,110.0,433.0,0.00,0,0,1,333.3,71.4,71.4,81.9,81.9,34.0,-28.82,2.93,-9.6,3.2,5,-356.060,6.3,100.0,24.5,19.5,27.8,27.6,0,1,100.0,0.00,0.00,0.00,0.00,4006,3101,3654,2645,314.8,316.3,345.9,348.4,25.50,22.08,26.15,24.22,325.0,325.0,355.0,355.0,99.94,100.00,99.94,100.00,-0.24,-0.19,-0.20,-0.03,-0.0,-0.1,3.4,3.7,85.4,64.0,83.2,71.1,96.9,67.5,92.7,77.7,92.9,64.9,91.0,75.0,90.1,64.0,90.3,74.0,0.35,-0.37,0.08,0.07,0.00,112.20,111.91,106.52,106.52,152.3,2.9,0.4411349000022555,124.59519196905887,37.450577930593894,-18.00508553808342,-14.404068544271453
1.550,52.2,44.054186807490069,-78.681807578835418,38.5,141.2,17.0,113.7,8589.9,8590,132.3,0,1,1,0,1,1,0,0,0,100,1,1.186,26.0,0.0,0.366,57.136,66.0,0.0,26.0,26.0,26.0,26.0,-0.25,0.60,0.49,374.6,-3.03,-2.04,-1.83,-1.63,-722.96,641.46,5.5,0.00,0.00,0.00,0.00,0.03,-7.49,-7.49,-1.10,8.73,0.45,-2.91,36.78,-0.01,-0.30,4.28,100.0,0,0,105.61,0,0,0.0,0,0,0,0,7079,0,30.00,3,132.3,1,0,0.0,0.0,0.0,0.0,0,0,1.570,1.570,57.308,23.012,1,110.00,435.8,8750,0.0,0.0,110.0,110.0,433.0,0.00,0,0,1,333.3,60.8,60.8,71.0,71.0,34.0,-61.28,4.39,-42.0,13.8,5,-356.110,7.2,100.0,26.4,26.6,28.7,33.3,0,1,100.0,0.00,0.00,0.00,0.00,6351,5470,6231,5723,309.5,309.5,340.2,339.5,25.51,22.09,26.16,24.22,325.0,325.0,355.0,355.0,99.94,100.00,99.94,100.00,-0.35,-0.18,-0.28,-0.04,-0.1,-0.0,2.1,2.6,85.4,64.0,83.2,71.1,96.8,67.5,92.7,77.7,92.8,64.9,90.9,75.0,90.0,64.0,90.3,74.0,0.42,-0.42,0.08,0.06,0.00,113.34,113.07,105.61,105.61,152.3,2.9,0.8140024569987488,125.67549709565363,37.450577930593894,61.21729060187391,10.803050981435902
1.600,54.0,44.054170529769003,-78.681802722498745,24.8,-6.3,280.0,79.4,8591.8,8592,133.2,0,1,1,0,1,1,0,0,0,100,1,1.186,26.0,0.0,0.369,57.136,66.0,0.0,26.0,26.0,26.0,26.0,-0.24,0.60,0.31,371.8,-2.74,-2.63,-1.52,-1.56,-722.42,639.65,5.5,0.00,0.00,0.00,0.00,0.03,-7.49,-7.49,-0.59,10.60,0.41,0.24,37.03,-0.04,-0.18,4.86,100.0,0,0,106.38,0,0,0.0,0,0,0,0,7131,0,30.00,3,133.2,0,0,0.0,0.0,0.0,0.0,1,0,1.620,1.620,57.308,23.012,0,110.00,435.8,8750,0.0,0.0,110.0,110.0,433.0,0.00,0,0,1,333.3,66.2,66.2,55.0,55.0,34.0,-27.55,4.79,-49.3,6.3,5,-356.160,6.0,100.0,27.6,26.2,42.7,37.3,0,1,100.0,0.00,0.00,0.00,0.00,3769,3919,7104,6716,315.5,313.8,337.9,337.9,25.51,22.09,26.16,24.22,325.0,325.0,355.0,355.0,99.94,100.00,99.94,100.00,-0.25,-0.21,-0.31,-0.16,-0.1,-0.1,2.0,2.4,85.4,64.0,83.2,71.1,96.8,67.5,92.6,77.7,92.8,64.9,90.9,75.0,90.0,64.0,90.3,74.0,0.38,-0.35,0.05,0.04,0.00,114.12,113.75,106.38,106.38,152.3,2.9,0.7167286794875729,130.71692102924627,38.530883028737485,18.00508553808342,-3.6010175628356222
1.650,55.9,44.054154162115779,-78.681797956094243,-185.6,-174.9,199.6,186.3,8593.6,8594,134.2,0,1,1,0,1,1,0,0,0,100,1,1.186,26.0,0.0,0.378,57.136,66.0,0.0,26.0,26.0,26.0,26.0,-0.24,0.58,0.05,373.4,-2.44,-2.35,-1.74,-1.01,-721.89,637.83,5.5,0.00,0.00,0.00,0.00,0.03,-7.49,-7.49,-0.28,1.13,0.28,-1.51,37.29,-0.06,-0.12,3.26,100.0,0,0,106.77,0,0,0.0,0,0,0,0,7158,0,30.00,3,134.2,1,0,0.0,0.0,0.0,0.0,1,0,1.670,1.670,57.308,23.012,1,110.00,435.8,8750,0.0,0.0,110.0,110.0,433.0,0.00,0,0,1,333.3,79.5,79.5,44.2,44.2,34.0,-15.92,0.48,-57.9,-0.3,5,-356.210,4.5,100.0,18.4,17.5,52.7,46.6,0,1,100.0,0.00,0.00,0.00,0.00,2715,2650,8199,6293,318.3,318.5,335.0,338.7,25.51,22.09,26.16,24.22,325.0,325.0,355.0,355.0,99.94,100.00,99.94,100.00,-0.21,-0.25,-0.24,-0.16,-0.1,-0.0,1.8,2.0,85.4,64.0,83.3,71.2,96.7,67.4,92.6,77.7,92.7,64.8,90.9,75.0,89.9,64.0,90.3,74.0,0.28,-0.28,0.03,0.03,0.00,114.49,114.05,106.77,106.77,152.3,2.9,0.6296824596572466,127.47600564946197,37.09047617431033,-21.606102247383205,-10.803050981435902
1.700,57.8,44.054138693784154,-78.681793459486215,-78.2,-58.0,-101.6,-33.2,8595.5,8596,135.0,0,1,1,0,1,1,0,0,0,100,1,1.186,26.0,0.0,0.384,57.136,66.0,0.0,26.0,26.0,26.0,26.0,-0.15,0.47,0.00,379.3,-2.71,-2.59,-1.52,-1.69,-721.39,636.11,5.5,0.00,0.00,0.00,0.00,0.03,-7.49,-7.49,-0.48,-6.87,0.20,-3.22,37.52,-0.07,-0.27,2.68,100.0,0,0,107.84,0,0,0.0,0,0,0,0,7229,0,30.00,3,135.0,0,0,0.0,0.0,0.0,0.0,1,0,1.720,1.720,57.308,23.012,0,110.00,435.8,8750,0.0,0.0,110.0,110.0,433.0,0.00,0,0,1,333.3,81.0,81.0,57.1,57.1,34.0,-21.72,4.55,-22.6,5.9,5,-356.260,4.1,100.0,14.5,14.6,47.6,44.9,0,1,100.0,0.00,0.00,0.00,0.00,3155,3165,4685,4506,317.3,316.4,343.4,342.9,25.51,22.09,26.17,24.23,325.0,325.0,355.0,355.0,99.94,100.00,99.94,100.00,-0.26,-0.19,-0.19,-0.14,-0.0,-0.1,2.2,2.4,85.5,64.0,83.3,71.2,96.6,67.4,92.6,77.7,92.6,64.8,90.9,75.0,89.9,63.9,90.2,74.0,0.25,-0.25,0.04,0.04,0.00,114.98,114.71,107.84,107.84,152.3,2.9,0.49335585534176035,128.55631080450794,37.450577930593894,97.22746196255287,25.207120663754736
1.750,59.7,44.054122056334442,-78.681788603149542,228.2,136.0,-246.5,-314.2,8597.4,8597,135.8,0,1,1,0,1,1,0,0,0,100,1,1.186,26.0,0.0,0.393,57.136,66.0,0.0,26.0,26.0,26.0,26.0,-0.21,0.43,0.00,380.8,-2.50,-2.85,-1.60,-1.08,-720.85,634.26,5.5,0.00,0.00,0.00,0.00,0.04,-7.49,-7.49,-0.67,1.13,0.06,0.33,37.73,-0.10,-0.41,4.19,100.0,0,0,109.89,0,0,0.0,0,0,0,0,7367,0,30.00,3,135.8,1,0,0.0,0.0,0.0,0.0,1,0,1.770,1.770,57.308,23.012,1,110.00,435.8,8750,0.0,0.0,110.0,110.0,433.0,0.00,0,0,1,166.7,66.3,66.3,76.4,76.4,34.0,-49.59,8.09,-15.8,-1.4,5,-356.310,4.0,100.0,25.9,21.4,35.3,29.2,0,1,100.0,0.00,0.00,0.00,0.00,5909,3838,3430,3837,310.2,314.1,346.9,345.3,25.52,22.09,26.17,24.23,325.0,325.0,355.0,355.0,99.94,100.00,99.94,100.00,-0.30,-0.17,-0.33,-0.21,-0.1,-0.1,3.3,3.7,85.5,64.0,83.3,71.2,96.6,67.4,92.6,77.6,92.6,64.8,90.8,75.0,89.8,63.9,90.2,74.0,0.24,-0.23,0.07,0.07,0.00,116.06,115.55,109.89,109.89,152.3,2.9,0.4785394445602159,137.19875184571725,39.611188240685806,18.00508525357145,-7.202033987623722
1.800,61.6,44.054104429630968,-78.681783566948539,128.7,45.4,-1.6,126.9,8599.3,8599,136.8,0,1,1,0,1,1,0,0,0,100,1,1.186,26.0,0.0,0.399,57.136,66.0,0.0,26.0,26.0,26.0,26.0,-0.33,0.54,0.40,374.8,-1.91,-2.78,-1.37,-2.13,-720.29,632.30,5.5,0.00,0.00,0.00,0.00,0.04,-7.49,-7.49,-0.32,9.24,0.21,3.98,38.02,-0.10,-0.33,4.17,100.0,0,0,109.15,0,0,0.0,0,0,0,0,7317,0,30.00,3,136.8,0,0,0.0,0.0,0.0,0.0,1,0,1.824,1.824,57.308,23.012,0,110.00,435.8,8750,0.0,0.0,110.0,110.0,433.0,0.00,0,0,1,166.7,63.2,63.2,72.0,72.0,34.0,-40.45,2.94,-48.8,5.5,5,-356.360,4.0,100.0,32.3,23.7,35.2,35.6,0,1,100.0,0.00,0.00,0.00,0.00,5384,3191,5977,5622,310.9,315.7,340.4,340.0,25.52,22.09,26.17,24.23,325.0,325.0,355.0,355.0,99.94,100.00,99.94,100.00,-0.30,-0.25,-0.45,-0.24,-0.1,-0.1,1.8,2.2,85.5,64.0,83.3,71.2,96.5,67.4,92.5,77.6,92.5,64.8,90.8,75.0,89.8,63.9,90.2,74.0,0.25,-0.23,0.06,0.06,0.00,117.12,116.72,109.15,109.15,152.3,2.9,0.7486654793697917,130.3568193298651,36.73037453183152,-97.22746196255287,-43.21220563281436
1.850,63.5,44.054089500892310,-78.681779430069156,-217.3,-98.7,201.6,87.3,8601.2,8601,137.6,0,1,1,0,1,1,0,0,0,100,1,1.186,26.0,0.0,0.405,57.136,66.0,0.0,26.0,26.0,26.0,26.0,-0.27,0.54,0.14,376.0,-2.26,-3.14,-1.57,-1.01,-719.83,630.64,5.5,0.00,0.00,0.00,0.00,0.04,-7.49,-7.49,-0.01,3.96,0.44,5.87,38.24,-0.08,-0.20,2.96,100.0,0,0,109.42,0,0,0.0,0,0,0,0,7335,0,30.00,3,137.6,1,0,0.0,0.0,0.0,0.0,1,0,1.870,1.870,57.308,23.012,1,110.00,435.8,8750,0.0,0.0,110.0,110.0,433.0,0.00,0,0,1,333.3,76.4,76.4,54.6,54.6,34.0,-19.94,2.55,-57.6,-7.2,5,-356.410,4.0,100.0,21.4,18.7,45.3,39.9,0,1,100.0,0.00,0.00,0.00,0.00,2992,2575,6969,7316,317.4,317.9,337.3,336.5,25.52,22.09,26.17,24.23,325.0,325.0,355.0,355.0,99.94,100.00,99.94,100.00,-0.29,-0.28,-0.38,-0.23,-0.1,-0.1,1.8,2.0,85.5,64.0,83.3,71.2,96.4,67.3,92.5,77.6,92.5,64.7,90.8,75.0,89.7,63.9,90.2,74.0,0.24,-0.23,0.04,0.05,0.00,117.51,117.30,109.42,109.43,152.3,2.9,0.6197580172938467,127.47600564946197,35.28996767740437,57.616273892573986,10.803050981435689
1.900,65.4,44.054072593646119,-78.681774753596798,-154.8,-59.2,-14.6,37.4,8603.1,8603,138.4,0,1,1,0,1,1,0,0,0,100,1,1.186,26.0,0.0,0.408,57.136,66.0,0.0,26.0,26.0,26.0,26.0,-0.16,0.39,-0.17,382.3,-2.19,-1.82,-2.91,-1.49,-719.31,628.76,5.5,0.00,0.00,0.00,0.00,0.04,-7.49,-7.49,-0.10,-4.47,0.56,-0.84,38.47,-0.05,-0.26,1.73,100.0,0,0,110.97,0,0,0.0,0,0,0,0,7439,0,30.00,3,138.4,0,0,0.0,0.0,0.0,0.0,1,0,1.920,1.920,57.308,23.012,0,110.00,435.8,8750,0.0,0.0,110.0,110.0,433.0,0.00,0,0,1,333.3,80.7,80.7,59.6,59.6,34.0,-15.00,-0.92,-22.9,4.9,5,-356.460,4.2,100.0,13.7,15.8,44.5,41.8,0,1,100.0,0.00,0.00,0.00,0.00,2432,3947,3661,4095,318.9,314.6,345.9,344.4,25.52,22.09,26.18,24.23,325.0,325.0,355.0,355.0,99.94,100.00,99.94,100.00,-0.29,-0.23,-0.18,-0.11,-0.1,-0.1,2.4,2.5,85.5,64.0,83.4,71.2,96.4,67.3,92.5,77.6,92.4,64.7,90.8,75.0,89.6,63.8,90.1,74.0,0.24,-0.25,0.05,0.04,0.00,117.90,117.76,110.97,110.98,152.3,2.9,0.4545327270945405,136.1184467191225,37.81067962997509,54.015256614250404,14.404067975247798
1.950,67.3,44.054055506535605,-78.681769987192297,150.4,200.0,-209.4,-202.6,8605.1,8605,139.2,0,1,1,0,1,1,0,0,0,100,1,1.186,26.0,0.0,0.414,57.136,66.0,0.0,26.0,26.0,26.0,26.0,-0.18,0.48,0.10,378.6,-2.78,-2.09,-1.48,-1.38,-718.78,626.86,5.5,0.00,0.00,0.00,0.00,0.04,-7.49,-7.49,-0.17,2.79,0.30,-9.03,38.68,-0.06,-0.32,3.16,100.0,0,0,112.26,0,0,0.0,0,0,0,0,7525,0,30.00,3,139.2,1,0,0.0,0.0,0.0,0.0,1,0,1.970,1.970,57.308,23.012,1,110.00,435.8,8750,0.0,0.0,110.0,110.0,433.0,0.00,0,0,1,166.7,63.0,63.0,68.3,68.3,34.0,-56.59,13.76,-14.1,5.6,5,-356.510,4.6,100.0,21.2,25.8,34.1,31.7,0,1,100.0,0.00,0.00,0.00,0.00,6585,5916,3961,4274,309.1,308.2,345.2,344.2,25.53,22.09,26.18,24.23,325.0,325.0,355.0,355.0,99.94,100.00,99.94,100.00,-0.28,-0.09,-0.17,-0.06,-0.1,-0.1,3.1,3.3,85.5,64.1,83.4,71.2,96.3,67.3,92.4,77.6,92.3,64.7,90.7,75.0,89.6,63.8,90.1,74.0,0.27,-0.26,0.07,0.07,0.00,119.05,118.75,112.26,112.26,152.3,2.9,0.5223025942880238,132.877531310887,36.73037447492915,-21.60610281640743,-18.00508553808335
2.000,69.3,44.054039408678861,-78.681765580516426,247.9,131.9,185.2,49.6,8607.0,8607,140.0,0,1,1,0,1,1,0,0,0,100,1,1.186,26.0,0.0,0.417,57.136,66.0,0.0,26.0,26.0,26.0,26.0,-0.18,0.37,0.55,368.9,-3.24,-3.12,-1.02,-1.50,-718.29,625.07,5.5,0.00,0.00,0.00,0.00,0.04,-7.49,-7.49,0.27,11.58,-0.06,-5.14,38.90,-0.09,-0.31,4.18,100.0,0,0,111.36,0,0,0.0,0,0,0,0,7465,0,30.00,3,140.0,0,0,0.0,0.0,0.0,0.0,1,0,2.018,2.018,57.308,23.012,0,110.00,435.8,8750,0.0,0.0,110.0,110.0,433.0,0.00,0,0,1,333.3,53.1,53.1,57.8,57.8,34.0,-63.79,23.45,-33.0,7.0,5,-356.560,3.7,100.0,33.6,32.4,43.3,34.2,0,1,84.0,0.00,0.00,0.00,0.00,7100,6152,5509,5787,308.4,307.8,341.3,340.0,25.53,22.09,26.18,24.24,325.0,325.0,355.0,355.0,99.94,100.00,99.94,100.00,-0.26,-0.10,-0.29,-0.14,-0.0,-0.1,1.4,1.7,85.6,64.1,83.4,71.2,96.3,67.3,92.4,77.6,92.3,64.7,90.7,75.0,89.5,63.8,90.1,73.9,0.28,-0.22,0.05,0.05,0.00,119.89,119.59,111.36,111.36,152.3,2.9,0.6868769904429759,133.95783643748175,36.010171076166756,57.6162738925737,3.601017562835551
2.050,71.2,44.054022051771867,-78.681760993976241,-137.4,-228.0,278.3,253.9,8609.0,8609,140.7,0,1,1,0,1,1,0,0,0,100,1,1.186,26.0,0.0,0.423,57.136,66.0,0.0,26.0,26.0,26.0,26.0,-0.20,0.34,0.34,369.9,-1.83,-2.61,-1.35,-2.10,-717.78,623.14,5.6,0.00,0.00,0.00,0.00,0.04,-7.49,-7.49,0.82,7.09,-0.29,0.29,39.08,-0.11,-0.17,2.88,100.0,0,0,110.89,0,0,0.0,0,0,0,0,7434,0,30.00,3,140.7,1,0,0.0,0.0,0.0,0.0,1,0,2.070,2.070,57.308,23.012,1,110.00,435.8,8750,0.0,0.0,110.0,110.0,433.0,0.00,0,0,1,333.3,73.4,73.4,43.4,43.4,34.0,-15.35,1.45,-63.5,16.1,5,-356.610,1.4,100.0,26.7,21.0,57.2,46.9,0,1,42.1,0.00,0.00,0.00,0.00,3621,1961,8112,7184,316.3,320.0,334.8,335.5,25.53,22.09,26.19,24.24,325.0,325.0,355.0,355.0,99.94,100.00,99.94,100.00,-0.12,-0.23,-0.29,-0.18,-0.0,0.0,0.8,1.0,85.6,64.1,83.4,71.2,96.2,67.2,92.4,77.6,92.2,64.7,90.7,75.0,89.5,63.8,90.0,73.9,0.11,-0.11,0.02,0.03,0.00,120.10,119.78,110.89,110.89,152.3,2.9,0.5207686626516616,138.63915870014438,37.090476231212705,43.212205348302746,10.803051550459486
2.100,73.2,44.054004784797030,-78.681756317503883,-219.2,-155.8,-90.3,82.1,8610.9,8611,140.7,0,1,1,0,1,1,0,0,0,100,1,1.186,26.0,0.0,0.423,57.136,66.0,0.0,26.0,26.0,26.0,26.0,-0.12,-0.20,-0.11,379.4,-2.08,-2.79,-1.53,-2.34,-717.26,621.22,5.6,0.00,0.00,0.00,0.00,0.04,-7.49,-7.49,0.72,-9.76,-0.19,2.02,39.07,-0.09,-0.30,0.49,100.0,0,0,109.31,0,0,0.0,0,0,0,0,7327,0,30.00,3,140.7,0,0,0.0,0.0,0.0,0.0,0,0,2.120,2.120,57.308,23.012,0,110.00,435.8,8750,0.0,0.0,110.0,110.0,433.0,0.00,0,0,1,333.3,85.6,85.6,51.1,51.1,34.0,-6.35,2.25,-48.7,11.3,5,-356.660,-1.9,100.0,15.8,13.2,52.7,51.0,0,1,0.0,0.00,0.00,0.00,0.00,1989,1009,6745,4213,320.0,322.2,338.6,342.9,25.53,22.09,26.19,24.24,325.0,325.0,355.0,355.0,99.94,100.00,99.94,100.00,-0.04,-0.08,-0.22,-0.18,0.1,0.1,-0.3,-0.2,85.6,64.1,83.4,71.3,96.1,67.2,92.4,77.6,92.2,64.6,90.6,75.0,89.4,63.7,90.0,73.9,-0.09,0.08,0.02,0.02,0.00,119.63,119.58,109.31,109.31,152.3,2.9,0.25787593916455254,138.27905697231202,37.090476231212705,-43.21220563281429,-14.404068544271453
2.150,75.1,44.053987517822200,-78.681751730963697,-0.1,-28.5,-475.6,-383.2,8612.9,8613,140.4,0,1,1,0,1,1,0,0,0,100,1,1.186,26.0,0.0,0.429,57.136,66.0,0.0,26.0,26.0,26.0,26.0,-0.04,-0.16,-0.45,392.6,-1.20,-2.39,-1.38,-1.21,-716.75,619.30,5.6,0.00,0.00,0.00,0.00,0.05,-7.49,-7.49,0.10,-12.03,0.08,6.54,38.98,-0.06,-0.51,-0.34,100.0,0,0,108.69,0,0,0.0,0,0,0,0,7286,0,30.00,3,140.4,1,0,0.0,0.0,0.0,0.0,0,0,2.172,2.172,57.308,23.012,1,110.00,435.8,8750,0.0,0.0,110.0,110.0,433.0,0.00,0,0,1,166.7,82.2,82.2,85.6,85.6,34.0,-4.53,9.35,-10.9,4.2,5,-356.710,-3.9,100.0,15.8,11.8,28.9,31.8,0,1,0.0,0.00,0.00,0.00,0.00,2975,2302,2341,2888,317.4,318.6,349.8,347.3,25.54,22.09,26.19,24.24,325.0,325.0,355.0,355.0,99.94,100.00,99.94,100.00,0.02,0.08,-0.21,-0.07,0.0,-0.0,-0.5,-0.4,85.6,64.1,83.5,71.3,96.0,67.2,92.3,77.5,92.1,64.6,90.6,74.9,89.3,63.7,89.9,73.9,-0.23,0.22,0.09,0.07,0.00,119.16,119.18,108.69,108.69,152.3,2.9,0.47927027865287036,134.31793813686295,35.65006937678556,-43.212205348302746,-14.404068544271453
2.200,77.1,44.053971240101134,-78.681747414219984,104.9,258.7,-228.9,-186.0,8614.8,8615,140.0,0,1,1,0,1,1,0,0,0,100,1,1.186,26.0,0.0,0.435,57.136,66.0,0.0,26.0,26.0,26.0,26.0,0.01,-0.24,-0.18,389.5,-2.84,-2.56,-1.76,-1.34,-716.27,617.49,5.6,0.00,0.00,0.00,0.00,0.05,-7.49,-7.49,-0.32,-3.52,0.29,0.59,38.88,-0.04,-0.64,-1.24,100.0,0,0,108.36,0,0,0.0,0,0,0,0,7264,0,30.00,3,140.0,0,0,0.0,0.0,0.0,0.0,0,0,2.220,2.220,57.308,23.012,0,110.00,435.8,8750,0.0,0.0,110.0,110.0,433.0,0.00,0,0,1,333.3,65.1,65.1,87.8,87.8,34.0,-18.84,45.64,-12.3,4.7,5,-356.760,-4.3,100.0,21.0,24.7,17.5,22.5,0,1,0.0,0.00,0.00,0.00,0.00,4760,6145,2500,1829,313.1,307.6,349.2,350.3,25.54,22.09,26.19,24.24,325.0,325.0,355.0,355.0,99.94,100.00,99.94,100.00,0.05,0.23,-0.17,0.04,-0.0,-0.0,-0.8,-0.9,85.6,64.1,83.5,71.3,96.0,67.1,92.2,77.5,92.0,64.6,90.5,74.9,89.3,63.7,89.9,73.8,-0.26,0.25,0.11,0.09,0.00,119.29,119.32,108.36,108.36,152.3,2.9,0.30016662039607267,133.95783643748175,35.65006937678556,-7.202033987623793,0.0
2.250,79.0,44.053954063058463,-78.681742827679798,167.6,130.9,48.6,-15.0,8616.8,8617,139.6,0,1,1,0,1,1,0,0,0,100,1,1.186,26.0,0.0,0.435,57.136,66.0,0.0,26.0,26.0,26.0,26.0,0.08,-0.26,0.12,382.2,-3.29,-2.19,-2.11,-0.66,-715.76,615.58,5.7,0.00,0.00,0.00,0.00,0.05,-7.49,-7.49,-0.14,8.46,0.33,0.51,38.77,0.00,-0.54,-2.29,100.0,0,0,108.82,0,0,0.0,0,0,0,0,7295,0,30.00,3,139.6,1,0,0.0,0.0,0.0,0.0,0,0,2.270,2.270,57.308,23.012,1,110.00,435.8,8750,0.0,0.0,110.0,110.0,433.0,0.00,0,0,1,333.3,57.2,57.2,83.9,83.9,34.0,-23.49,43.08,-14.9,23.5,5,-356.810,-4.2,100.0,29.4,31.2,19.9,21.7,0,1,0.0,0.00,0.00,0.00,0.00,5172,6369,3029,5333,312.4,307.4,347.9,341.1,25.54,22.09,26.20,24.24,325.0,325.0,355.0,355.0,99.94,100.00,99.94,100.00,0.06,0.22,-0.07,0.20,-0.0,-0.0,-0.4,-0.5,85.6,64.1,83.5,71.3,95.9,67.1,92.1,77.4,92.0,64.5,90.4,74.8,89.2,63.7,89.8,73.8,-0.23,0.26,0.10,0.08,0.00,119.18,119.35,108.82,108.82,152.3,2.9,0.2973213749463701,133.59773473810057,35.65006937678556,-7.202033987623793,0.0
2.300,80.9,44.053937875269554,-78.681738510936086,-39.8,8.4,341.4,339.1,8618.7,8619,139.2,0,1,1,0,1,1,0,0,0,100,1,1.186,26.0,0.0,0.441,57.136,66.0,0.0,26.0,26.0,26.0,26.0,0.09,-0.17,0.37,374.7,-3.61,-2.32,-2.11,-2.27,-715.28,613.78,5.7,0.00,0.00,0.00,0.00,0.05,-7.49,-7.49,0.33,8.83,0.08,-7.56,38.67,0.03,-0.38,-2.84,100.0,0,0,108.58,0,0,0.0,0,0,0,0,7278,0,30.00,3,139.2,0,0,0.0,0.0,0.0,0.0,0,0,2.320,2.320,57.308,23.012,0,110.00,435.8,8750,0.0,0.0,110.0,110.0,433.0,0.00,0,0,1,333.3,63.2,63.2,61.5,61.5,34.0,-17.53,19.72,-25.9,42.1,5,-356.860,-3.9,100.0,27.4,31.6,37.0,38.7,0,1,0.0,0.00,0.00,0.00,0.00,4876,3178,6258,4628,313.0,315.6,339.5,342.0,25.54,22.09,26.20,24.25,325.0,325.0,355.0,355.0,99.94,100.00,99.94,100.00,0.17,0.23,0.07,0.29,-0.0,0.0,-0.2,-0.5,85.6,64.1,83.5,71.3,95.9,67.1,92.1,77.4,91.9,64.5,90.4,74.8,89.2,63.7,89.7,73.8,-0.22,0.24,0.07,0.05,0.00,118.88,119.07,108.57,108.58,152.3,2.9,0.41701318923986086,133.23763303871937,35.65006937678556,32.4091540823548,10.803051550459628
2.350,82.9,44.053920788159040,-78.681733924395900,-94.3,-298.5,118.1,146.4,8620.6,8621,138.9,0,1,1,0,1,1,0,0,0,100,1,1.186,26.0,0.0,0.444,57.136,66.0,0.0,26.0,26.0,26.0,26.0,0.09,-0.16,-0.00,380.1,-2.45,-2.77,-1.60,-2.03,-714.77,611.88,5.7,0.00,0.00,0.00,0.00,0.05,-7.49,-7.49,0.57,-0.34,0.09,4.49,38.58,0.05,-0.29,-1.59,100.0,0,0,108.10,0,0,0.0,0,0,0,0,7246,0,30.00,3,138.9,1,0,0.0,0.0,0.0,0.0,0,0,2.370,2.370,57.308,23.012,1,110.00,435.8,8750,0.0,0.0,110.0,110.0,433.0,0.00,0,0,1,333.3,79.5,79.5,65.9,65.9,34.0,-1.65,5.59,-13.3,45.5,5,-356.910,-3.0,100.0,22.7,16.7,42.9,46.0,0,1,0.0,0.00,0.00,0.00,0.00,1812,1252,4479,5957,320.3,321.4,344.0,338.4,25.55,22.09,26.20,24.25,325.0,325.0,355.0,355.0,99.94,100.00,99.94,100.00,0.21,0.14,0.04,0.17,0.1,0.1,-0.3,-0.3,85.7,64.1,83.5,71.3,95.8,67.1,92.0,77.4,91.8,64.5,90.3,74.8,89.1,63.6,89.7,73.7,-0.18,0.19,0.05,0.04,0.00,118.22,118.46,108.10,108.10,152.3,2.9,0.1835755975068582,136.83865014633605,36.73037453183152,-7.202034272135904,0.0
2.400,84.8,44.053903701048526,-78.681729337855700,-275.3,-105.1,-89.0,-141.1,8622.5,8623,138.6,0,1,1,0,1,1,0,0,0,100,1,1.186,26.0,0.0,0.450,57.136,66.0,0.0,26.0,26.0,26.0,26.0,0.06,-0.17,-0.43,389.6,-2.95,-3.33,-1.96,-1.64,-714.26,609.98,5.8,0.00,0.00,0.00,0.00,0.05,-7.49,-7.49,0.20,-11.73,0.28,2.08,38.49,0.07,-0.37,-1.57,100.0,0,0,107.43,0,0,0.0,0,0,0,0,7202,0,30.00,3,138.6,0,0,0.0,0.0,0.0,0.0,0,0,2.420,2.420,57.308,23.012,0,110.00,435.8,8750,0.0,0.0,110.0,110.0,433.0,0.00,0,0,1,333.3,88.7,88.7,64.5,64.5,34.0,-1.02,22.86,-13.9,16.7,5,-356.960,-2.5,100.0,8.9,11.5,38.4,39.0,0,1,0.0,0.00,0.00,0.00,0.00,659,3206,4120,3172,323.3,316.6,345.2,346.6,25.55,22.09,26.20,24.25,325.0,325.0,355.0,355.0,99.94,100.00,99.94,100.00,0.17,0.23,0.06,0.16,0.1,0.0,-0.3,-0.5,85.7,64.1,83.5,71.3,95.7,67.1,92.0,77.3,91.8,64.5,90.3,74.7,89.0,63.6,89.6,73.7,-0.14,0.15,0.06,0.05,0.00,117.66,117.78,107.43,107.43,152.3,2.9,0.46626172907499064,132.51742961150578,35.65006937678556,-7.2020345566474475,3.6010164247880994
2.450,86.7,44.053887693123940,-78.681725021112001,105.6,98.5,-302.6,-343.6,8624.5,8624,138.3,0,1,1,0,1,1,0,0,0,100,1,1.186,26.0,0.0,0.450,57.136,66.0,0.0,26.0,26.0,26.0,26.0,0.05,-0.19,-0.49,394.9,-2.55,-1.67,-2.27,-1.70,-713.78,608.20,5.8,0.00,0.00,0.00,0.00,0.05,-7.49,-7.49,-0.37,-9.00,0.30,-0.07,38.41,0.09,-0.55,-2.03,100.0,0,0,106.82,0,0,0.0,0,0,0,0,7161,0,30.00,3,138.3,1,0,0.0,0.0,0.0,0.0,0,0,2.470,2.470,57.308,23.012,1,110.00,435.8,8750,0.0,0.0,110.0,110.0,433.0,0.00,0,0,1,166.7,77.3,77.3,87.9,87.9,34.0,-10.54,23.99,-1.9,8.8,5,-357.010,-1.8,100.0,14.2,16.4,23.3,21.8,0,1,0.0,0.00,0.00,0.00,0.00,3638,4207,1107,1723,316.0,313.5,352.3,350.7,25.55,22.09,26.21,24.25,325.0,325.0,355.0,355.0,99.94,100.00,99.94,100.00,0.08,0.25,0.16,0.26,-0.0,-0.1,-0.8,-1.0,85.7,64.1,83.5,71.3,95.6,67.0,91.9,77.3,91.7,64.4,90.2,74.7,89.0,63.6,89.6,73.6,-0.11,0.11,0.10,0.09,0.00,117.55,117.66,106.82,106.83,152.3,2.9,0.5279204485526204,136.1184466906713,37.09047617431033,72.02034186782186,25.20712009473094
2.500,88.6,44.053869706691827,-78.681720074843170,180.7,171.2,-145.8,-18.5,8626.4,8626,137.9,0,1,1,0,1,1,0,0,0,100,1,1.186,26.0,0.0,0.456,57.136,66.0,0.0,26.0,26.0,26.0,26.0,0.13,-0.25,0.01,387.8,-2.76,-1.91,-0.84,-1.14,-713.23,606.20,5.8,0.00,0.00,0.00,0.00,0.05,-7.49,-7.49,-0.57,0.93,0.08,-6.53,38.30,0.09,-0.56,-1.62,100.0,0,0,107.08,0,0,0.0,0,0,0,0,7178,0,30.00,3,137.9,0,0,0.0,0.0,0.0,0.0,0,0,2.522,2.522,57.308,23.012,0,110.00,435.8,8750,0.0,0.0,110.0,110.0,433.0,0.00,0,0,1,166.7,64.8,64.8,86.4,86.4,34.0,-14.65,38.99,-0.3,17.7,5,-357.060,-0.5,100.0,23.2,25.0,16.0,20.9,0,1,0.0,0.00,0.00,0.00,0.00,4584,5679,3828,2803,313.8,308.6,345.7,347.6,25.55,22.09,26.21,24.25,325.0,325.0,355.0,355.0,99.94,100.00,99.94,100.00,0.09,0.26,0.12,0.36,0.0,-0.1,-0.5,-0.7,85.7,64.1,83.5,71.3,95.6,67.0,91.8,77.2,91.6,64.4,90.1,74.6,88.9,63.6,89.5,73.6,-0.03,0.04,0.11,0.09,0.00,117.63,117.75,107.08,107.08,152.3,2.9,0.2819574435974337,139.71946379828796,38.17078138625865,-90.02542740590542,-21.606101962871662
2.550,90.5,44.053852799445636,-78.681715488302970,-58.8,-59.8,238.6,71.4,8628.3,8628,137.6,0,1,1,0,1,1,0,0,0,100,1,1.186,26.0,0.0,0.462,57.136,66.0,0.0,26.0,26.0,26.0,26.0,0.11,-0.16,-0.31,388.0,-2.63,-2.77,-0.81,-2.33,-712.72,604.32,5.8,0.00,0.00,0.00,0.00,0.05,-7.49,-7.49,-0.40,2.55,-0.08,-0.99,38.20,0.08,-0.42,-0.64,100.0,0,0,107.04,0,0,0.0,0,0,0,0,7176,0,30.00,3,137.6,1,0,0.0,0.0,0.0,0.0,0,0,2.574,2.574,57.308,23.012,1,110.00,435.8,8750,0.0,0.0,110.0,110.0,433.0,0.00,0,0,1,166.7,75.3,75.3,78.3,78.3,34.0,-8.97,10.29,-1.7,39.8,5,-357.110,1.3,100.0,20.3,22.0,27.9,24.4,0,1,0.0,0.00,0.00,0.00,0.00,2821,2495,3379,4415,318.2,318.1,346.7,343.3,25.55,22.10,26.21,24.25,325.0,325.0,355.0,355.0,99.94,100.00,99.94,100.00,0.05,0.03,0.08,0.31,0.0,0.1,-0.4,-0.4,85.7,64.1,83.6,71.3,95.5,67.0,91.8,77.2,91.6,64.4,90.1,74.6,88.8,63.5,89.4,73.6,0.07,-0.07,0.09,0.09,0.00,117.16,117.27,107.04,107.04,152.3,2.9,0.36578682316343764,127.11590395008076,34.929865978023166,-126.03559848207198,-28.80813765756656
2.600,92.4,44.053837960639136,-78.681711351423587,-5.6,-4.6,164.6,207.9,8630.2,8630,137.3,0,1,1,0,1,1,0,0,0,100,1,1.186,26.0,0.0,0.465,57.136,66.0,0.0,26.0,26.0,26.0,26.0,0.01,-0.20,0.16,381.3,-2.16,-2.83,-1.95,-1.04,-712.26,602.67,5.8,0.00,0.00,0.00,0.00,0.06,-7.49,-7.49,-0.40,-1.63,-0.15,-2.06,38.12,0.07,-0.45,0.16,100.0,0,0,106.69,0,0,0.0,0,0,0,0,7152,0,30.00,3,137.3,0,0,0.0,0.0,0.0,0.0,1,0,2.620,2.620,57.308,23.012,0,110.00,435.8,8750,0.0,0.0,110.0,110.0,433.0,0.00,0,0,1,333.3,72.1,72.1,67.9,67.9,34.0,-17.28,18.52,-15.9,21.8,5,-357.160,2.9,100.0,20.0,21.7,36.2,34.8,0,1,0.0,0.00,0.00,0.00,0.00,3827,4216,3979,4280,315.4,313.7,344.6,343.5,25.55,22.10,26.21,24.25,325.0,325.0,355.0,355.0,99.94,100.00,99.94,100.00,-0.09,0.00,0.02,0.20,0.0,0.0,-0.4,-0.4,85.7,64.1,83.6,71.3,95.4,67.0,91.7,77.2,91.5,64.4,90.0,74.6,88.8,63.5,89.4,73.5,0.16,-0.17,0.07,0.05,0.00,116.94,116.96,106.69,106.70,152.3,2.9,0.25632011235952595,127.11590395008076,35.289967620502,75.62135914614572,21.606102531895388
2.650,94.3,44.053821053392944,-78.681706674951243,33.4,7.3,-107.5,-109.9,8632.1,8632,136.9,0,1,1,0,1,1,0,0,0,100,1,1.186,26.0,0.0,0.465,57.136,66.0,0.0,26.0,26.0,26.0,26.0,-0.04,-0.22,-0.06,384.0,-2.73,-2.96,-1.22,-1.06,-711.74,600.79,5.8,0.00,0.00,0.00,0.00,0.06,-7.49,-7.49,-0.41,1.11,-0.29,-1.98,38.03,0.04,-0.39,1.13,100.0,0,0,106.56,0,0,0.0,0,0,0,0,7143,0,30.00,3,136.9,1,0,0.0,0.0,0.0,0.0,1,0,2.670,2.670,57.308,23.012,1,110.00,435.8,8750,0.0,0.0,110.0,110.0,433.0,0.00,0,0,1,333.3,71.5,71.5,74.1,74.1,34.0,-22.77,11.82,-13.6,16.0,5,-357.210,3.7,100.0,21.7,22.1,30.8,29.3,0,1,0.0,0.00,0.00,0.00,0.00,3903,3326,4420,3776,315.1,315.6,344.3,345.1,25.56,22.10,26.21,24.25,325.0,325.0,355.0,355.0,99.94,100.00,99.94,100.00,-0.12,-0.07,-0.03,0.15,-0.0,-0.0,-0.4,-0.3,85.7,64.1,83.6,71.3,95.4,66.9,91.6,77.1,91.4,64.4,89.9,74.5,88.7,63.5,89.3,73.5,0.22,-0.22,0.08,0.07,0.00,116.85,116.69,106.56,106.56,152.3,2.9,0.2315167380558045,134.67803986469534,37.090476231212705,32.40915379784326,3.6010175628356222
2.700,96.2,44.053804326011075,-78.681702088411043,-16.3,-3.8,61.9,68.3,8634.0,8634,136.6,0,1,1,0,1,1,0,0,0,100,1,1.186,26.0,0.0,0.471,57.136,66.0,0.0,26.0,26.0,26.0,26.0,-0.05,-0.20,0.04,382.8,-2.47,-2.73,-0.55,-1.71,-711.23,598.93,5.8,0.00,0.00,0.00,0.00,0.06,-7.49,-7.49,-0.42,-1.70,-0.39,-3.05,37.94,-0.00,-0.41,2.13,100.0,0,0,106.20,0,0,0.0,0,0,0,0,7119,0,30.00,3,136.6,0,0,0.0,0.0,0.0,0.0,1,0,2.720,2.720,57.308,23.012,0,110.00,435.8,8750,0.0,0.0,110.0,110.0,433.0,0.00,0,0,1,333.3,72.3,72.3,69.8,69.8,34.0,-17.92,11.33,-11.4,16.2,5,-357.260,4.0,100.0,20.9,21.9,33.9,32.7,0,1,0.0,0.00,0.00,0.00,0.00,3317,3809,3953,3834,316.9,314.2,344.6,344.7,25.56,22.10,26.22,24.26,325.0,325.0,355.0,355.0,99.94,100.00,99.94,100.00,-0.14,-0.09,-0.12,0.04,0.0,-0.0,-0.4,-0.3,85.7,64.1,83.6,71.3,95.3,66.9,91.6,77.1,91.4,64.3,89.9,74.5,88.6,63.5,89.2,73.5,0.23,-0.24,0.08,0.07,0.00,116.44,116.29,106.20,106.20,152.3,2.9,0.21000000000000002,130.3568193298651,35.65006937678556,-43.21220534830246,-14.404068544271453
2.750,98.1,44.053788497950812,-78.681697771667345,-96.6,-24.8,9.6,-37.1,8635.9,8636,136.3,0,1,1,0,1,1,0,0,0,100,1,1.186,26.0,0.0,0.471,57.136,66.0,0.0,26.0,26.0,26.0,26.0,-0.09,-0.16,-0.25,384.7,-2.31,-2.86,-1.44,-1.55,-710.75,597.17,5.8,0.00,0.00,0.00,0.00,0.06,-7.49,-7.49,-0.56,-4.59,-0.56,-5.28,37.86,-0.03,-0.44,1.95,100.0,0,0,105.88,0,0,0.0,0,0,0,0,7098,0,30.00,3,136.3,1,0,0.0,0.0,0.0,0.0,1,0,2.768,2.768,57.308,23.012,1,110.00,435.8,8750,0.0,0.0,110.0,110.0,433.0,0.00,0,0,1,333.3,75.3,75.3,69.2,69.2,34.0,-30.18,6.92,-24.6,10.1,5,-357.310,4.2,100.0,16.1,20.7,34.4,30.9,0,1,0.0,0.00,0.00,0.00,0.00,4529,3125,4485,3259,314.6,316.0,343.9,346.2,25.56,22.10,26.22,24.26,325.0,325.0,355.0,355.0,99.94,100.00,99.94,100.00,-0.25,-0.16,-0.16,-0.01,-0.1,-0.0,-0.4,-0.2,85.7,64.1,83.6,71.4,95.2,66.9,91.5,77.0,91.3,64.3,89.8,74.5,88.6,63.4,89.2,73.4,0.26,-0.25,0.07,0.07,0.00,116.03,115.95,105.88,105.88,152.3,2.9,0.3101612483854165,130.3568193298651,35.65006937678556,36.01017136067867,7.20203455664759
