Time,Distance,GPS Latitude,GPS Longitude,Damper Velocity (Calc) FL,Damper Velocity (Calc) FR,Damper Velocity (Calc) RL,Damper Velocity (Calc) RR,Corr Dist,Corr Dist (Unstretched),Corr Speed,ABS Active,ABS Enabled,AID Allow Tire Blankets,AID Auto Blip,AID Auto Clutch,AID Auto Shift,AID Fuel Rate,AID Ideal Line,AID Mech Damage,AID Stability,AID Tire Wear Rate,Air Density,Air Temp,Ballast,Best Lap Delta,Best Lap Time,Brake Bias,Brake Pos,Brake Temp FL,Brake Temp FR,Brake Temp RL,Brake Temp RR,CG Accel Lateral,CG Accel Longitudinal,CG Accel Vertical,CG Height,Camber FL,Camber FR,Camber RL,Camber RR,Car Coord X,Car Coord Y,Car Coord Z,Car Damage Front,Car Damage Left,Car Damage Rear,Car Damage Right,Car Pos Norm,Caster FL,Caster FR,Chassis Pitch Angle,Chassis Pitch Rate,Chassis Roll Angle,Chassis Roll Rate,Chassis Velocity X,Chassis Velocity Y,Chassis Velocity Z,Chassis Yaw Rate,Clutch Pos,DRS Active,DRS Available,Drive Train Speed,ERS Heat Charging,ERS Is Charging,ERS Max Energy,ERS Power Level,ERS Recovery Level,Engine Brake Setting,Engine Limiter,Engine RPM,Flags,Fuel Level,Gear,Ground Speed,HR Sample Clock,In Pit,KERS Charge,KERS Deployed Energy,KERS Input,KERS Max Energy,LR Sample Clock,Lap Invalidated,Lap Time,Lap Time2,Last Lap Time,Last Sector Time,MR Sample Clock,Max Fuel,Max Power,Max RPM,Max Sus Travel FL,Max Sus Travel FR,Max Sus Travel RL,Max Sus Travel RR,Max Torque,Max Turbo Boost,Num Tires Off Track,Penalties Enabled,Position,Raw Data Sample Rate,Ride Height FL,Ride Height FR,Ride Height RL,Ride Height RR,Road Temp,Self Align Torque FL,Self Align Torque FR,Self Align Torque RL,Self Align Torque RR,Session Lap Count,Session Time Left,Steering Angle,Surface Grip,Suspension Travel FL,Suspension Travel FR,Suspension Travel RL,Suspension Travel RR,TC Active,TC Enabled,Throttle Pos,Tire Dirt Level FL,Tire Dirt Level FR,Tire Dirt Level RL,Tire Dirt Level RR,Tire Load FL,Tire Load FR,Tire Load RL,Tire Load RR,Tire Loaded Radius FL,Tire Loaded Radius FR,Tire Loaded Radius RL,Tire Loaded Radius RR,Tire Pressure FL,Tire Pressure FR,Tire Pressure RL,Tire Pressure RR,Tire Radius FL,Tire Radius FR,Tire Radius RL,Tire Radius RR,Tire Rubber Grip FL,Tire Rubber Grip FR,Tire Rubber Grip RL,Tire Rubber Grip RR,Tire Slip Angle FL,Tire Slip Angle FR,Tire Slip Angle RL,Tire Slip Angle RR,Tire Slip Ratio FL,Tire Slip Ratio FR,Tire Slip Ratio RL,Tire Slip Ratio RR,Tire Temp Core FL,Tire Temp Core FR,Tire Temp Core RL,Tire Temp Core RR,Tire Temp Inner FL,Tire Temp Inner FR,Tire Temp Inner RL,Tire Temp Inner RR,Tire Temp Middle FL,Tire Temp Middle FR,Tire Temp Middle RL,Tire Temp Middle RR,Tire Temp Outer FL,Tire Temp Outer FR,Tire Temp Outer RL,Tire Temp Outer RR,Toe In FL,Toe In FR,Toe In RL,Toe In RR,Turbo Boost,Wheel Angular Speed FL,Wheel Angular Speed FR,Wheel Angular Speed RL,Wheel Angular Speed RR,Wind Direction,Wind Speed,CG Distance,Lateral Velocity,Longitudinal Velocity,Lateral Acceleration,Longitudinal Acceleration
s,m,deg,deg,mm/s,mm/s,mm/s,mm/s,m,m,km/h,,,,,,,,,%,%,,kg/m3,C,kg,s,s,%,%,C,C,C,C,G,G,G,mm,deg,deg,deg,deg,m,m,m,,,,,,deg,deg,deg,deg/s,deg,deg/s,m/s,m/s,m/s,deg/s,%,,,rad/s,,,MJ,,,,,rpm,,l,,km/h,,,%,kJ,%,MJ,,,s,s,s,s,,l,hp,rpm,mm,mm,mm,mm,N.m,,,,,Hz,mm,mm,mm,mm,C,N.m,N.m,N.m,N.m,,s,deg,%,mm,mm,mm,mm,,,%,,,,,N,N,N,N,mm,mm,mm,mm,psi,psi,psi,psi,mm,mm,mm,mm,%,%,%,%,deg,deg,deg,deg,%,%,%,%,C,C,C,C,C,C,C,C,C,C,C,C,C,C,C,C,deg,deg,deg,deg,,rad/s,rad/s,rad/s,rad/s,deg,km/h,G,Km/h,Km/h,Km/h^2,Km/h^2
0.000,0.0,44.054633950192532,-78.681953718596390,-53.1,-24.4,69.3,141.0,5056.1,5056,134.8,0,1,1,0,1,1,0,0,0,100,1,1.186,26.0,0.0,16.764,51.476,66.0,0.0,26.0,26.0,26.0,26.0,0.12,0.47,0.02,384.9,-2.09,-2.23,-1.92,-1.77,-739.21,691.18,5.7,0.00,0.00,0.00,0.00,0.00,-7.49,-7.49,-0.31,-3.65,0.21,-1.69,37.45,0.08,-0.28,-2.03,100.0,0,0,107.67,0,0,0.0,0,0,0,0,7218,0,30.00,3,134.8,0,0,0.0,0.0,0.0,0.0,0,0,0.006,0.006,68.261,30.987,0,110.00,435.8,8750,0.0,0.0,110.0,110.0,433.0,0.00,0,0,1,125.0,82.2,82.2,67.5,67.5,34.0,1.78,14.91,-7.64,19.8,3,-203.250,-4.8,100.0,15.3,16.4,35.9,40.1,0,1,100.0,0.00,0.00,0.00,0.00,2030,2282,4674,3420,320.2,318.9,343.4,344.9,27.27,23.41,26.38,24.90,325.0,325.0,355.0,355.0,100.00,99.90,100.00,99.96,0.32,0.33,0.15,0.25,-0.0,-0.1,2.3,2.1,96.4,72.3,84.6,75.3,94.6,69.1,82.2,73.9,91.0,66.6,80.8,72.0,87.1,65.1,79.9,71.0,-0.27,0.26,0.06,0.06,0.00,114.67,114.81,107.67,107.67,19.5,25.8,0.4854894437575342
0.050,1.9,44.054618301996591,-78.681949311920519,86.6,120.8,-61.1,-136.4,5058.0,5058,135.6,0,1,1,0,1,1,0,0,0,100,1,1.186,26.0,0.0,-0.006,51.476,66.0,0.0,26.0,26.0,26.0,26.0,0.21,0.52,0.16,382.9,-2.29,-2.19,-1.86,-1.74,-738.72,689.44,5.7,0.00,0.00,0.00,0.00,0.00,-7.49,-7.49,-0.42,0.12,0.23,0.46,37.67,0.07,-0.37,-3.03,100.0,0,0,108.90,0,0,0.0,0,0,0,0,7300,0,30.00,3,135.6,1,0,0.0,0.0,0.0,0.0,0,0,0.054,0.054,68.261,30.987,1,110.00,435.8,8750,0.0,0.0,110.0,110.0,433.0,0.00,0,0,1,333.3,72.3,72.3,72.1,72.1,34.0,-1.19,27.85,-4.91,25.7,3,-203.300,-5.2,100.0,19.6,22.5,32.9,33.3,0,1,100.0,0.00,0.00,0.00,0.00,3608,3824,3412,4663,316.1,314.4,346.7,342.7,27.27,23.41,26.38,24.89,325.0,325.0,355.0,355.0,100.00,99.90,100.00,99.96,0.24,0.31,0.13,0.27,-0.1,-0.0,2.9,2.7,96.4,72.3,84.6,75.3,94.6,69.1,82.2,73.9,91.0,66.6,80.8,72.0,87.1,65.0,79.9,71.0,-0.30,0.28,0.08,0.06,0.00,115.47,115.70,108.90,108.90,19.5,25.8,0.5831809324729333,125.31539536782128,35.28996767740437
0.100,3.8,44.054602653800650,-78.681944905244649,-33.3,-106.3,-55.4,6.6,5059.9,5060,136.4,0,1,1,0,1,1,0,0,0,100,1,1.186,26.0,0.0,0.003,51.476,66.0,0.0,26.0,26.0,26.0,26.0,0.20,0.62,-0.09,384.9,-2.05,-1.94,-1.25,-1.49,-738.23,687.70,5.7,0.00,0.00,0.00,0.00,0.00,-7.49,-7.49,-0.37,0.70,0.21,0.01,37.92,0.10,-0.28,-3.26,100.0,0,0,109.07,0,0,0.0,0,0,0,0,7311,0,30.00,3,136.4,0,0,0.0,0.0,0.0,0.0,1,0,0.101,0.101,68.261,30.987,0,110.00,435.8,8750,0.0,0.0,110.0,110.0,433.0,0.00,0,0,1,166.7,79.2,79.2,73.0,73.0,34.0,2.33,14.53,-1.40,36.5,3,-203.340,-5.2,100.0,17.9,17.1,30.1,33.7,0,1,100.0,0.00,0.00,0.00,0.00,2987,2400,5667,5713,318.2,318.6,341.7,340.3,27.27,23.41,26.38,24.89,325.0,325.0,355.0,355.0,100.00,99.90,100.00,99.96,0.30,0.31,0.17,0.35,-0.1,-0.1,2.8,2.6,96.4,72.3,84.6,75.3,94.5,69.1,82.1,73.9,90.9,66.5,80.8,72.0,87.0,65.0,79.8,71.0,-0.30,0.29,0.07,0.06,0.00,116.15,116.33,109.07,109.07,19.5,25.8,0.6576473218982952,129.9967176304839,36.73037453183152,97.22746224706441,32.409154082354874
0.150,5.7,44.054585836486616,-78.681940138840133,-12.9,29.9,45.0,95.2,5061.8,5062,137.3,0,1,1,0,1,1,0,0,0,100,1,1.186,26.0,0.0,0.009,51.476,66.0,0.0,26.0,26.0,26.0,26.0,0.20,0.43,-0.10,384.2,-2.24,-2.47,-1.86,-1.00,-737.70,685.83,5.7,0.00,0.00,0.00,0.00,0.00,-7.49,-7.49,-0.46,-1.87,0.30,0.30,38.15,0.11,-0.36,-3.49,100.0,0,0,110.37,0,0,0.0,0,0,0,0,7399,0,30.00,3,137.3,1,0,0.0,0.0,0.0,0.0,1,0,0.153,0.153,68.261,30.987,1,110.00,435.8,8750,0.0,0.0,110.0,110.0,433.0,0.00,0,0,1,333.3,76.2,76.2,71.1,71.1,34.0,-0.05,38.01,-3.08,16.1,3,-203.400,-4.3,100.0,17.3,18.6,32.3,38.4,0,1,100.0,0.00,0.00,0.00,0.00,2584,4650,3636,3505,319.0,312.7,346.5,345.5,27.26,23.41,26.38,24.89,325.0,325.0,355.0,355.0,100.00,99.90,100.00,99.96,0.25,0.34,0.19,0.32,-0.1,-0.1,2.9,2.6,96.4,72.3,84.6,75.3,94.4,69.0,82.1,73.9,90.9,66.5,80.8,72.0,87.0,65.0,79.8,71.0,-0.25,0.24,0.08,0.06,0.00,116.80,117.20,110.37,110.37,19.5,25.8,0.48466483264210536,135.03814159252772,38.53088308563986,14.404068259759697,10.803050981435689
0.200,7.6,44.054568929240425,-78.681935282503460,-67.3,-70.3,-27.0,-126.4,5063.7,5064,138.2,0,1,1,0,1,1,0,0,0,100,1,1.186,26.0,0.0,0.018,51.476,66.0,0.0,26.0,26.0,26.0,26.0,0.15,0.51,-0.36,389.2,-2.65,-1.76,-1.72,-1.38,-737.16,683.95,5.7,0.00,0.00,0.00,0.00,0.01,-7.49,-7.49,-0.46,-0.79,0.39,3.60,38.40,0.15,-0.28,-3.07,100.0,0,0,110.93,0,0,0.0,0,0,0,0,7437,0,30.00,3,138.2,0,0,0.0,0.0,0.0,0.0,1,0,0.204,0.204,68.261,30.987,0,110.00,435.8,8750,0.0,0.0,110.0,110.0,433.0,0.00,0,0,1,333.3,84.7,84.7,73.1,73.1,34.0,-0.29,12.21,-1.73,29.0,3,-203.450,-2.7,100.0,13.9,15.1,31.0,32.1,0,1,100.0,0.00,0.00,0.00,0.00,1201,2535,3720,4931,322.3,318.7,345.7,342.7,27.26,23.40,26.37,24.89,325.0,325.0,355.0,355.0,100.00,99.90,100.00,99.96,0.28,0.22,0.21,0.37,-0.0,-0.1,3.0,2.7,96.4,72.3,84.6,75.3,94.4,69.0,82.1,73.9,90.8,66.5,80.7,71.9,86.9,65.0,79.8,71.0,-0.16,0.16,0.08,0.06,0.00,117.43,117.77,110.93,110.93,19.5,25.8,0.6420280367709809,131.43712445645986,37.81067962997509,-28.80813708854305,0.0
0.250,9.5,44.054553011248004,-78.681930695963274,-8.5,41.6,22.3,111.4,5065.7,5066,139.1,0,1,1,0,1,1,0,0,0,100,1,1.186,26.0,0.0,0.024,51.476,66.0,0.0,26.0,26.0,26.0,26.0,0.18,0.48,0.00,385.6,-2.82,-1.91,-1.71,-2.25,-736.65,682.18,5.7,0.00,0.00,0.00,0.00,0.01,-7.49,-7.49,-0.57,-3.24,0.38,-2.06,38.64,0.14,-0.36,-2.26,100.0,0,0,111.14,0,0,0.0,0,0,0,0,7451,0,30.00,3,139.1,1,0,0.0,0.0,0.0,0.0,1,0,0.251,0.251,68.261,30.987,1,110.00,435.8,8750,0.0,0.0,110.0,110.0,433.0,0.00,0,0,1,166.7,81.1,81.1,68.7,68.7,34.0,-4.20,17.83,-2.19,27.6,3,-203.490,-1.4,100.0,13.5,17.2,32.1,37.7,0,1,100.0,0.00,0.00,0.00,0.00,2669,3048,4990,3741,319.0,316.5,342.8,345.1,27.25,23.40,26.37,24.89,325.0,325.0,355.0,355.0,100.00,99.90,100.00,99.96,0.20,0.25,0.22,0.36,-0.1,-0.0,2.5,2.2,96.3,72.3,84.6,75.3,94.3,69.0,82.1,73.9,90.7,66.4,80.7,71.9,86.8,64.9,79.8,71.0,-0.09,0.08,0.07,0.05,0.00,118.32,118.50,111.14,111.14,19.5,25.8,0.5126402247190518,132.15732788367342,38.53088308563986,57.616273892573986,25.20712009473087
0.300,11.5,44.054535924137490,-78.681925659762271,11.8,30.4,-81.8,-151.0,5067.6,5068,139.9,0,1,1,0,1,1,0,0,0,100,1,1.186,26.0,0.0,0.027,51.476,66.0,0.0,26.0,26.0,26.0,26.0,0.15,0.57,-0.08,386.5,-2.46,-1.48,-1.07,-1.49,-736.09,680.28,5.7,0.00,0.00,0.00,0.00,0.01,-7.49,-7.49,-0.64,-0.30,0.22,-4.98,38.87,0.14,-0.31,-1.86,100.0,0,0,112.19,0,0,0.0,0,0,0,0,7521,0,30.00,3,139.9,0,0,0.0,0.0,0.0,0.0,1,0,0.303,0.303,68.261,30.987,0,110.00,435.8,8750,0.0,0.0,110.0,110.0,433.0,0.00,0,0,1,333.3,78.0,78.0,73.4,73.4,34.0,-6.94,19.77,3.46,29.7,3,-203.550,-0.4,100.0,14.1,18.7,28.0,30.1,0,1,100.0,0.00,0.00,0.00,0.00,3725,3810,4653,4646,316.5,315.5,343.7,343.1,27.25,23.40,26.37,24.89,325.0,325.0,355.0,355.0,100.00,99.90,100.00,99.96,0.15,0.24,0.24,0.42,-0.1,-0.1,3.0,2.8,96.3,72.3,84.6,75.3,94.2,69.0,82.1,73.9,90.6,66.4,80.7,71.9,86.8,64.9,79.8,71.0,-0.03,0.03,0.09,0.06,0.00,119.19,119.23,112.19,112.19,19.5,25.8,0.5948108943185221,137.19875184571725,40.33139163944818,57.61627389257427,21.60610196287152
0.350,13.4,44.054518747094818,-78.681920623561282,155.3,36.6,68.2,65.3,5069.6,5070,140.8,0,1,1,0,1,1,0,0,0,100,1,1.186,26.0,0.0,0.033,51.476,66.0,0.0,26.0,26.0,26.0,26.0,0.13,0.43,0.17,382.2,-2.09,-2.67,-1.43,-0.84,-735.53,678.37,5.7,0.00,0.00,0.00,0.00,0.01,-7.49,-7.49,-0.60,2.26,0.13,0.34,39.12,0.11,-0.36,-1.18,100.0,0,0,112.66,0,0,0.0,0,0,0,0,7552,0,30.00,3,140.8,1,0,0.0,0.0,0.0,0.0,1,0,0.354,0.354,68.261,30.987,1,110.00,435.8,8750,0.0,0.0,110.0,110.0,433.0,0.00,0,0,1,333.3,71.5,71.5,77.7,77.7,34.0,-10.61,21.39,-2.39,27.6,3,-203.600,-0.5,100.0,21.8,20.5,31.4,33.4,0,1,100.0,0.00,0.00,0.00,0.00,4632,3547,2906,5754,314.1,315.3,347.5,340.5,27.25,23.40,26.37,24.89,325.0,325.0,355.0,355.0,100.00,99.90,100.00,99.96,0.08,0.16,0.14,0.29,-0.0,-0.1,2.3,2.3,96.3,72.2,84.6,75.3,94.2,68.9,82.0,73.9,90.6,66.4,80.7,71.9,86.7,64.9,79.7,71.0,-0.02,0.01,0.09,0.05,0.00,120.08,120.12,112.65,112.65,19.5,25.8,0.4803123983409131,137.91895527293084,40.69149328192701,-28.80813680403122,-3.60101756283548
0.400,15.4,44.054501480119981,-78.681915497428136,67.7,40.2,47.7,39.2,5071.5,5072,141.7,0,1,1,0,1,1,0,0,0,100,1,1.186,26.0,0.0,0.045,51.476,66.0,0.0,26.0,26.0,26.0,26.0,0.09,0.55,0.11,379.4,-1.53,-2.37,-1.39,-1.28,-734.96,676.45,5.7,0.00,0.00,0.00,0.00,0.01,-7.49,-7.49,-0.33,6.15,0.22,5.20,39.37,0.10,-0.28,-0.63,100.0,0,0,112.99,0,0,0.0,0,0,0,0,7574,0,30.00,3,141.7,0,0,0.0,0.0,0.0,0.0,1,0,0.406,0.406,68.261,30.987,0,110.00,435.8,8750,0.0,0.0,110.0,110.0,433.0,0.00,0,0,1,166.7,72.3,72.3,68.6,68.6,34.0,-0.59,14.21,-12.42,32.5,3,-203.650,-1.3,100.0,25.2,22.6,33.8,35.3,0,1,100.0,0.00,0.00,0.00,0.00,2237,2826,5677,6416,318.1,317.5,341.3,338.9,27.25,23.40,26.37,24.89,325.0,325.0,355.0,355.0,100.00,99.90,100.00,99.96,0.16,0.14,0.03,0.21,-0.0,-0.1,2.1,2.1,96.3,72.2,84.5,75.3,94.1,68.9,82.0,73.9,90.5,66.4,80.7,71.9,86.7,64.9,79.7,71.0,-0.05,0.06,0.07,0.07,0.00,120.82,120.92,112.99,112.99,19.5,25.8,0.5680668974689513,134.31793816531413,39.97128988316463,-28.80813708854305,-3.6010164247883125
0.450,17.4,44.054485202398915,-78.681910641091463,-202.8,-41.5,138.4,160.4,5073.5,5074,142.5,0,1,1,0,1,1,0,0,0,100,1,1.186,26.0,0.0,0.051,51.476,66.0,0.0,26.0,26.0,26.0,26.0,0.10,0.55,0.13,379.5,-2.65,-2.71,-2.02,-0.87,-734.42,674.64,5.7,0.00,0.00,0.00,0.00,0.01,-7.49,-7.49,-0.19,-0.82,0.32,-1.25,39.61,0.08,-0.24,-1.00,100.0,0,0,113.07,0,0,0.0,0,0,0,0,7579,0,30.00,3,142.5,1,0,0.0,0.0,0.0,0.0,1,0,0.453,0.453,68.261,30.987,1,110.00,435.8,8750,0.0,0.0,110.0,110.0,433.0,0.00,0,0,1,333.3,82.0,82.0,54.0,54.0,34.0,-0.70,12.16,-24.93,30.8,3,-203.700,-2.7,100.0,15.1,20.5,40.7,43.4,0,1,100.0,0.00,0.00,0.00,0.00,953,2065,6926,6547,322.7,318.9,338.0,338.0,27.24,23.39,26.37,24.89,325.0,325.0,355.0,355.0,100.00,99.90,100.00,99.96,0.23,0.19,0.05,0.22,-0.1,-0.1,1.8,1.7,96.3,72.2,84.5,75.3,94.0,68.9,82.0,73.9,90.5,66.3,80.7,71.9,86.6,64.8,79.7,71.0,-0.14,0.14,0.05,0.05,0.00,121.32,121.44,113.06,113.06,19.5,25.8,0.5739337940912698,135.03814156407654,40.33139163944818,18.005085538083563,7.202034556647519
0.500,19.4,44.054467755559763,-78.681905425026144,-25.8,-36.1,-99.4,-74.0,5075.5,5076,143.3,0,1,1,0,1,1,0,0,0,100,1,1.186,26.0,0.0,0.054,51.476,66.0,0.0,26.0,26.0,26.0,26.0,0.14,0.43,-0.13,385.3,-2.79,-2.04,-1.19,-1.23,-733.84,672.70,5.7,0.00,0.00,0.00,0.00,0.01,-7.49,-7.49,-0.38,-3.87,0.17,-6.23,39.82,0.06,-0.34,-1.86,100.0,0,0,114.78,0,0,0.0,0,0,0,0,7694,0,30.00,3,143.3,0,0,0.0,0.0,0.0,0.0,1,0,0.504,0.504,68.261,30.987,0,110.00,435.8,8750,0.0,0.0,110.0,110.0,433.0,0.00,0,0,1,333.3,81.4,81.4,67.9,67.9,34.0,-0.82,17.00,-1.55,19.0,3,-203.750,-4.2,100.0,13.8,18.7,35.7,39.7,0,1,100.0,0.00,0.00,0.00,0.00,1832,2696,3387,4119,320.6,317.5,346.5,344.2,27.24,23.39,26.36,24.89,325.0,325.0,355.0,355.0,100.00,99.90,100.00,99.96,0.28,0.29,0.13,0.25,-0.0,-0.1,2.6,2.5,96.2,72.2,84.5,75.3,93.9,68.8,82.0,73.9,90.4,66.3,80.6,71.9,86.5,64.8,79.7,71.0,-0.23,0.22,0.07,0.05,0.00,121.92,122.04,114.78,114.78,19.5,25.8,0.47053161424074363,136.1184467191225,40.69149333882938,61.21729117089757,21.606102531895388
0.550,21.4,44.054451208042209,-78.681900478757314,-2.8,-86.1,-79.1,-158.8,5077.5,5078,144.1,0,1,1,0,1,1,0,0,0,100,1,1.186,26.0,0.0,0.057,51.476,66.0,0.0,26.0,26.0,26.0,26.0,0.23,0.55,0.03,388.0,-1.48,-2.09,-0.51,-1.84,-733.29,670.86,5.7,0.00,0.00,0.00,0.00,0.01,-7.49,-7.49,-0.59,-4.81,-0.10,-3.60,40.05,0.06,-0.34,-1.94,100.0,0,0,115.33,0,0,0.0,0,0,0,0,7732,0,30.00,3,144.1,1,0,0.0,0.0,0.0,0.0,1,0,0.551,0.551,68.261,30.987,1,110.00,435.8,8750,0.0,0.0,110.0,110.0,433.0,0.00,0,0,1,166.7,82.5,82.5,73.1,73.1,34.0,3.82,22.29,1.14,24.7,3,-203.790,-5.0,100.0,13.7,14.4,31.8,31.7,0,1,100.0,0.00,0.00,0.00,0.00,2293,3112,3914,4381,319.0,317.0,345.0,343.5,27.23,23.39,26.36,24.88,325.0,325.0,355.0,355.0,100.00,99.90,100.00,99.96,0.31,0.37,0.11,0.27,-0.1,-0.1,2.8,2.7,96.2,72.2,84.5,75.3,93.9,68.8,82.0,73.8,90.3,66.3,80.6,71.9,86.5,64.8,79.7,71.0,-0.29,0.27,0.09,0.07,0.00,122.60,122.68,115.33,115.33,19.5,25.8,0.5969087032369356,141.1598706811663,42.49200189263772,54.015256614249836,25.207119525707284
0.600,23.4,44.054432502152807,-78.681894813031192,29.7,5.8,-70.4,-76.1,5079.5,5080,144.9,0,1,1,0,1,1,0,0,0,100,1,1.186,26.0,0.0,0.063,51.476,66.0,0.0,26.0,26.0,26.0,26.0,0.11,0.30,-0.39,391.6,-2.74,-1.91,-1.02,-1.38,-732.66,668.78,5.7,0.00,0.00,0.00,0.00,0.01,-7.49,-7.49,-0.83,-3.33,-0.13,2.16,40.27,0.07,-0.39,-2.23,100.0,0,0,117.43,0,0,0.0,0,0,0,0,7872,0,30.00,3,144.9,0,0,0.0,0.0,0.0,0.0,0,0,0.606,0.606,68.261,30.987,0,110.00,435.8,8750,0.0,0.0,110.0,110.0,433.0,0.00,0,0,1,166.7,81.4,81.4,80.8,80.8,34.0,-1.52,23.92,-0.98,8.1,3,-203.850,-5.0,100.0,15.1,14.7,28.3,27.9,0,1,100.0,0.00,0.00,0.00,0.00,2506,3469,2092,2676,319.7,316.3,349.6,348.6,27.23,23.39,26.36,24.88,325.0,325.0,355.0,355.0,100.00,99.90,100.00,99.97,0.26,0.36,0.09,0.21,-0.0,-0.1,3.7,3.5,96.2,72.2,84.5,75.3,93.8,68.8,82.0,73.8,90.2,66.2,80.6,71.9,86.4,64.7,79.6,71.0,-0.30,0.29,0.09,0.07,0.00,123.27,123.44,117.43,117.43,19.5,25.8,0.5041825066382212,141.51997238054747,43.21220529140011,-72.02034243684551,-14.404068544271453
0.650,25.4,44.054415864703095,-78.681889686898046,115.6,118.0,-23.6,24.5,5081.5,5082,145.8,0,1,1,0,1,1,0,0,0,100,1,1.186,26.0,0.0,0.069,51.476,66.0,0.0,26.0,26.0,26.0,26.0,0.10,0.45,-0.05,386.4,-2.61,-3.07,-2.94,-1.39,-732.09,666.93,5.7,0.00,0.00,0.00,0.00,0.02,-7.49,-7.49,-0.82,2.13,-0.02,3.41,40.50,0.10,-0.39,-3.58,100.0,0,0,117.02,0,0,0.0,0,0,0,0,7844,0,30.00,3,145.8,1,0,0.0,0.0,0.0,0.0,0,0,0.654,0.654,68.261,30.987,1,110.00,435.8,8750,0.0,0.0,110.0,110.0,433.0,0.00,0,0,1,333.3,75.1,75.1,80.4,80.4,34.0,-3.37,14.03,-11.01,19.5,3,-203.900,-4.9,100.0,20.9,20.6,27.1,29.1,0,1,100.0,0.00,0.00,0.00,0.00,3533,2099,3711,3790,316.4,319.1,345.4,345.0,27.23,23.38,26.36,24.88,325.0,325.0,355.0,355.0,100.00,99.90,100.00,99.97,0.23,0.24,0.15,0.30,-0.0,-0.1,2.8,2.6,96.2,72.2,84.5,75.3,93.7,68.7,81.9,73.8,90.2,66.2,80.6,71.9,86.3,64.7,79.6,71.0,-0.28,0.26,0.08,0.08,0.00,124.17,124.36,117.01,117.01,19.5,25.8,0.46368092477478523,133.95783643748175,41.05159503821057,-25.207119810219183,-7.202033987623935
0.700,27.4,44.054399047389069,-78.681884560764885,5.4,-40.1,49.7,231.4,5083.6,5084,146.6,0,1,1,0,1,1,0,0,0,100,1,1.186,26.0,0.0,0.075,51.476,66.0,0.0,26.0,26.0,26.0,26.0,0.22,0.47,0.21,381.0,-2.22,-1.91,-2.24,-1.22,-731.52,665.06,5.7,0.00,0.00,0.00,0.00,0.02,-7.49,-7.49,-0.66,2.83,0.32,6.14,40.74,0.16,-0.30,-3.94,100.0,0,0,116.58,0,0,0.0,0,0,0,0,7815,0,30.00,3,146.6,0,0,0.0,0.0,0.0,0.0,0,0,0.701,0.701,68.261,30.987,0,110.00,435.8,8750,0.0,0.0,110.0,110.0,433.0,0.00,0,0,1,333.3,75.5,75.5,72.8,72.8,34.0,0.21,28.82,-10.49,44.8,3,-203.940,-4.1,100.0,21.2,18.5,29.6,40.7,0,1,100.0,0.00,0.00,0.00,0.00,1951,4205,4602,6053,320.3,314.0,343.8,338.6,27.23,23.38,26.36,24.88,325.0,325.0,355.0,355.0,100.00,99.90,100.00,99.97,0.26,0.31,0.15,0.38,-0.0,-0.1,1.9,1.8,96.2,72.1,84.5,75.3,93.7,68.7,81.9,73.8,90.1,66.2,80.6,71.9,86.3,64.7,79.6,71.0,-0.24,0.25,0.07,0.05,0.00,124.82,125.26,116.58,116.58,19.5,25.8,0.5598214000911361,138.99926039952555,42.49200189263772,97.2274619625523,36.01017107616677
0.750,29.5,44.054381150889107,-78.681879074903094,-172.9,33.8,158.0,-52.2,5085.6,5086,147.5,0,1,1,0,1,1,0,0,0,100,1,1.186,26.0,0.0,0.078,51.476,66.0,0.0,26.0,26.0,26.0,26.0,0.22,0.43,0.17,381.5,-2.90,-1.28,-1.77,-0.68,-730.91,663.07,5.7,0.00,0.00,0.00,0.00,0.02,-7.49,-7.49,-0.63,-1.14,0.47,1.14,40.98,0.18,-0.27,-3.30,100.0,0,0,117.40,0,0,0.0,0,0,0,0,7870,0,30.00,3,147.5,1,0,0.0,0.0,0.0,0.0,0,0,0.753,0.753,68.261,30.987,1,110.00,435.8,8750,0.0,0.0,110.0,110.0,433.0,0.00,0,0,1,333.3,78.9,78.9,57.7,57.7,34.0,-1.01,34.20,0.04,34.6,3,-204.000,-2.7,100.0,12.5,20.2,37.5,38.1,0,1,100.0,0.00,0.00,0.00,0.00,1606,5261,4711,5531,321.2,311.6,343.0,340.8,27.22,23.38,26.36,24.88,325.0,325.0,355.0,355.0,100.00,99.90,100.00,99.97,0.28,0.33,0.27,0.41,-0.1,-0.1,2.2,1.9,96.1,72.1,84.5,75.3,93.6,68.7,81.9,73.8,90.0,66.2,80.5,71.9,86.2,64.7,79.6,71.0,-0.17,0.16,0.06,0.05,0.00,125.45,125.87,117.39,117.39,19.5,25.8,0.5120546845796843,143.68058263373698,44.65261214582725,54.015256614250404,28.808137088542836
0.800,31.6,44.054363164456994,-78.681873409176973,109.5,26.7,-114.3,6.7,5087.7,5088,148.2,0,1,1,0,1,1,0,0,0,100,1,1.186,26.0,0.0,0.084,51.476,66.0,0.0,26.0,26.0,26.0,26.0,0.20,0.30,-0.22,384.5,-2.79,-3.40,-1.25,-1.22,-730.28,661.07,5.7,0.00,0.00,0.00,0.00,0.02,-7.49,-7.49,-0.65,0.55,0.34,-5.09,41.18,0.18,-0.31,-2.83,100.0,0,0,119.10,0,0,0.0,0,0,0,0,7984,0,30.00,3,148.2,0,0,0.0,0.0,0.0,0.0,0,0,0.804,0.804,68.261,30.987,0,110.00,435.8,8750,0.0,0.0,110.0,110.0,433.0,0.00,0,0,1,166.7,77.1,77.1,73.1,73.1,34.0,-2.17,18.71,4.15,23.4,3,-204.050,-0.5,100.0,18.0,21.6,31.8,38.4,0,1,100.0,0.00,0.00,0.00,0.00,2049,2496,3188,4081,319.9,317.5,347.3,345.8,27.22,23.38,26.35,24.88,325.0,325.0,355.0,355.0,100.00,99.90,100.00,99.97,0.24,0.23,0.34,0.43,-0.0,-0.1,2.8,2.6,96.1,72.1,84.5,75.2,93.5,68.7,81.9,73.8,90.0,66.1,80.5,71.9,86.1,64.7,79.6,71.0,-0.04,0.04,0.08,0.05,0.00,126.17,126.42,119.10,119.10,19.5,25.8,0.4223742416388575,144.4007860609506,45.372815601492,-28.808136804030653,-3.6010169938119674
0.850,33.6,44.054345088092710,-78.681867743450852,-45.4,-126.6,129.8,-7.2,5089.8,5090,149.1,0,1,1,0,1,1,0,0,0,100,1,1.186,26.0,0.0,0.087,51.476,66.0,0.0,26.0,26.0,26.0,26.0,0.13,0.41,-0.12,383.9,-1.08,-2.39,-2.67,-2.68,-729.65,659.06,5.7,0.00,0.00,0.00,0.00,0.02,-7.49,-7.49,-0.73,-4.64,0.12,-0.05,41.44,0.16,-0.32,-0.46,100.0,0,0,118.81,0,0,0.0,0,0,0,0,7965,0,30.00,3,149.1,1,0,0.0,0.0,0.0,0.0,0,0,0.854,0.854,68.261,30.987,1,110.00,435.8,8750,0.0,0.0,110.0,110.0,433.0,0.00,0,0,1,166.7,82.6,82.6,66.3,66.3,34.0,-0.62,9.91,-14.23,35.7,3,-204.100,2.1,100.0,15.8,15.2,38.2,38.1,0,1,100.0,0.00,0.00,0.00,0.00,2324,2139,5017,4330,319.5,319.4,342.8,343.7,27.21,23.37,26.35,24.88,325.0,325.0,355.0,355.0,100.00,99.90,100.00,99.97,0.10,0.13,0.17,0.33,-0.1,-0.1,2.1,2.0,96.1,72.1,84.5,75.2,93.4,68.6,81.9,73.8,89.9,66.1,80.5,71.9,86.1,64.6,79.5,71.0,0.11,-0.11,0.07,0.05,0.00,126.85,126.93,118.81,118.81,19.5,25.8,0.4465422712353221,140.7997689533339,44.29251044644605,-28.808137088542765,-7.202034556647519
0.900,35.7,44.054328000982203,-78.681862347521218,2.9,-20.6,-143.3,-116.4,5091.8,5092,149.8,0,1,1,0,1,1,0,0,0,100,1,1.186,26.0,0.0,0.090,51.476,66.0,0.0,26.0,26.0,26.0,26.0,-0.01,0.48,-0.24,387.7,-2.83,-2.55,-2.16,-1.77,-729.05,657.16,5.7,0.00,0.00,0.00,0.00,0.02,-7.49,-7.49,-0.99,-4.60,0.29,4.50,41.64,0.13,-0.38,0.94,100.0,0,0,120.28,0,0,0.0,0,0,0,0,8063,0,30.00,3,149.8,0,0,0.0,0.0,0.0,0.0,0,0,0.903,0.903,68.261,30.987,0,110.00,435.8,8750,0.0,0.0,110.0,110.0,433.0,0.00,0,0,1,333.3,81.8,81.8,76.6,76.6,34.0,-14.21,7.58,-11.16,15.3,3,-204.150,4.0,100.0,15.9,14.2,31.1,32.3,0,1,100.0,0.00,0.00,0.00,0.00,2900,2380,3964,3841,318.4,318.7,345.4,345.1,27.21,23.37,26.35,24.88,325.0,325.0,355.0,355.0,100.00,99.90,100.00,99.97,-0.08,-0.03,0.03,0.16,-0.1,-0.1,3.0,3.0,96.1,72.1,84.4,75.2,93.4,68.6,81.8,73.8,89.8,66.1,80.5,71.9,86.0,64.6,79.5,71.0,0.23,-0.23,0.08,0.06,0.00,127.51,127.43,120.28,120.28,19.5,25.8,0.5367494760127857,141.51997235209632,44.65261214582725,14.404068544271524,7.202033987624006
0.950,37.8,44.054309744753603,-78.681856591862939,5.6,113.2,-53.3,-46.5,5093.9,5094,150.7,0,1,1,0,1,1,0,0,0,100,1,1.186,26.0,0.0,0.099,51.476,66.0,0.0,26.0,26.0,26.0,26.0,-0.04,0.47,-0.10,386.8,-2.44,-2.48,-1.08,-1.28,-728.41,655.13,5.6,0.00,0.00,0.00,0.00,0.02,-7.49,-7.49,-1.11,-0.95,0.30,-2.71,41.86,0.08,-0.41,1.65,100.0,0,0,120.90,0,0,0.0,0,0,0,0,8105,0,30.00,3,150.7,1,0,0.0,0.0,0.0,0.0,0,0,0.954,0.954,68.261,30.987,1,110.00,435.8,8750,0.0,0.0,110.0,110.0,433.0,0.00,0,0,1,333.3,78.2,78.2,73.8,73.8,34.0,-11.69,8.65,-7.03,11.0,3,-204.200,4.8,100.0,16.2,19.9,28.4,29.9,0,1,100.0,0.00,0.00,0.00,0.00,2428,3093,4264,3369,318.8,316.7,344.3,346.3,27.21,23.37,26.35,24.88,325.0,325.0,355.0,355.0,100.00,99.90,100.00,99.97,-0.11,-0.07,0.00,0.17,-0.1,-0.1,2.8,2.9,96.0,72.1,84.4,75.2,93.3,68.5,81.8,73.8,89.8,66.0,80.4,71.9,85.9,64.5,79.5,71.0,0.28,-0.29,0.08,0.08,0.00,128.41,128.24,120.90,120.90,19.5,25.8,0.4821825380496477,142.24017580776106,45.01271384520845,14.404068828783068,3.6010169938120384
1.000,39.9,44.054292477778766,-78.681851106001147,-10.1,-93.9,28.7,38.5,5096.0,5096,151.5,0,1,1,0,1,1,0,0,0,100,1,1.186,26.0,0.0,0.099,51.476,66.0,0.0,26.0,26.0,26.0,26.0,-0.07,0.46,0.03,385.3,-1.79,-2.62,-1.79,-2.19,-727.80,653.21,5.6,0.00,0.00,0.00,0.00,0.02,-7.49,-7.49,-1.20,-2.66,0.14,-3.44,42.09,0.03,-0.38,2.37,100.0,0,0,120.77,0,0,0.0,0,0,0,0,8096,0,30.00,3,151.5,0,0,0.0,0.0,0.0,0.0,0,0,1.001,1.001,68.261,30.987,0,110.00,435.8,8750,0.0,0.0,110.0,110.0,433.0,0.00,0,0,1,333.3,79.0,79.0,77.0,77.0,34.0,-23.08,7.36,-17.28,24.7,3,-204.250,4.8,100.0,15.7,15.2,29.9,31.9,0,1,100.0,0.00,0.00,0.00,0.00,4297,2969,4237,4852,315.2,316.9,344.7,341.7,27.20,23.37,26.35,24.88,325.0,325.0,355.0,355.0,100.00,99.90,100.00,99.97,-0.20,-0.11,-0.09,0.10,-0.0,-0.1,2.1,2.3,96.0,72.0,84.4,75.2,93.2,68.5,81.8,73.8,89.7,66.0,80.4,71.9,85.9,64.5,79.5,71.0,0.27,-0.28,0.08,0.07,0.00,129.14,128.92,120.77,120.77,19.5,25.8,0.4662617290749907,142.96037923497462,45.01271384520845,61.2172906018742,14.404068544271311
1.050,42.0,44.054274041685844,-78.681845350342869,253.4,237.0,-40.7,-70.2,5098.2,5098,152.2,0,1,1,0,1,1,0,0,0,100,1,1.186,26.0,0.0,0.105,51.476,66.0,0.0,26.0,26.0,26.0,26.0,-0.16,0.51,0.11,379.3,-4.27,-3.49,-1.43,-1.28,-727.16,651.16,5.6,0.00,0.00,0.00,0.00,0.03,-7.49,-7.49,-1.15,7.02,0.06,-1.38,42.28,-0.03,-0.41,4.10,100.0,0,0,122.57,0,0,0.0,0,0,0,0,8216,0,30.00,3,152.2,1,0,0.0,0.0,0.0,0.0,0,0,1.053,1.053,68.261,30.987,1,110.00,435.8,8750,0.0,0.0,110.0,110.0,433.0,0.00,0,0,1,333.3,62.7,62.7,76.6,76.6,34.0,-58.78,13.29,-24.67,3.1,3,-204.300,4.3,100.0,28.3,27.0,27.8,28.3,0,1,100.0,0.00,0.00,0.00,0.00,6077,3653,5208,3438,311.1,314.2,342.4,346.7,27.20,23.37,26.35,24.87,325.0,325.0,355.0,355.0,100.00,99.90,100.00,99.97,-0.22,-0.15,-0.26,-0.09,-0.1,-0.0,3.0,3.2,96.0,72.0,84.4,75.2,93.2,68.5,81.8,73.8,89.6,66.0,80.4,71.9,85.8,64.5,79.4,70.9,0.26,-0.25,0.08,0.07,0.00,130.06,129.66,122.57,122.57,19.5,25.8,0.5457105459856901,148.36190486794848,46.45312069963558,18.00508525357145,3.6010169938118963
1.100,44.1,44.054255425728606,-78.681839504752432,-131.4,-140.2,330.1,282.0,5100.3,5100,153.1,0,1,1,0,1,1,0,0,0,100,1,1.186,26.0,0.0,0.108,51.476,66.0,0.0,26.0,26.0,26.0,26.0,-0.24,0.46,0.34,373.9,-2.99,-2.51,-1.98,-1.58,-726.51,649.09,5.6,0.00,0.00,0.00,0.00,0.03,-7.49,-7.49,-0.77,4.00,0.24,3.45,42.55,-0.07,-0.22,3.34,100.0,0,0,121.36,0,0,0.0,0,0,0,0,8135,0,30.00,3,153.1,0,0,0.0,0.0,0.0,0.0,1,0,1.104,1.104,68.261,30.987,0,110.00,435.8,8750,0.0,0.0,110.0,110.0,433.0,0.00,0,0,1,333.3,73.6,73.6,58.0,58.0,34.0,-32.74,3.14,-52.11,10.8,3,-204.350,3.6,100.0,21.8,20.0,44.3,42.5,0,1,100.0,0.00,0.00,0.00,0.00,4273,3239,5998,7022,315.3,316.6,340.1,336.6,27.20,23.36,26.35,24.87,325.0,325.0,355.0,355.0,100.00,99.90,100.00,99.97,-0.25,-0.22,-0.33,-0.13,-0.1,-0.1,1.3,1.7,96.0,72.0,84.4,75.2,93.1,68.5,81.8,73.8,89.6,65.9,80.4,71.9,85.8,64.5,79.4,70.9,0.22,-0.22,0.04,0.03,0.00,130.64,130.51,121.36,121.36,19.5,25.8,0.620322496770833,144.76088776033177,45.37281554458964,-28.808136519519394,-14.404068544271311
1.150,46.3,44.054237888957289,-78.681834018890640,-45.2,-9.8,29.1,-16.7,5102.4,5102,153.8,0,1,1,0,1,1,0,0,0,100,1,1.186,26.0,0.0,0.114,51.476,66.0,0.0,26.0,26.0,26.0,26.0,-0.19,0.43,-0.10,378.9,-1.66,-2.71,-2.39,-1.65,-725.90,647.14,5.6,0.00,0.00,0.00,0.00,0.03,-7.49,-7.49,-0.73,-0.67,0.23,-0.03,42.74,-0.08,-0.26,2.55,100.0,0,0,122.66,0,0,0.0,0,0,0,0,8223,0,30.00,3,153.8,1,0,0.0,0.0,0.0,0.0,1,0,1.151,1.151,68.261,30.987,1,110.00,435.8,8750,0.0,0.0,110.0,110.0,433.0,0.00,0,0,1,333.3,78.8,78.8,59.5,59.5,34.0,-11.34,1.50,-32.07,5.1,3,-204.400,2.8,100.0,19.5,19.5,45.8,41.6,0,1,100.0,0.00,0.00,0.00,0.00,2478,1469,4638,4547,318.8,320.4,343.2,343.4,27.20,23.36,26.34,24.87,325.0,325.0,355.0,355.0,100.00,99.90,100.00,99.97,-0.19,-0.23,-0.22,-0.15,-0.0,-0.0,2.0,2.1,96.0,72.0,84.4,75.2,93.0,68.4,81.8,73.8,89.5,65.9,80.4,71.9,85.7,64.4,79.4,70.9,0.16,-0.16,0.05,0.04,0.00,131.15,130.88,122.66,122.66,19.5,25.8,0.4806245936279166,145.48109121599654,45.01271384520845,108.03051351301235,21.606103100919043
1.200,48.4,44.054219093135721,-78.681828263232362,-155.7,-134.0,-102.9,-32.9,5104.6,5105,154.7,0,1,1,0,1,1,0,0,0,100,1,1.186,26.0,0.0,0.120,51.476,66.0,0.0,26.0,26.0,26.0,26.0,-0.11,0.45,-0.12,384.1,-1.94,-2.51,-0.89,-1.71,-725.26,645.05,5.5,0.00,0.00,0.00,0.00,0.03,-7.49,-7.49,-0.94,-7.87,0.15,-3.53,42.97,-0.09,-0.30,1.51,100.0,0,0,122.96,0,0,0.0,0,0,0,0,8243,0,30.00,3,154.7,0,0,0.0,0.0,0.0,0.0,1,0,1.203,1.203,68.261,30.987,0,110.00,435.8,8750,0.0,0.0,110.0,110.0,433.0,0.00,0,0,1,333.3,85.9,85.9,64.9,64.9,34.0,-14.57,2.46,-18.00,8.9,3,-204.450,2.0,100.0,11.7,12.8,40.6,40.0,0,1,100.0,0.00,0.00,0.00,0.00,2840,1721,4517,4406,318.4,320.5,343.0,343.3,27.19,23.36,26.34,24.87,325.0,325.0,355.0,355.0,100.00,99.90,100.00,99.97,-0.20,-0.16,-0.19,-0.09,-0.1,-0.1,2.0,2.1,96.0,72.0,84.4,75.2,92.9,68.4,81.7,73.8,89.4,65.9,80.4,71.9,85.6,64.4,79.4,70.9,0.13,-0.13,0.06,0.05,0.00,131.56,131.39,122.96,122.96,19.5,25.8,0.47853944456021597,155.563939111633,47.533425854681546,18.00508525357145,5.690236548616667e-07
1.250,50.6,44.054199038263910,-78.681822147845438,140.1,65.2,-241.3,-259.3,5106.7,5107,155.3,0,1,1,0,1,1,0,0,0,100,1,1.186,26.0,0.0,0.120,51.476,66.0,0.0,26.0,26.0,26.0,26.0,-0.11,0.39,-0.30,388.3,-2.02,-2.56,-0.99,-1.72,-724.58,642.82,5.5,0.00,0.00,0.00,0.00,0.03,-7.49,-7.49,-1.30,-3.13,0.07,0.61,43.16,-0.10,-0.45,2.44,100.0,0,0,125.45,0,0,0.0,0,0,0,0,8410,0,30.00,3,155.3,1,0,0.0,0.0,0.0,0.0,1,0,1.257,1.257,68.261,30.987,1,110.00,435.8,8750,0.0,0.0,110.0,110.0,433.0,0.00,0,0,1,166.7,77.6,77.6,82.0,82.0,34.0,-21.87,5.86,-11.07,2.6,3,-204.500,1.6,100.0,18.7,16.1,28.6,27.0,0,1,100.0,0.00,0.00,0.00,0.00,3794,2796,3308,2893,316.1,317.8,347.4,347.6,27.19,23.36,26.34,24.87,325.0,325.0,355.0,355.0,100.00,99.90,100.00,99.97,-0.21,-0.13,-0.27,-0.14,-0.1,-0.1,3.3,3.6,95.9,72.0,84.4,75.2,92.9,68.3,81.7,73.8,89.4,65.8,80.3,71.9,85.6,64.4,79.4,70.9,0.09,-0.10,0.08,0.08,0.00,132.36,132.07,125.45,125.45,19.5,25.8,0.5041825066382212,147.2815997413537,45.01271390211082,-75.62135943065755,-25.20712009473094
1.300,52.8,44.054182310882041,-78.681817021712277,171.8,194.7,-0.9,45.6,5108.9,5109,156.1,0,1,1,0,1,1,0,0,0,100,1,1.186,26.0,0.0,0.123,51.476,66.0,0.0,26.0,26.0,26.0,26.0,-0.20,0.46,0.39,378.0,-2.95,-2.78,-1.76,-1.54,-724.01,640.96,5.5,0.00,0.00,0.00,0.00,0.03,-7.49,-7.49,-1.25,4.55,0.13,0.21,43.37,-0.12,-0.47,2.77,100.0,0,0,124.52,0,0,0.0,0,0,0,0,8347,0,30.00,3,156.1,0,0,0.0,0.0,0.0,0.0,1,0,1.301,1.301,68.261,30.987,0,110.00,435.8,8750,0.0,0.0,110.0,110.0,433.0,0.00,0,0,1,333.3,62.4,62.4,75.8,75.8,34.0,-51.31,16.41,-35.32,4.3,3,-204.550,1.6,100.0,27.3,25.8,28.5,29.3,0,1,100.0,0.00,0.00,0.00,0.00,6018,4995,4941,4435,310.8,311.7,343.0,343.1,27.19,23.35,26.34,24.87,325.0,325.0,355.0,355.0,100.00,99.90,100.00,99.97,-0.26,-0.10,-0.35,-0.15,-0.1,-0.1,2.0,2.3,95.9,72.0,84.4,75.2,92.8,68.3,81.7,73.8,89.3,65.8,80.3,71.9,85.5,64.3,79.4,70.9,0.10,-0.09,0.08,0.08,0.00,133.37,133.15,124.52,124.52,19.5,25.8,0.635373905665003,148.00180316856725,45.01271384520845,104.4294962346882,25.20711895668356
1.350,54.9,44.054162076145907,-78.681810906325367,113.7,100.7,208.8,165.5,5111.1,5111,156.9,0,1,1,0,1,1,0,0,0,100,1,1.186,26.0,0.0,0.129,51.476,66.0,0.0,26.0,26.0,26.0,26.0,-0.20,0.44,0.56,369.1,-2.60,-3.35,-1.89,-1.02,-723.33,638.71,5.5,0.00,0.00,0.00,0.00,0.03,-7.49,-7.49,-0.75,12.78,0.18,0.79,43.61,-0.11,-0.32,2.28,100.0,0,0,124.53,0,0,0.0,0,0,0,0,8348,0,30.00,3,156.9,1,0,0.0,0.0,0.0,0.0,1,0,1.356,1.356,68.261,30.987,1,110.00,435.8,8750,0.0,0.0,110.0,110.0,433.0,0.00,0,0,1,166.7,59.3,59.3,60.5,60.5,34.0,-34.15,16.55,-57.40,1.7,3,-204.600,1.5,100.0,33.0,30.9,39.0,37.6,0,1,100.0,0.00,0.00,0.00,0.00,4805,4539,6523,7758,313.3,312.9,339.1,335.9,27.19,23.35,26.34,24.87,325.0,325.0,355.0,355.0,100.00,99.90,100.00,99.97,-0.21,-0.13,-0.35,-0.14,-0.1,-0.0,1.4,1.6,95.9,72.0,84.4,75.2,92.8,68.3,81.7,73.8,89.3,65.8,80.3,71.9,85.5,64.3,79.3,70.9,0.11,-0.08,0.06,0.03,0.00,134.29,134.07,124.53,124.53,19.5,25.8,0.7397296803562772,157.7245493648225,47.533425797779174,-28.808136804030937,-18.005084969059766
1.400,57.1,44.054142920595702,-78.681805150667088,-301.4,-219.9,267.8,251.5,5113.3,5113,157.7,0,1,1,0,1,1,0,0,0,100,1,1.186,26.0,0.0,0.132,51.476,66.0,0.0,26.0,26.0,26.0,26.0,-0.18,0.49,0.23,370.1,-2.75,-3.01,-1.58,-1.81,-722.69,636.58,5.5,0.00,0.00,0.00,0.00,0.03,-7.49,-7.49,-0.31,2.93,0.18,-1.45,43.83,-0.08,-0.15,0.81,100.0,0,0,124.71,0,0,0.0,0,0,0,0,8360,0,30.00,3,157.7,0,0,0.0,0.0,0.0,0.0,1,0,1.407,1.407,68.261,30.987,0,110.00,435.8,8750,0.0,0.0,110.0,110.0,433.0,0.00,0,0,1,166.7,78.0,78.0,43.9,43.9,34.0,-21.75,6.93,-54.77,26.8,3,-204.650,1.4,100.0,17.9,19.9,52.3,50.1,0,1,100.0,0.00,0.00,0.00,0.00,3653,2863,7994,9058,317.0,318.1,335.4,332.2,27.18,23.35,26.34,24.87,325.0,325.0,355.0,355.0,100.00,99.90,100.00,99.97,-0.17,-0.15,-0.21,-0.09,-0.1,-0.0,1.3,1.4,95.9,71.9,84.4,75.2,92.7,68.3,81.7,73.8,89.2,65.8,80.3,71.9,85.4,64.3,79.3,70.9,0.09,-0.09,0.03,0.02,0.00,134.42,134.39,124.71,124.71,19.5,25.8,0.5704384278780664,145.12098948816416,43.212205348302476,-118.8335644944479,-43.212205063790634
1.450,59.3,44.054125833485188,-78.681800114466085,73.8,7.2,-67.5,-105.6,5115.5,5115,158.3,0,1,1,0,1,1,0,0,0,100,1,1.186,26.0,0.0,0.135,51.476,66.0,0.0,26.0,26.0,26.0,26.0,-0.15,0.36,0.14,373.7,-3.27,-3.27,-1.76,-1.69,-722.13,634.68,5.5,0.00,0.00,0.00,0.00,0.04,-7.49,-7.49,-0.34,-0.72,0.20,2.62,44.00,-0.05,-0.29,1.13,100.0,0,0,125.92,0,0,0.0,0,0,0,0,8441,0,30.00,3,158.3,1,0,0.0,0.0,0.0,0.0,1,0,1.451,1.451,68.261,30.987,1,110.00,435.8,8750,0.0,0.0,110.0,110.0,433.0,0.00,0,0,1,333.3,69.9,69.9,58.7,58.7,34.0,-49.88,14.09,-19.25,11.0,3,-204.700,1.4,100.0,21.6,20.2,49.0,44.8,0,1,88.7,0.00,0.00,0.00,0.00,6076,3891,3939,5516,311.4,313.6,344.8,341.7,27.18,23.35,26.34,24.87,325.0,325.0,355.0,355.0,100.00,99.90,100.00,99.97,-0.22,-0.12,-0.14,-0.10,-0.1,-0.1,1.8,1.8,95.9,71.9,84.4,75.2,92.6,68.2,81.7,73.8,89.2,65.7,80.3,71.9,85.4,64.3,79.3,70.9,0.09,-0.09,0.05,0.02,0.00,134.94,134.85,125.92,125.92,19.5,25.8,0.4143669871020132,145.84119291537772,43.21220529140011,104.42949595017637,25.20711895668363
1.500,61.5,44.054106498070659,-78.681794358807821,74.9,-1.3,-182.0,-71.0,5117.7,5118,158.9,0,1,1,0,1,1,0,0,0,100,1,1.186,26.0,0.0,0.138,51.476,66.0,0.0,26.0,26.0,26.0,26.0,-0.12,0.19,0.26,376.0,-1.74,-2.99,-2.42,-1.97,-721.49,632.53,5.5,0.00,0.00,0.00,0.00,0.04,-7.49,-7.49,-0.29,0.89,0.33,4.77,44.15,-0.03,-0.30,1.19,100.0,0,0,125.09,0,0,0.0,0,0,0,0,8385,0,30.00,3,158.9,0,0,0.0,0.0,0.0,0.0,1,0,1.503,1.503,68.261,30.987,0,110.00,435.8,8750,0.0,0.0,110.0,110.0,433.0,0.00,0,0,1,333.3,69.5,69.5,65.1,65.1,34.0,-22.91,14.18,-47.54,18.4,3,-204.750,1.2,100.0,25.4,20.2,39.9,41.3,0,1,37.7,0.00,0.00,0.00,0.00,4680,3812,5872,5409,313.6,314.9,341.0,341.6,27.18,23.35,26.34,24.87,325.0,325.0,355.0,355.0,100.00,99.90,100.00,99.97,-0.14,-0.07,-0.20,-0.06,-0.0,-0.1,0.9,1.0,95.9,71.9,84.4,75.2,92.6,68.2,81.6,73.8,89.1,65.7,80.3,71.9,85.3,64.2,79.3,70.9,0.07,-0.07,0.07,0.04,0.00,135.54,135.34,125.09,125.09,19.5,25.8,0.3436568055487917,155.5639390831818,45.73291724397084,97.22746167804075,21.6061031009189
1.550,63.7,44.054086982791816,-78.681788693081700,10.3,93.0,6.6,-2.4,5119.9,5120,159.0,0,1,1,0,1,1,0,0,0,100,1,1.186,26.0,0.0,0.144,51.476,66.0,0.0,26.0,26.0,26.0,26.0,-0.08,-0.21,0.00,376.7,-2.51,-2.95,-2.06,-1.55,-720.86,630.36,5.5,0.00,0.00,0.00,0.00,0.04,-7.49,-7.49,-0.27,0.52,0.53,2.18,44.15,-0.02,-0.41,0.91,100.0,0,0,123.53,0,0,0.0,0,0,0,0,8281,0,30.00,3,159.0,1,0,0.0,0.0,0.0,0.0,1,0,1.554,1.554,68.261,30.987,1,110.00,435.8,8750,0.0,0.0,110.0,110.0,433.0,0.00,0,0,1,333.3,67.7,67.7,61.9,61.9,34.0,-14.30,20.62,-33.23,9.2,3,-204.800,0.7,100.0,25.9,24.8,40.2,41.2,0,1,0.0,0.00,0.00,0.00,0.00,3097,4646,4948,3608,317.1,312.7,342.8,345.5,27.17,23.34,26.34,24.87,325.0,325.0,355.0,355.0,100.00,99.90,100.00,99.97,-0.06,-0.02,-0.14,-0.05,-0.0,-0.0,-0.4,-0.4,95.8,71.9,84.3,75.2,92.5,68.2,81.6,73.7,89.0,65.7,80.2,71.8,85.3,64.2,79.3,70.9,0.06,-0.04,0.06,0.04,0.00,135.48,135.41,123.53,123.53,19.5,25.8,0.22472205054244232,155.5639390831818,45.372815601492,-50.414239335926254,-14.40406797524787
1.600,65.9,44.054067647377288,-78.681783027355578,-103.3,61.5,-0.1,-17.8,5122.1,5122,158.6,0,1,1,0,1,1,0,0,0,100,1,1.186,26.0,0.0,0.147,51.476,66.0,0.0,26.0,26.0,26.0,26.0,-0.01,-0.19,0.31,376.6,-2.64,-2.24,-2.46,-1.26,-720.23,628.21,5.5,0.00,0.00,0.00,0.00,0.04,-7.49,-7.49,-0.36,-3.19,0.52,-6.27,44.04,-0.02,-0.52,0.53,100.0,0,0,123.10,0,0,0.0,0,0,0,0,8252,0,30.00,3,158.6,0,0,0.0,0.0,0.0,0.0,0,0,1.604,1.604,68.261,30.987,0,110.00,435.8,8750,0.0,0.0,110.0,110.0,433.0,0.00,0,0,1,166.7,66.1,66.1,58.7,58.7,34.0,-18.08,30.36,-24.24,12.2,3,-204.850,0.7,100.0,20.7,27.9,40.2,40.3,0,1,0.0,0.00,0.00,0.00,0.00,3885,6312,3949,3555,315.8,308.2,345.0,345.0,27.17,23.34,26.33,24.87,325.0,325.0,355.0,355.0,100.00,99.90,100.00,99.97,-0.04,0.06,-0.06,0.05,-0.1,-0.0,-0.4,-0.4,95.8,71.9,84.3,75.2,92.4,68.1,81.5,73.7,89.0,65.6,80.2,71.8,85.2,64.2,79.2,70.8,0.04,-0.03,0.06,0.05,0.00,135.07,135.09,123.10,123.10,19.5,25.8,0.3637306695894642,150.52251514958917,44.29251044644605,-50.414239335926254,-10.803051550459486
1.650,68.1,44.054049391148688,-78.681777631425945,269.4,192.4,-81.7,-208.6,5124.3,5124,158.2,0,1,1,0,1,1,0,0,0,100,1,1.186,26.0,0.0,0.150,51.476,66.0,0.0,26.0,26.0,26.0,26.0,-0.02,-0.28,0.39,371.4,-2.65,-1.88,-1.13,-1.03,-719.63,626.18,5.5,0.00,0.00,0.00,0.00,0.04,-7.49,-7.49,-0.28,7.55,0.03,-9.70,43.92,-0.02,-0.59,0.31,100.0,0,0,123.09,0,0,0.0,0,0,0,0,8252,0,30.00,3,158.2,1,0,0.0,0.0,0.0,0.0,0,0,1.653,1.653,68.261,30.987,1,110.00,435.8,8750,0.0,0.0,110.0,110.0,433.0,0.00,0,0,1,333.3,47.1,47.1,68.7,68.7,34.0,-52.12,37.39,-7.87,20.9,3,-204.900,1.0,100.0,34.2,37.5,36.1,29.9,0,1,0.0,0.00,0.00,0.00,0.00,7872,7708,3276,4752,306.1,304.8,347.5,343.2,27.17,23.34,26.33,24.86,325.0,325.0,355.0,355.0,100.00,99.90,100.00,99.97,-0.11,0.09,-0.02,0.15,-0.1,-0.0,-0.5,-0.5,95.8,71.9,84.3,75.2,92.4,68.1,81.5,73.7,88.9,65.6,80.1,71.8,85.1,64.2,79.2,70.8,0.08,-0.01,0.06,0.07,0.00,135.21,135.03,123.09,123.09,19.5,25.8,0.48052055106935854,150.52251514958917,44.29251044644605,39.61118806997888,7.202033987624006
1.700,70.3,44.054030055734160,-78.681771965699824,151.7,-7.3,180.1,303.1,5126.5,5126,157.7,0,1,1,0,1,1,0,0,0,100,1,1.186,26.0,0.0,0.156,51.476,66.0,0.0,26.0,26.0,26.0,26.0,-0.03,-0.24,0.82,364.4,-2.86,-2.77,-1.67,-1.72,-719.00,624.03,5.5,0.00,0.00,0.00,0.00,0.04,-7.49,-7.49,0.41,15.55,-0.28,-3.09,43.80,-0.04,-0.44,1.19,100.0,0,0,123.06,0,0,0.0,0,0,0,0,8249,0,30.00,3,157.7,0,0,0.0,0.0,0.0,0.0,0,0,1.704,1.704,68.261,30.987,0,110.00,435.8,8750,0.0,0.0,110.0,110.0,433.0,0.00,0,0,1,333.3,49.9,49.9,54.0,54.0,34.0,-29.16,27.15,-43.58,24.0,3,-204.950,0.6,100.0,41.8,37.1,45.1,45.0,0,1,0.0,0.00,0.00,0.00,0.00,4754,5421,6606,5552,313.0,309.4,339.0,340.9,27.17,23.34,26.33,24.86,325.0,325.0,355.0,355.0,100.00,99.90,100.00,99.97,-0.10,0.01,-0.16,0.02,0.0,-0.0,-0.4,-0.3,95.8,71.9,84.3,75.2,92.3,68.1,81.5,73.6,88.9,65.6,80.1,71.7,85.1,64.2,79.1,70.8,0.11,-0.01,0.04,0.04,0.00,134.90,134.93,123.06,123.06,19.5,25.8,0.8549268974596599,154.48363395658706,45.01271384520845,-10.803051265947374,-7.202034556647519
1.750,72.5,44.054010810251796,-78.681766389905874,-430.5,-416.2,256.1,101.8,5128.7,5129,157.3,0,1,1,0,1,1,0,0,0,100,1,1.186,26.0,0.0,0.159,51.476,66.0,0.0,26.0,26.0,26.0,26.0,-0.12,-0.21,0.09,375.0,-2.46,-2.36,-1.71,-1.81,-718.38,621.89,5.6,0.00,0.00,0.00,0.00,0.04,-7.49,-7.49,0.86,0.19,-0.22,7.74,43.69,-0.03,-0.26,0.43,100.0,0,0,122.47,0,0,0.0,0,0,0,0,8210,0,30.00,3,157.3,1,0,0.0,0.0,0.0,0.0,0,0,1.756,1.756,68.261,30.987,1,110.00,435.8,8750,0.0,0.0,110.0,110.0,433.0,0.00,0,0,1,166.7,82.9,82.9,45.1,45.1,34.0,-9.05,0.44,-48.37,25.2,3,-205.000,-0.3,100.0,20.3,16.3,57.9,50.1,0,1,0.0,0.00,0.00,0.00,0.00,2201,372,7423,7184,319.3,323.7,336.6,337.3,27.16,23.34,26.33,24.86,325.0,325.0,355.0,355.0,100.00,99.90,100.00,99.97,-0.05,-0.13,-0.13,-0.07,0.0,0.1,-0.3,-0.2,95.8,71.9,84.3,75.2,92.3,68.1,81.4,73.6,88.8,65.6,80.1,71.7,85.0,64.1,79.1,70.7,-0.01,0.01,0.02,0.03,0.00,134.03,134.03,122.47,122.47,19.5,25.8,0.2580697580112788,149.44221002299443,43.5723069907813,-54.01525632973858,-14.40406797524787
1.800,74.7,44.053992733887512,-78.681761083908398,-173.2,-129.2,-396.6,-160.4,5130.8,5131,157.0,0,1,1,0,1,1,0,0,0,100,1,1.186,26.0,0.0,0.162,51.476,66.0,0.0,26.0,26.0,26.0,26.0,-0.06,-0.19,-0.53,391.5,-2.23,-2.22,-1.99,-1.57,-717.79,619.88,5.6,0.00,0.00,0.00,0.00,0.04,-7.49,-7.49,0.47,-11.73,0.07,3.93,43.61,-0.01,-0.43,0.12,100.0,0,0,121.62,0,0,0.0,0,0,0,0,8153,0,30.00,3,157.0,0,0,0.0,0.0,0.0,0.0,0,0,1.803,1.803,68.261,30.987,0,110.00,435.8,8750,0.0,0.0,110.0,110.0,433.0,0.00,0,0,1,333.3,89.5,89.5,74.3,74.3,34.0,-5.10,2.54,-12.65,6.8,3,-205.050,-0.8,100.0,11.6,9.9,38.1,42.1,0,1,0.0,0.00,0.00,0.00,0.00,1615,1039,2688,2846,320.9,322.1,348.5,348.1,27.16,23.34,26.33,24.86,325.0,325.0,355.0,355.0,100.00,99.90,100.00,99.97,-0.02,-0.01,-0.08,-0.05,0.0,0.1,-0.6,-0.6,95.7,71.8,84.3,75.1,92.2,68.0,81.4,73.6,88.7,65.5,80.0,71.7,85.0,64.1,79.0,70.7,-0.04,0.03,0.07,0.05,0.00,133.40,133.38,121.62,121.62,19.5,25.8,0.5662155066756827,149.0821083236132,43.572307047683665,-7.2020342721361885,-3.6010169938118963
1.850,76.9,44.053973578337306,-78.681755508114435,30.7,148.6,-355.0,-379.0,5133.0,5133,156.6,0,1,1,0,1,1,0,0,0,100,1,1.186,26.0,0.0,0.168,51.476,66.0,0.0,26.0,26.0,26.0,26.0,-0.01,-0.26,-0.31,394.0,-2.30,-1.69,-1.75,-1.76,-717.17,617.75,5.6,0.00,0.00,0.00,0.00,0.05,-7.49,-7.49,-0.11,-8.98,0.18,-1.41,43.50,0.00,-0.59,-0.04,100.0,0,0,121.10,0,0,0.0,0,0,0,0,8118,0,30.00,3,156.6,1,0,0.0,0.0,0.0,0.0,0,0,1.854,1.854,68.261,30.987,1,110.00,435.8,8750,0.0,0.0,110.0,110.0,433.0,0.00,0,0,1,333.3,76.2,76.2,86.2,86.2,34.0,-19.10,22.91,-8.98,11.2,3,-205.100,0.1,100.0,13.1,17.3,20.3,23.1,0,1,0.0,0.00,0.00,0.00,0.00,4033,5272,2209,2542,315.8,311.1,349.7,348.2,27.16,23.33,26.33,24.86,325.0,325.0,355.0,355.0,100.00,99.90,100.00,99.97,-0.09,0.11,-0.09,0.09,-0.1,-0.1,-0.7,-0.7,95.7,71.8,84.3,75.1,92.1,68.0,81.3,73.5,88.7,65.5,79.9,71.6,84.9,64.0,79.0,70.7,0.02,-0.01,0.10,0.09,0.00,133.21,133.39,121.09,121.09,19.5,25.8,0.40472212689696124,148.7220065957808,43.21220529140011,-3.601017278323866,-7.202034556647519
1.900,79.0,44.053955591905186,-78.681750292049131,320.2,208.7,-38.2,-103.4,5135.2,5135,156.2,0,1,1,0,1,1,0,0,0,100,1,1.186,26.0,0.0,0.174,51.476,66.0,0.0,26.0,26.0,26.0,26.0,-0.04,-0.29,0.02,386.4,-2.94,-1.95,-1.22,-0.66,-716.59,615.75,5.7,0.00,0.00,0.00,0.00,0.05,-7.49,-7.49,-0.22,3.75,0.07,-1.34,43.38,0.02,-0.62,0.41,100.0,0,0,121.13,0,0,0.0,0,0,0,0,8120,0,30.00,3,156.2,0,0,0.0,0.0,0.0,0.0,0,0,1.901,1.901,68.261,30.987,0,110.00,435.8,8750,0.0,0.0,110.0,110.0,433.0,0.00,0,0,1,166.7,59.0,59.0,89.3,89.3,34.0,-35.48,24.89,-8.83,9.6,3,-205.150,1.8,100.0,29.1,27.7,18.4,18.0,0,1,0.0,0.00,0.00,0.00,0.00,5621,6145,2673,3260,311.6,308.8,348.6,346.9,27.15,23.33,26.33,24.86,325.0,325.0,355.0,355.0,100.00,99.90,100.00,99.97,-0.09,0.04,-0.09,0.14,-0.0,-0.1,-0.8,-0.8,95.7,71.8,84.3,75.1,92.1,68.0,81.3,73.5,88.6,65.5,79.9,71.6,84.8,64.0,78.9,70.6,0.09,-0.09,0.10,0.08,0.00,133.29,133.31,121.13,121.13,19.5,25.8,0.2934280150224242,148.7220065957808,42.85210359201891,86.4244104120931,21.6061031009189
1.950,81.2,44.053936436354981,-78.681744806187325,124.2,58.9,360.5,321.2,5137.3,5137,155.8,0,1,1,0,1,1,0,0,0,100,1,1.186,26.0,0.0,0.177,51.476,66.0,0.0,26.0,26.0,26.0,26.0,-0.15,-0.22,0.45,374.7,-2.67,-2.94,-1.80,-0.89,-715.98,613.62,5.7,0.00,0.00,0.00,0.00,0.05,-7.49,-7.49,0.18,9.41,-0.05,1.33,43.26,0.03,-0.51,1.24,100.0,0,0,121.26,0,0,0.0,0,0,0,0,8129,0,30.00,3,155.8,1,0,0.0,0.0,0.0,0.0,0,0,1.953,1.953,68.261,30.987,1,110.00,435.8,8750,0.0,0.0,110.0,110.0,433.0,0.00,0,0,1,166.7,56.7,56.7,71.2,71.2,34.0,-48.35,13.42,-31.45,11.1,3,-205.190,3.3,100.0,35.4,30.7,36.5,34.0,0,1,0.0,0.00,0.00,0.00,0.00,6736,3632,5159,4034,308.8,315.0,342.2,345.3,27.15,23.33,26.32,24.86,325.0,325.0,355.0,355.0,100.00,99.90,100.00,99.97,-0.17,-0.07,-0.13,0.07,0.0,0.0,-0.4,-0.5,95.7,71.8,84.3,75.1,92.0,68.0,81.2,73.5,88.6,65.5,79.8,71.5,84.8,64.0,78.9,70.6,0.20,-0.17,0.06,0.06,0.00,133.15,132.98,121.26,121.26,19.5,25.8,0.5228766584960548,157.36444763699012,45.372815601492,-10.803051550459486,-3.6010169938119674
2.000,83.4,44.053916291551012,-78.681738960596888,-281.6,-297.9,149.4,237.1,5139.5,5139,155.4,0,1,1,0,1,1,0,0,0,100,1,1.186,26.0,0.0,0.183,51.476,66.0,0.0,26.0,26.0,26.0,26.0,-0.16,-0.22,-0.07,380.7,-3.12,-1.94,-1.82,-1.22,-715.33,611.38,5.7,0.00,0.00,0.00,0.00,0.05,-7.49,-7.49,0.47,-0.84,0.23,6.30,43.15,0.03,-0.35,1.78,100.0,0,0,120.85,0,0,0.0,0,0,0,0,8101,0,30.00,3,155.4,0,0,0.0,0.0,0.0,0.0,0,0,2.007,2.007,68.261,30.987,0,110.00,435.8,8750,0.0,0.0,110.0,110.0,433.0,0.00,0,0,1,166.7,81.9,81.9,61.3,61.3,34.0,-11.98,-0.12,-43.54,12.4,3,-205.250,4.5,100.0,21.3,15.8,43.9,45.9,0,1,0.0,0.00,0.00,0.00,0.00,1993,955,6376,5167,320.1,322.8,339.2,341.7,27.15,23.33,26.32,24.86,325.0,325.0,355.0,355.0,100.00,99.90,100.00,99.97,-0.18,-0.24,-0.15,-0.03,0.1,0.1,-0.4,-0.3,95.7,71.8,84.3,75.1,91.9,67.9,81.2,73.4,88.5,65.4,79.8,71.5,84.7,64.0,78.8,70.6,0.26,-0.26,0.04,0.04,0.00,132.36,132.31,120.84,120.84,19.5,25.8,0.28089143810376277,147.64170144073486,42.49200189263772,-144.04068402015497,-43.21220563281429
2.050,85.5,44.053899564169143,-78.681734194192373,-261.3,-36.7,-127.0,-166.2,5141.7,5142,155.1,0,1,1,0,1,1,0,0,0,100,1,1.186,26.0,0.0,0.186,51.476,66.0,0.0,26.0,26.0,26.0,26.0,-0.04,-0.18,-0.54,391.4,-3.08,-2.00,-0.90,-1.30,-714.80,609.52,5.8,0.00,0.00,0.00,0.00,0.05,-7.49,-7.49,0.17,-9.73,0.39,-0.93,43.06,0.01,-0.42,1.29,100.0,0,0,120.22,0,0,0.0,0,0,0,0,8059,0,30.00,3,155.1,1,0,0.0,0.0,0.0,0.0,0,0,2.051,2.051,68.261,30.987,1,110.00,435.8,8750,0.0,0.0,110.0,110.0,433.0,0.00,0,0,1,333.3,89.7,89.7,66.6,66.6,34.0,-3.22,0.82,-8.92,7.9,3,-205.300,4.7,100.0,8.2,13.9,37.6,37.6,0,1,0.0,0.00,0.00,0.00,0.00,668,1965,3135,2922,323.5,319.7,346.7,347.5,27.14,23.32,26.32,24.86,325.0,325.0,355.0,355.0,100.00,99.90,100.00,99.97,-0.26,-0.20,-0.07,0.01,0.0,0.0,-0.5,-0.4,95.6,71.8,84.3,75.1,91.9,67.9,81.1,73.4,88.4,65.4,79.8,71.5,84.7,63.9,78.8,70.5,0.29,-0.27,0.07,0.06,0.00,131.88,131.74,120.22,120.22,19.5,25.8,0.5706137047074842,142.96037923497462,41.05159503821057,39.61118835449071,10.803050981435831
2.100,87.7,44.053880588483253,-78.681728708330581,146.1,100.5,-337.1,-248.6,5143.8,5144,154.7,0,1,1,0,1,1,0,0,0,100,1,1.186,26.0,0.0,0.192,51.476,66.0,1.7,26.0,26.0,26.0,26.0,-0.09,-0.23,-0.30,392.9,-2.75,-2.02,-1.18,-1.35,-714.19,607.41,5.8,0.00,0.00,0.00,0.00,0.05,-7.49,-7.49,-0.29,-5.98,0.14,-10.67,42.96,-0.02,-0.56,2.63,100.0,0,0,119.65,0,0,0.0,0,0,0,0,8021,0,30.00,3,154.7,0,0,0.0,0.0,0.0,0.0,1,0,2.103,2.103,68.261,30.987,0,110.00,435.8,8750,0.0,0.0,110.0,110.0,433.0,0.00,0,0,1,333.3,75.9,75.9,86.0,86.0,34.0,-24.35,7.92,-8.97,6.3,3,-205.350,4.5,100.0,15.5,19.0,20.7,25.1,0,1,0.0,0.00,0.00,0.00,0.00,3632,4057,2855,1961,316.5,314.0,348.7,349.5,27.14,23.32,26.32,24.86,325.0,325.0,355.0,355.0,100.00,99.90,100.00,99.97,-0.21,-0.09,-0.09,0.07,-0.1,-0.1,-0.9,-0.7,95.6,71.8,84.2,75.1,91.8,67.9,81.1,73.3,88.3,65.4,79.7,71.4,84.6,63.9,78.7,70.5,0.27,-0.27,0.09,0.08,0.00,131.69,131.44,119.65,119.65,19.5,25.8,0.38858718455450897,151.60282027618393,43.5723069907813,39.61118778546705,3.6010169938120384
2.150,89.8,44.053861702729534,-78.681723312400948,158.5,65.4,86.0,-97.9,5145.9,5146,154.1,0,1,1,0,1,1,0,0,0,100,1,1.186,26.0,0.0,0.195,51.476,66.0,11.7,26.0,26.0,26.0,26.0,-0.15,-0.38,-0.06,387.7,-2.10,-2.89,-1.19,-1.86,-713.59,605.31,5.8,0.00,0.00,0.00,0.00,0.05,-7.49,-7.49,-0.40,-0.06,-0.34,-6.48,42.80,-0.07,-0.55,2.42,100.0,0,0,119.45,0,0,0.0,0,0,0,0,8008,0,30.00,3,154.1,1,0,0.0,0.0,0.0,0.0,1,0,2.154,2.154,68.261,30.987,1,110.00,435.8,8750,0.0,0.0,110.0,110.0,433.0,0.00,0,0,1,333.3,69.9,69.9,81.5,81.5,34.0,-31.52,7.11,-27.14,13.0,3,-205.400,3.4,100.0,23.4,22.2,25.0,20.2,0,1,0.0,0.00,0.00,0.00,0.00,5032,3062,4572,3256,313.4,316.2,343.7,346.7,27.14,23.32,26.32,24.85,325.0,325.0,355.0,355.0,100.00,99.90,100.00,99.97,-0.22,-0.16,-0.24,0.02,-0.5,-0.5,-0.7,-0.6,95.6,71.8,84.2,75.1,91.7,67.8,81.0,73.3,88.3,65.4,79.7,71.4,84.6,63.9,78.7,70.4,0.21,-0.21,0.08,0.11,0.00,130.89,130.36,119.45,119.45,19.5,25.8,0.4129164564412515,146.92149801352133,41.411696737591775,-54.015256614250404,-25.207119525707284
2.200,91.9,44.053843896161737,-78.681718366132117,-125.3,-73.7,157.1,103.5,5148.1,5148,153.4,0,1,1,0,1,1,0,0,0,100,1,1.186,26.0,0.0,0.201,51.476,66.0,24.7,26.0,26.0,26.0,26.0,-0.07,-0.54,-0.22,387.8,-2.60,-2.99,-0.78,-2.56,-713.04,603.33,5.8,0.00,0.00,0.00,0.00,0.05,-7.49,-7.49,-0.48,-4.75,-0.39,-0.21,42.58,-0.10,-0.55,2.18,100.0,0,0,118.53,0,0,0.0,0,0,0,0,7946,0,30.00,3,153.4,0,0,0.0,0.0,0.0,0.0,1,0,2.201,2.201,68.261,30.987,0,110.00,435.8,8750,0.0,0.0,110.0,110.0,433.0,0.00,0,0,1,333.3,77.9,77.9,73.1,73.1,34.0,-18.63,5.26,-20.32,19.2,3,-205.450,2.6,100.0,17.2,18.6,32.9,25.4,0,1,0.0,0.00,0.00,0.00,0.00,3331,3101,3618,4197,317.8,316.5,345.7,343.6,27.13,23.32,26.31,24.85,325.0,325.0,355.0,355.0,100.00,99.90,100.00,99.97,-0.23,-0.20,-0.31,-0.08,-1.6,-1.2,-0.8,-0.6,95.6,71.7,84.2,75.1,91.7,67.8,81.0,73.3,88.2,65.3,79.6,71.4,84.5,63.9,78.7,70.4,0.16,-0.17,0.07,0.07,0.00,128.65,128.63,118.53,118.53,19.5,25.8,0.587281874401041,146.2012946147589,41.05159503821057,18.005085822594822,7.202034556647519
2.250,94.0,44.053825190272335,-78.681713060134641,173.0,91.4,-117.9,-58.2,5150.2,5150,152.0,0,1,1,0,1,1,0,0,0,100,1,1.186,26.0,0.0,0.204,51.476,66.0,61.5,26.0,26.0,26.0,26.0,-0.09,-0.98,-0.16,387.2,-2.46,-2.52,-1.08,-1.89,-712.45,601.25,5.8,0.00,0.00,0.00,0.00,0.06,-7.49,-7.49,-0.69,-1.72,-0.37,1.95,42.18,-0.11,-0.67,3.03,100.0,0,0,115.67,0,0,0.0,0,0,0,0,7754,0,30.00,3,152.0,1,0,0.0,0.0,0.0,0.0,1,0,2.253,2.253,68.261,30.987,1,110.00,435.8,8750,0.0,0.0,110.0,110.0,433.0,0.00,0,0,1,333.3,67.2,67.2,84.8,84.8,34.0,-21.16,6.85,-7.34,3.8,3,-205.500,1.6,100.0,25.8,23.1,27.0,22.5,0,1,0.0,0.00,0.00,0.00,0.00,4355,4536,1794,2788,315.0,312.8,350.6,348.0,27.13,23.32,26.31,24.85,325.0,325.0,355.0,355.0,100.00,99.90,100.00,99.97,-0.22,-0.14,-0.34,-0.15,-2.6,-2.8,-2.5,-2.1,95.6,71.7,84.2,75.1,91.6,67.8,80.9,73.2,88.2,65.3,79.6,71.3,84.5,63.9,78.6,70.4,0.11,-0.11,0.10,0.09,0.00,125.41,125.21,115.67,115.67,19.5,25.8,0.9970456358662826,148.7220065957808,42.13190019325653,-43.21220506379035,-10.803050981435831
2.300,96.1,44.053806754179412,-78.681707844069322,9.1,48.8,-1.5,28.7,5152.3,5152,149.2,0,1,1,0,1,1,0,0,0,100,1,1.186,26.0,0.0,0.207,51.476,66.0,100.0,26.0,26.0,26.0,26.0,-0.14,-1.71,0.05,383.7,-2.50,-2.22,-1.74,-1.40,-711.87,599.20,5.8,0.00,0.00,0.00,0.00,0.06,-7.49,-7.49,-0.76,-2.80,-0.46,-3.25,41.40,-0.16,-0.70,2.18,100.0,0,0,113.07,0,0,0.0,0,0,0,0,7580,0,30.00,3,149.2,0,0,0.0,0.0,0.0,0.0,1,0,2.304,2.304,68.261,30.987,0,110.00,435.8,8750,0.0,0.0,110.0,110.0,433.0,0.00,0,0,1,333.3,65.0,65.0,77.4,77.4,34.0,-3.85,0.95,-30.15,1.8,3,-205.550,0.8,100.0,26.3,25.6,26.9,23.9,0,1,0.0,0.00,0.00,0.00,0.00,4349,5181,4272,3205,314.7,311.3,344.3,346.6,27.13,23.31,26.31,24.85,325.0,325.0,355.0,355.0,100.00,99.90,100.00,99.97,-0.20,-0.13,-0.42,-0.15,-7.3,-8.0,-2.6,-2.8,95.5,71.7,84.2,75.1,91.6,67.9,80.9,73.2,88.2,65.4,79.5,71.3,84.5,63.9,78.6,70.3,0.06,-0.06,0.09,0.09,0.00,116.88,116.32,113.31,112.83,19.5,25.8,1.7164498244924027,141.88007410837986,39.97128994006699,-93.62644468422872,-36.010171645190425
2.350,98.2,44.053789757001056,-78.681703077664807,-38.4,-13.6,-4.0,-46.9,5154.3,5154,146.5,0,1,1,0,1,1,0,0,0,100,1,1.186,26.0,0.0,0.207,51.476,66.0,100.0,26.0,26.0,26.0,26.0,-0.15,-1.64,-0.10,386.3,-3.25,-3.39,-1.18,-2.50,-711.34,597.31,5.8,0.00,0.00,0.00,0.00,0.06,-7.49,-7.49,-0.96,-5.31,-0.64,-3.59,40.65,-0.17,-0.79,1.14,100.0,0,0,109.44,0,0,0.0,0,0,0,0,7337,0,30.00,3,146.5,1,0,0.0,0.0,0.0,0.0,1,0,2.351,2.351,68.261,30.987,1,110.00,435.8,8750,0.0,0.0,110.0,110.0,433.0,0.00,0,0,1,333.3,67.2,67.2,83.1,83.1,34.0,-25.56,-0.13,-13.77,3.6,3,-205.590,0.3,100.0,24.4,24.9,26.7,21.6,0,1,0.0,0.00,0.00,0.00,0.00,5854,3256,3529,2420,311.6,316.1,346.3,348.4,27.12,23.31,26.31,24.85,325.0,325.0,355.0,355.0,100.00,99.91,100.00,99.97,-0.28,-0.19,-0.37,-0.15,-4.4,-10.3,-4.0,-4.2,95.5,71.7,84.2,75.0,91.7,68.0,80.9,73.2,88.3,65.5,79.5,71.3,84.5,64.0,78.6,70.3,0.03,-0.03,0.09,0.09,0.00,118.66,110.00,109.78,109.12,19.5,25.8,1.6498787834262247,139.35936212735794,38.530883028737485,-10.803051550459486,-10.80305211948314
2.400,100.1,44.053771950433259,-78.681698221328148,301.1,136.9,-138.5,-50.9,5156.3,5156,143.4,0,1,1,0,1,1,0,0,0,100,1,1.186,26.0,0.0,0.210,51.476,66.0,100.0,26.0,26.0,26.0,26.0,-0.11,-1.59,0.30,382.8,-2.09,-3.05,-0.26,-1.38,-710.80,595.33,5.8,0.00,0.00,0.00,0.00,0.06,-7.49,-7.49,-1.14,1.90,-0.64,2.97,39.77,-0.14,-0.96,2.54,100.0,0,0,104.03,0,0,0.0,0,0,0,0,6974,0,30.00,3,143.4,0,0,0.0,0.0,0.0,0.0,1,0,2.403,2.403,68.261,30.987,0,110.00,435.8,8750,0.0,0.0,110.0,110.0,433.0,0.00,0,0,1,333.3,49.3,49.3,100.5,100.5,34.0,-35.53,6.56,0.00,0.0,3,-205.650,-0.5,100.0,39.4,31.7,19.8,19.0,0,1,0.0,0.00,0.00,0.00,0.00,7743,5617,0,1723,306.4,309.2,354.5,350.5,27.12,23.31,26.30,24.84,325.0,325.0,355.0,355.0,100.00,99.91,100.00,99.97,-0.23,-0.06,0.00,-0.20,-3.4,-6.2,0.0,-6.0,95.5,71.7,84.2,75.0,91.7,68.1,80.8,73.2,88.3,65.6,79.5,71.3,84.6,64.1,78.5,70.3,0.01,0.03,0.11,0.10,0.00,117.73,114.32,102.79,105.26,19.5,25.8,1.6217891354920344,140.7997689533339,38.890984728118674,-57.6162738925737,-18.005084969059624
2.450,102.1,44.053754593526264,-78.681693364991474,-100.1,-16.3,8.5,22.1,5158.2,5158,140.1,0,1,1,0,1,1,0,0,0,100,1,1.186,26.0,0.0,0.216,51.476,66.0,100.0,26.0,26.0,26.0,26.0,-0.17,-2.21,0.05,381.4,-2.69,-2.84,-1.58,-1.09,-710.26,593.40,5.8,0.00,0.00,0.00,0.00,0.06,-7.49,-7.49,-0.78,7.41,-0.36,6.38,38.84,-0.17,-0.73,2.47,100.0,0,0,103.04,0,0,0.0,0,0,0,0,6907,0,30.00,3,140.1,1,0,0.0,0.0,0.0,0.0,1,0,2.454,2.454,68.261,30.987,1,110.00,435.8,8750,0.0,0.0,110.0,110.0,433.0,0.00,0,0,1,333.3,58.1,58.1,84.4,84.4,34.0,-9.04,-0.47,-15.73,-0.9,3,-205.700,-1.1,100.0,34.4,30.9,20.2,20.2,0,1,0.0,0.00,0.00,0.00,0.00,4899,4642,4915,4980,313.2,312.4,343.0,342.5,27.12,23.31,26.30,24.84,325.0,325.0,355.0,355.0,100.00,99.91,100.00,99.97,-0.20,-0.08,-0.61,-0.23,-6.1,-11.2,-6.1,-7.0,95.5,71.7,84.1,75.0,91.8,68.2,80.9,73.2,88.3,65.7,79.5,71.3,84.6,64.2,78.5,70.3,-0.03,0.07,0.10,0.09,0.00,111.59,105.27,103.36,102.72,19.5,25.8,2.2170926908904827,133.59773473810057,36.73037453183152,-61.21729088638574,-21.60610196287152
2.500,104.0,44.053738585601678,-78.681689048247762,-215.6,-31.8,198.3,160.0,5160.1,5160,137.0,1,1,1,0,1,1,0,0,0,100,1,1.186,26.0,0.0,0.219,51.476,66.0,100.0,26.0,26.0,26.0,26.0,-0.09,-1.54,-0.01,383.4,-2.71,-1.81,-2.02,-1.30,-709.78,591.62,5.9,0.00,0.00,0.00,0.00,0.06,-7.49,-7.49,-0.65,-0.48,-0.25,-2.17,38.01,-0.17,-0.67,1.84,100.0,0,0,103.55,0,0,0.0,0,0,0,0,6941,0,30.00,3,137.0,0,0,0.0,0.0,0.0,0.0,1,0,2.501,2.501,68.261,30.987,0,110.00,435.8,8750,0.0,0.0,110.0,110.0,433.0,0.00,0,0,1,333.3,67.4,67.4,71.4,71.4,34.0,0.26,0.28,-18.12,-0.6,3,-205.750,-1.4,100.0,23.6,29.3,30.1,28.1,0,1,0.0,0.00,0.00,0.00,0.00,2158,5092,3103,3477,319.5,311.4,347.3,345.7,27.12,23.31,26.30,24.84,325.0,325.0,355.0,355.0,100.00,99.91,100.00,99.97,-0.08,-0.06,-0.41,-0.22,-13.8,-9.2,-3.3,-3.0,95.5,71.7,84.1,75.0,91.8,68.3,80.8,73.2,88.4,65.8,79.5,71.3,84.6,64.3,78.5,70.3,-0.09,0.07,0.08,0.07,0.00,98.19,105.33,103.55,103.55,19.5,25.8,1.5426600403199664,134.67803986469534,36.73037453183152,-18.00508582259539,-7.202034556647661
2.550,105.9,44.053720958898204,-78.681684191911089,96.9,-116.8,-101.2,-54.0,5162.0,5162,133.9,0,1,1,0,1,1,0,0,0,100,1,1.186,26.0,0.0,0.225,51.476,66.0,100.0,26.0,26.0,26.0,26.0,-0.10,-1.89,0.10,384.2,-2.54,-3.06,-2.09,-1.76,-709.24,589.66,5.9,0.00,0.00,0.00,0.00,0.06,-7.49,-7.49,-0.81,-3.39,-0.51,-2.46,37.14,-0.16,-0.73,-0.03,100.0,0,0,99.93,0,0,0.0,0,0,0,0,6699,0,30.00,3,133.9,1,0,0.0,0.0,0.0,0.0,1,0,2.556,2.556,68.261,30.987,1,110.00,435.8,8750,0.0,0.0,110.0,110.0,433.0,0.00,0,0,1,166.7,61.6,61.6,91.0,91.0,34.0,-12.27,1.50,-6.03,2.8,3,-205.800,-1.8,100.0,28.5,23.5,25.1,25.5,0,1,0.0,0.00,0.00,0.00,0.00,6726,4917,1938,2592,308.5,311.9,350.7,347.5,27.11,23.30,26.30,24.84,325.0,325.0,355.0,355.0,100.00,99.91,100.00,99.97,-0.22,-0.08,-0.33,-0.13,-6.4,-8.3,-4.6,-3.6,95.5,71.7,84.1,75.0,91.9,68.4,80.8,73.2,88.4,65.9,79.5,71.3,84.7,64.4,78.5,70.3,-0.09,0.09,0.10,0.09,0.00,107.73,103.75,99.38,100.48,19.5,25.8,1.8952836199366045,131.79722615584103,36.010171076166756,-136.83865003253146,-39.611188639002464
2.600,107.7,44.053705670430908,-78.681680055031705,46.7,118.2,-138.0,-116.7,5163.8,5164,131.0,0,1,1,0,1,1,0,0,0,100,1,1.186,26.0,0.0,0.225,51.476,66.0,100.0,26.0,26.0,26.0,26.0,-0.08,-2.05,0.15,383.4,-3.14,-2.13,-1.07,-1.02,-708.78,587.96,5.9,0.00,0.00,0.00,0.00,0.06,-7.49,-7.49,-0.88,0.82,-0.64,-3.67,36.32,-0.12,-0.76,-0.70,100.0,0,0,95.19,0,0,0.0,0,0,0,0,6382,0,30.00,3,131.0,0,0,0.0,0.0,0.0,0.0,0,0,2.604,2.604,68.261,30.987,0,110.00,435.8,8750,0.0,0.0,110.0,110.0,433.0,0.00,0,0,1,166.7,53.0,53.0,88.4,88.4,34.0,-28.59,14.66,-9.18,0.0,3,-205.850,-1.8,100.0,30.8,29.4,18.2,19.6,0,1,0.0,0.00,0.00,0.00,0.00,7944,7594,3725,102,306.4,304.8,346.2,354.1,27.11,23.30,26.29,24.84,325.0,325.0,355.0,355.0,100.00,99.91,100.00,99.97,-0.18,0.05,-0.30,-0.09,-4.8,-5.0,-5.0,-8.7,95.4,71.6,84.1,75.0,91.9,68.6,80.8,73.1,88.5,66.0,79.4,71.2,84.7,64.5,78.5,70.3,-0.09,0.11,0.11,0.10,0.00,107.73,107.02,98.49,91.90,19.5,25.8,2.057036703610317,120.99417486144219,32.769255667931276,-97.22746167804061,-32.40915351333115
2.650,109.4,44.053690741692243,-78.681676008084480,34.8,13.3,131.5,-37.3,5165.6,5166,128.0,0,1,1,0,1,1,0,0,0,100,1,1.186,26.0,0.0,0.231,51.476,66.0,100.0,26.0,26.0,26.0,26.0,-0.05,-1.39,-0.17,386.7,-3.06,-3.06,-1.18,-0.46,-708.33,586.30,5.9,0.00,0.00,0.00,0.00,0.07,-7.49,-7.49,-0.69,4.34,-0.49,6.64,35.50,-0.04,-0.72,-1.04,100.0,0,0,93.76,0,0,0.0,0,0,0,0,6285,0,30.00,3,128.0,1,0,0.0,0.0,0.0,0.0,0,0,2.651,2.651,68.261,30.987,1,110.00,435.8,8750,0.0,0.0,110.0,110.0,433.0,0.00,0,0,1,333.3,61.9,61.9,86.1,86.1,34.0,-2.58,-0.55,-2.67,0.2,3,-205.900,-2.0,100.0,32.5,30.1,24.7,17.8,0,1,0.0,0.00,0.00,0.00,0.00,3686,4211,1678,2244,316.8,313.7,350.7,349.7,27.11,23.30,26.29,24.83,325.0,325.0,355.0,355.0,100.00,99.91,100.00,99.97,-0.12,-0.04,-0.19,-0.01,-7.5,-11.3,-5.0,-7.1,95.4,71.6,84.1,75.0,91.9,68.6,80.8,73.1,88.5,66.1,79.4,71.2,84.7,64.6,78.5,70.3,-0.10,0.12,0.10,0.09,0.00,99.18,95.77,94.25,93.26,19.5,25.8,1.4012494424619764,122.07447998803697,32.76925572483364,21.60610253189546,3.601017562835551
2.700,111.2,44.053675183428467,-78.681671871205083,-175.6,-146.9,44.7,246.6,5167.3,5167,125.0,1,1,1,0,1,1,0,0,0,100,1,1.186,26.0,0.0,0.234,51.476,66.0,100.0,26.0,26.0,26.0,26.0,-0.04,-1.53,-0.06,385.0,-4.01,-1.52,-1.44,0.14,-707.87,584.57,5.9,0.00,0.00,0.00,0.00,0.07,-7.49,-7.49,-0.65,-3.97,-0.37,0.27,34.68,-0.01,-0.65,-0.66,100.0,0,0,94.61,0,0,0.0,0,0,0,0,6342,0,30.00,3,125.0,0,0,0.0,0.0,0.0,0.0,0,0,2.703,2.703,68.261,30.987,0,110.00,435.8,8750,0.0,0.0,110.0,110.0,433.0,0.00,0,0,1,333.3,70.2,70.2,80.7,80.7,34.0,0.41,-0.41,-11.32,2.1,3,-205.950,-2.4,100.0,23.8,22.7,27.0,30.1,0,1,0.0,0.00,0.00,0.00,0.00,3649,4302,3031,3791,316.1,314.2,346.7,345.8,27.10,23.30,26.29,24.83,325.0,325.0,355.0,355.0,100.00,99.91,100.00,99.97,0.05,0.11,-0.14,0.08,-10.2,-14.3,-2.4,-3.3,95.4,71.6,84.1,75.0,92.0,68.7,80.8,73.1,88.5,66.2,79.4,71.3,84.8,64.7,78.4,70.3,-0.14,0.13,0.09,0.07,0.00,94.17,94.75,94.33,94.88,19.5,25.8,1.531698403733581,123.15478511463174,33.12935742421483,-54.01525661425012,-10.803052119483176
2.750,112.9,44.053659984893322,-78.681667734325700,-79.1,40.7,-160.2,-229.3,5169.0,5169,122.6,0,1,1,0,1,1,0,0,0,100,1,1.186,26.0,0.0,0.237,51.476,66.0,100.0,26.0,26.0,26.0,26.0,0.04,-1.62,-0.25,390.6,-2.95,-2.09,-1.93,-2.37,-707.41,582.88,5.9,0.00,0.00,0.00,0.00,0.07,-7.49,-7.49,-0.92,-4.11,-0.57,-7.50,33.99,-0.04,-0.69,0.25,100.0,0,0,88.45,0,0,0.0,0,0,0,0,5930,0,30.00,3,122.6,1,0,0.0,0.0,0.0,0.0,0,0,2.754,2.754,68.261,30.987,1,110.00,435.8,8750,0.0,0.0,110.0,110.0,433.0,0.00,0,0,1,333.3,66.7,66.7,86.3,86.3,34.0,0.54,10.55,-2.50,0.4,3,-206.000,-2.0,100.0,19.8,24.7,19.0,18.6,0,1,0.0,0.00,0.00,0.00,0.00,4917,6192,2594,865,313.6,308.4,349.2,352.8,27.10,23.30,26.29,24.83,325.0,325.0,355.0,355.0,100.00,99.91,100.00,99.97,0.06,0.23,-0.11,0.07,-10.7,-6.4,-6.7,-7.7,95.4,71.6,84.0,74.9,92.0,68.8,80.7,73.1,88.6,66.3,79.4,71.2,84.8,64.7,78.4,70.3,-0.13,0.11,0.11,0.10,0.00,92.69,97.64,89.56,87.35,19.5,25.8,1.6396645998496158,116.67295432661196,31.688950512885324,-93.62644496874083,-21.606103100918972
