Time,Distance,GPS Latitude,GPS Longitude,Damper Velocity (Calc) FL,Damper Velocity (Calc) FR,Damper Velocity (Calc) RL,Damper Velocity (Calc) RR,Corr Dist,Corr Dist (Unstretched),Corr Speed,ABS Active,ABS Enabled,AID Allow Tire Blankets,AID Auto Blip,AID Auto Clutch,AID Auto Shift,AID Fuel Rate,AID Ideal Line,AID Mech Damage,AID Stability,AID Tire Wear Rate,Air Density,Air Temp,Ballast,Best Lap Delta,Best Lap Time,Brake Bias,Brake Pos,Brake Temp FL,Brake Temp FR,Brake Temp RL,Brake Temp RR,CG Accel Lateral,CG Accel Longitudinal,CG Accel Vertical,CG Height,Camber FL,Camber FR,Camber RL,Camber RR,Car Coord X,Car Coord Y,Car Coord Z,Car Damage Front,Car Damage Left,Car Damage Rear,Car Damage Right,Car Pos Norm,Caster FL,Caster FR,Chassis Pitch Angle,Chassis Pitch Rate,Chassis Roll Angle,Chassis Roll Rate,Chassis Velocity X,Chassis Velocity Y,Chassis Velocity Z,Chassis Yaw Rate,Clutch Pos,DRS Active,DRS Available,Drive Train Speed,ERS Heat Charging,ERS Is Charging,ERS Max Energy,ERS Power Level,ERS Recovery Level,Engine Brake Setting,Engine Limiter,Engine RPM,Flags,Fuel Level,Gear,Ground Speed,HR Sample Clock,In Pit,KERS Charge,KERS Deployed Energy,KERS Input,KERS Max Energy,LR Sample Clock,Lap Invalidated,Lap Time,Lap Time2,Last Lap Time,Last Sector Time,MR Sample Clock,Max Fuel,Max Power,Max RPM,Max Sus Travel FL,Max Sus Travel FR,Max Sus Travel RL,Max Sus Travel RR,Max Torque,Max Turbo Boost,Num Tires Off Track,Penalties Enabled,Position,Raw Data Sample Rate,Ride Height FL,Ride Height FR,Ride Height RL,Ride Height RR,Road Temp,Self Align Torque FL,Self Align Torque FR,Self Align Torque RL,Self Align Torque RR,Session Lap Count,Session Time Left,Steering Angle,Surface Grip,Suspension Travel FL,Suspension Travel FR,Suspension Travel RL,Suspension Travel RR,TC Active,TC Enabled,Throttle Pos,Tire Dirt Level FL,Tire Dirt Level FR,Tire Dirt Level RL,Tire Dirt Level RR,Tire Load FL,Tire Load FR,Tire Load RL,Tire Load RR,Tire Loaded Radius FL,Tire Loaded Radius FR,Tire Loaded Radius RL,Tire Loaded Radius RR,Tire Pressure FL,Tire Pressure FR,Tire Pressure RL,Tire Pressure RR,Tire Radius FL,Tire Radius FR,Tire Radius RL,Tire Radius RR,Tire Rubber Grip FL,Tire Rubber Grip FR,Tire Rubber Grip RL,Tire Rubber Grip RR,Tire Slip Angle FL,Tire Slip Angle FR,Tire Slip Angle RL,Tire Slip Angle RR,Tire Slip Ratio FL,Tire Slip Ratio FR,Tire Slip Ratio RL,Tire Slip Ratio RR,Tire Temp Core FL,Tire Temp Core FR,Tire Temp Core RL,Tire Temp Core RR,Tire Temp Inner FL,Tire Temp Inner FR,Tire Temp Inner RL,Tire Temp Inner RR,Tire Temp Middle FL,Tire Temp Middle FR,Tire Temp Middle RL,Tire Temp Middle RR,Tire Temp Outer FL,Tire Temp Outer FR,Tire Temp Outer RL,Tire Temp Outer RR,Toe In FL,Toe In FR,Toe In RL,Toe In RR,Turbo Boost,Wheel Angular Speed FL,Wheel Angular Speed FR,Wheel Angular Speed RL,Wheel Angular Speed RR,Wind Direction,Wind Speed,CG Distance,Lateral Velocity,Longitudinal Velocity,Lateral Acceleration,Longitudinal Acceleration
s,m,deg,deg,mm/s,mm/s,mm/s,mm/s,m,m,km/h,,,,,,,,,%,%,,kg/m3,C,kg,s,s,%,%,C,C,C,C,G,G,G,mm,deg,deg,deg,deg,m,m,m,,,,,,deg,deg,deg,deg/s,deg,deg/s,m/s,m/s,m/s,deg/s,%,,,rad/s,,,MJ,,,,,rpm,,l,,km/h,,,%,kJ,%,MJ,,,s,s,s,s,,l,hp,rpm,mm,mm,mm,mm,N.m,,,,,Hz,mm,mm,mm,mm,C,N.m,N.m,N.m,N.m,,s,deg,%,mm,mm,mm,mm,,,%,,,,,N,N,N,N,mm,mm,mm,mm,psi,psi,psi,psi,mm,mm,mm,mm,%,%,%,%,deg,deg,deg,deg,%,%,%,%,C,C,C,C,C,C,C,C,C,C,C,C,C,C,C,C,deg,deg,deg,deg,,rad/s,rad/s,rad/s,rad/s,deg,km/h,G,Km/h,Km/h,Km/h^2,Km/h^2
0.000,0.0,44.054632241481485,-78.681965859438066,-24.1,-46.1,103.7,-36.0,7078.6,7079,125.2,0,1,1,0,1,1,0,0,0,100,1,1.186,26.0,0.0,39.18,71.123,66.0,0.0,26.0,26.0,26.0,26.0,0.01,0.14,-0.02,382.9,-2.65,-2.32,-1.90,-1.80,-740.56,690.99,5.7,0.00,0.00,0.00,0.00,0.00,-7.49,-7.49,-0.30,-3.98,0.15,-2.82,34.78,-0.00,-0.31,-0.0,100.0,0,0,96.60,0,0,0.0,0,0,0,0,8431,0,30.00,0,125.2,1,0,0.0,0.0,0.0,0.0,1,0,110.313,110.313,100.963,20.420,1,110.00,435.8,8750,0.0,0.0,110.0,110.0,433.0,0.00,0,0,1,333.3,78.5,78.5,60.4,60.4,34.0,-5.7,14.71,-25.2,19.8,3,-476.110,-0.5,100.0,16.3,18.9,39.8,36.2,0,1,0.0,0.00,0.00,0.00,0.00,1948,3338,4747,4013,320.1,315.2,342.6,344.7,25.07,21.90,26.98,24.86,325.0,325.0,355.0,355.0,99.89,100.00,99.89,99.96,0.05,0.08,-0.06,0.08,-0.0,-0.0,-0.0,0.2,82.7,62.9,88.4,75.1,96.1,67.4,94.7,78.5,91.2,64.9,93.1,76.1,87.9,64.3,92.2,75.0,-0.03,0.02,0.07,0.05,0.00,106.60,106.63,96.41,96.79,194.4,26.0,0.14177446878757827
0.050,1.7,44.054617132878505,-78.681960823237063,114.1,60.3,-123.3,-75.6,7080.3,7080,125.0,0,1,1,0,1,1,0,0,0,100,1,1.186,26.0,0.0,-0.02,71.123,66.0,0.0,26.0,26.0,26.0,26.0,0.03,-0.07,0.09,383.1,-3.02,-1.48,-2.03,-2.00,-740.00,689.31,5.7,0.00,0.00,0.00,0.00,0.00,-7.49,-7.49,-0.52,-2.56,-0.03,-3.25,34.73,-0.01,-0.41,0.0,100.0,0,0,97.52,0,0,0.0,0,0,0,0,8044,0,30.00,0,125.0,0,0,0.0,0.0,0.0,0.0,0,0,0.050,0.050,110.313,29.225,0,110.00,435.8,8750,0.0,0.0,110.0,110.0,433.0,0.00,0,0,1,166.7,69.8,69.8,71.9,71.9,34.0,-17.8,18.31,-18.7,8.1,4,-476.150,-0.5,100.0,22.0,22.0,33.7,32.5,0,1,0.0,0.00,0.00,0.00,0.00,3712,4613,3768,1780,315.4,312.3,346.1,349.4,25.08,21.90,26.98,24.86,325.0,325.0,355.0,355.0,99.89,100.00,99.89,99.96,-0.01,0.13,-0.05,0.07,0.0,-0.0,-0.0,-0.0,82.7,62.9,88.4,75.1,96.1,67.4,94.6,78.4,91.2,64.9,93.1,76.0,87.8,64.3,92.2,75.0,-0.02,0.03,0.08,0.06,0.00,106.56,106.52,97.53,97.52,194.4,26.0,0.11789826122551596,124.59519196905887,41.05159503821057
0.100,3.5,44.054601124953919,-78.681955607171759,1.5,-44.9,-70.2,-80.6,7082.0,7082,125.1,0,1,1,0,1,1,0,0,0,100,1,1.186,26.0,0.0,-0.02,71.123,66.0,0.0,26.0,26.0,26.0,26.0,-0.04,0.78,-0.16,385.4,-2.08,-2.73,-1.71,-0.90,-739.42,687.53,5.7,0.00,0.00,0.00,0.00,0.00,-7.49,-7.49,-0.55,0.86,-0.16,-0.10,34.76,-0.01,-0.37,-0.2,100.0,0,0,103.24,0,0,0.0,0,0,0,0,6921,0,30.00,3,125.1,1,0,0.0,0.0,0.0,0.0,0,0,0.103,0.103,110.313,29.225,1,110.00,435.8,8750,0.0,0.0,110.0,110.0,433.0,0.00,0,0,1,166.7,74.9,74.9,76.2,76.2,34.0,-10.9,7.44,-8.3,3.0,4,-476.210,-0.2,100.0,22.1,19.7,30.2,28.4,0,1,0.0,0.00,0.00,0.00,0.00,3280,2180,5196,4250,316.2,319.2,342.9,344.7,25.08,21.90,26.98,24.86,325.0,325.0,355.0,355.0,99.89,100.00,99.89,99.96,-0.01,-0.01,-0.11,0.10,-0.1,-0.0,6.4,7.4,82.7,62.9,88.4,75.1,96.0,67.3,94.6,78.4,91.1,64.8,93.0,76.0,87.7,64.3,92.1,74.9,-0.02,0.01,0.08,0.08,0.00,106.56,106.45,102.71,103.76,194.4,26.0,0.79724525711979,117.75325945320671,38.530883028737485,-104.4294962346882,-32.4091540823548
0.150,5.2,44.054587725061992,-78.681951200495888,-12.9,-57.5,75.8,113.4,7083.8,7084,125.3,0,1,1,0,1,1,0,0,0,100,1,1.186,26.0,0.0,-0.03,71.123,66.0,0.0,26.0,26.0,26.0,26.0,-0.05,-0.22,-0.08,383.6,-2.28,-2.52,-1.92,-2.01,-738.93,686.04,5.7,0.00,0.00,0.00,0.00,0.00,-7.49,-7.49,-0.60,-2.90,-0.01,5.72,34.80,0.01,-0.39,0.0,100.0,0,0,97.50,0,0,0.0,0,0,0,0,6536,0,30.00,3,125.3,0,0,0.0,0.0,0.0,0.0,0,0,0.150,0.150,110.313,29.225,0,110.00,435.8,8750,0.0,0.0,110.0,110.0,433.0,0.00,0,0,1,333.3,74.4,74.4,77.7,77.7,34.0,-20.5,9.29,-19.4,22.1,4,-476.260,-0.4,100.0,21.5,16.8,33.9,34.1,0,1,0.0,0.00,0.00,0.00,0.00,4463,2699,3510,4445,313.7,317.4,346.4,343.9,25.08,21.91,26.98,24.86,325.0,325.0,355.0,355.0,99.89,100.00,99.89,99.96,-0.07,-0.00,-0.12,0.05,-0.0,0.0,-0.4,-0.4,82.8,62.9,88.4,75.1,95.9,67.3,94.5,78.4,91.1,64.8,93.0,76.0,87.7,64.3,92.1,74.9,-0.03,0.01,0.07,0.06,0.00,106.73,106.70,97.50,97.50,194.4,26.0,0.23937418407171648,114.15224234559005,37.81067962997509,32.4091540823548,14.404069113295037
0.200,7.0,44.054572616459012,-78.681946164294899,8.1,85.0,-138.7,-66.1,7085.5,7086,125.0,0,1,1,0,1,1,0,0,0,100,1,1.186,26.0,0.0,-0.04,71.123,66.0,0.0,26.0,26.0,26.0,26.0,-0.00,-0.16,-0.18,385.3,-2.58,-2.24,-1.31,-1.85,-738.37,684.36,5.7,0.00,0.00,0.00,0.00,0.01,-7.49,-7.49,-0.71,-0.30,0.24,2.33,34.72,0.00,-0.40,0.4,100.0,0,0,97.23,0,0,0.0,0,0,0,0,6518,0,30.00,3,125.0,1,0,0.0,0.0,0.0,0.0,0,0,0.200,0.200,110.313,29.225,1,110.00,435.8,8750,0.0,0.0,110.0,110.0,433.0,0.00,0,0,1,333.3,71.3,71.3,79.3,79.3,34.0,-13.7,16.39,-15.4,12.4,4,-476.310,-0.5,100.0,21.9,21.1,27.0,30.8,0,1,0.0,0.00,0.00,0.00,0.00,3304,4070,3697,3201,316.4,313.4,346.9,346.6,25.09,21.91,26.98,24.86,325.0,325.0,355.0,355.0,99.89,100.00,99.89,99.96,-0.02,0.04,-0.13,0.01,0.0,0.0,-0.5,-0.4,82.8,62.9,88.4,75.1,95.9,67.3,94.5,78.3,91.0,64.8,92.9,75.9,87.6,64.2,92.0,74.9,-0.01,0.01,0.09,0.07,0.00,106.58,106.60,97.23,97.23,194.4,26.0,0.2408318915758459,120.99417486144219,39.97128994006699,32.40915408235452,7.202034556647661
0.250,8.7,44.054557507856032,-78.681941218026054,-71.7,69.7,105.5,-23.9,7087.3,7087,124.7,0,1,1,0,1,1,0,0,0,100,1,1.186,26.0,0.0,-0.04,71.123,66.0,0.0,26.0,26.0,26.0,26.0,0.01,-0.11,-0.05,384.7,-1.69,-1.75,-1.54,-1.00,-737.82,682.68,5.7,0.00,0.00,0.00,0.00,0.01,-7.49,-7.49,-0.72,-0.79,0.15,-4.55,34.64,0.00,-0.38,-0.5,100.0,0,0,97.01,0,0,0.0,0,0,0,0,6503,0,30.00,3,124.7,0,0,0.0,0.0,0.0,0.0,0,0,0.253,0.253,110.313,29.225,0,110.00,435.8,8750,0.0,0.0,110.0,110.0,433.0,0.00,0,0,1,166.7,74.6,74.6,68.2,68.2,34.0,-3.5,11.13,-16.4,16.2,4,-476.360,-0.2,100.0,18.3,24.6,32.3,29.6,0,1,0.0,0.00,0.00,0.00,0.00,1933,3233,4239,3781,319.4,315.8,344.8,345.3,25.09,21.91,26.98,24.86,325.0,325.0,355.0,355.0,99.89,100.00,99.89,99.96,0.05,0.07,-0.04,0.17,0.0,-0.0,-0.3,-0.4,82.8,62.9,88.4,75.1,95.8,67.3,94.4,78.3,90.9,64.8,92.9,75.9,87.6,64.2,91.9,74.8,-0.01,0.02,0.07,0.07,0.00,106.29,106.26,97.02,97.01,194.4,26.0,0.12124355652982141,117.3931577538255,38.53088308563986,-36.01017107616684,-10.80305211948314
0.300,10.4,44.054543298574657,-78.681936541553711,47.5,-14.5,6.0,20.6,7089.0,7089,124.9,0,1,1,0,1,1,0,0,0,100,1,1.186,26.0,0.0,-0.05,71.123,66.0,0.0,26.0,26.0,26.0,26.0,0.08,0.30,0.06,381.4,-1.73,-1.93,-1.10,-0.79,-737.30,681.10,5.7,0.00,0.00,0.00,0.00,0.01,-7.49,-7.49,-0.76,0.29,-0.05,-5.26,34.70,-0.00,-0.43,-0.3,100.0,0,0,99.10,0,0,0.0,0,0,0,0,6643,0,30.00,3,124.9,1,0,0.0,0.0,0.0,0.0,0,0,0.300,0.300,110.313,29.225,1,110.00,435.8,8750,0.0,0.0,110.0,110.0,433.0,0.00,0,0,1,333.3,68.8,68.8,70.6,70.6,34.0,-10.8,23.14,-7.3,16.5,4,-476.410,-0.1,100.0,20.6,23.8,32.6,30.6,0,1,47.2,0.00,0.00,0.00,0.00,3882,5275,3378,4890,315.4,310.3,346.7,342.4,25.09,21.91,26.98,24.86,325.0,325.0,355.0,355.0,99.89,100.00,99.89,99.96,-0.01,0.09,-0.02,0.16,-0.1,-0.1,1.6,1.7,82.8,62.9,88.4,75.1,95.7,67.2,94.4,78.3,90.9,64.7,92.8,75.9,87.5,64.2,91.9,74.8,0.00,0.00,0.08,0.07,0.00,106.42,106.53,99.10,99.10,194.4,26.0,0.31622776601683794,117.3931577538255,38.890984728118674,43.212205348302746,18.005085538083208
0.350,12.2,44.054528189971677,-78.681931505352722,30.5,-56.1,15.9,-49.1,7090.7,7091,125.4,0,1,1,0,1,1,0,0,0,100,1,1.186,26.0,0.0,-0.05,71.123,66.0,0.0,26.0,26.0,26.0,26.0,0.01,0.37,-0.17,384.0,-1.61,-2.08,-0.62,-0.98,-736.74,679.42,5.7,0.00,0.00,0.00,0.00,0.01,-7.49,-7.49,-0.63,3.58,-0.42,-2.68,34.84,-0.01,-0.35,0.6,100.0,0,0,99.53,0,0,0.0,0,0,0,0,6672,0,30.00,3,125.4,0,0,0.0,0.0,0.0,0.0,0,0,0.350,0.350,110.313,29.225,0,110.00,435.8,8750,0.0,0.0,110.0,110.0,433.0,0.00,0,0,1,333.3,74.9,74.9,69.9,69.9,34.0,-8.0,5.63,-12.5,10.4,4,-476.460,0.5,100.0,22.2,21.0,33.4,28.2,0,1,47.2,0.00,0.00,0.00,0.00,3113,2035,5830,3888,316.9,319.1,340.9,345.6,25.09,21.91,26.98,24.86,325.0,325.0,355.0,355.0,99.89,100.00,99.89,99.96,-0.01,0.00,-0.07,0.09,-0.1,-0.0,1.7,1.6,82.8,62.9,88.4,75.1,95.7,67.2,94.3,78.2,90.8,64.7,92.8,75.9,87.5,64.2,91.8,74.8,0.05,-0.04,0.08,0.06,0.00,107.03,106.89,99.53,99.53,194.4,26.0,0.40730823708832603,121.71437828865578,40.33139163944818,10.8030512659478,5.690236548616667e-07
0.400,13.9,44.054512901504374,-78.681926469151719,56.2,-45.2,67.7,172.4,7092.5,7092,126.0,0,1,1,0,1,1,0,0,0,100,1,1.186,26.0,0.0,-0.06,71.123,66.0,0.0,26.0,26.0,26.0,26.0,-0.11,0.26,0.34,378.9,-0.76,-2.37,-1.37,-0.94,-736.18,677.72,5.7,0.00,0.00,0.00,0.00,0.01,-7.49,-7.49,-0.51,1.91,-0.35,4.13,34.99,-0.01,-0.34,0.8,100.0,0,0,99.64,0,0,0.0,0,0,0,0,6679,0,30.00,3,126.0,1,0,0.0,0.0,0.0,0.0,0,0,0.403,0.403,110.313,29.225,1,110.00,435.8,8750,0.0,0.0,110.0,110.0,433.0,0.00,0,0,1,166.7,70.3,70.3,72.8,72.8,34.0,-15.4,8.81,-24.1,9.6,4,-476.510,0.5,100.0,25.0,18.8,36.8,36.8,0,1,47.2,0.00,0.00,0.00,0.00,5216,2895,4892,4491,311.2,317.0,342.8,343.0,25.10,21.91,26.99,24.86,325.0,325.0,355.0,355.0,99.89,100.00,99.89,99.96,-0.11,-0.02,-0.16,0.02,-0.0,-0.1,1.2,1.3,82.8,62.9,88.4,75.1,95.6,67.2,94.3,78.2,90.7,64.7,92.7,75.8,87.4,64.1,91.8,74.7,0.03,-0.05,0.07,0.06,0.00,107.61,107.40,99.64,99.64,194.4,26.0,0.4419275958796871,118.47346288042029,38.89098478502104,-28.80813708854305,-14.404068544271382
0.450,15.7,44.054498602290842,-78.681921792679375,-26.3,-17.9,-69.0,-20.8,7094.2,7094,126.4,0,1,1,0,1,1,0,0,0,100,1,1.186,26.0,0.0,-0.06,71.123,66.0,0.0,26.0,26.0,26.0,26.0,-0.12,0.39,-0.04,381.6,-2.65,-3.29,-1.14,-0.66,-735.66,676.13,5.7,0.00,0.00,0.00,0.00,0.01,-7.49,-7.49,-0.38,2.72,-0.06,6.37,35.13,0.01,-0.25,0.4,100.0,0,0,100.16,0,0,0.0,0,0,0,0,6715,0,30.00,3,126.4,0,0,0.0,0.0,0.0,0.0,0,0,0.450,0.450,110.313,29.225,0,110.00,435.8,8750,0.0,0.0,110.0,110.0,433.0,0.00,0,0,1,333.3,74.7,74.7,74.8,74.8,34.0,-17.7,8.26,-20.4,5.3,4,-476.560,0.5,100.0,23.7,17.9,33.3,35.8,0,1,47.2,0.00,0.00,0.00,0.00,3383,2265,4692,5863,316.1,318.8,343.4,340.4,25.10,21.91,26.99,24.86,325.0,325.0,355.0,355.0,99.89,100.00,99.89,99.96,-0.10,-0.06,-0.17,-0.03,-0.1,-0.1,1.5,1.6,82.9,62.9,88.4,75.1,95.5,67.1,94.2,78.2,90.7,64.7,92.7,75.8,87.3,64.1,91.8,74.7,0.04,-0.05,0.07,0.04,0.00,107.92,107.84,100.17,100.16,194.4,26.0,0.41,118.83356457980148,38.89098478502104,46.8132223421145,18.00508553808342
0.500,17.4,44.054483223891381,-78.681916756478373,-108.8,41.1,131.9,63.5,7096.0,7096,127.0,0,1,1,0,1,1,0,0,0,100,1,1.186,26.0,0.0,-0.07,71.123,66.0,0.0,26.0,26.0,26.0,26.0,0.02,0.28,0.03,380.3,-2.33,-2.06,-0.75,-1.25,-735.10,674.42,5.7,0.00,0.00,0.00,0.00,0.01,-7.49,-7.49,-0.36,-1.71,0.10,0.94,35.28,0.02,-0.29,-0.1,100.0,0,0,100.44,0,0,0.0,0,0,0,0,6733,0,30.00,3,127.0,1,0,0.0,0.0,0.0,0.0,0,0,0.500,0.500,110.313,29.225,1,110.00,435.8,8750,0.0,0.0,110.0,110.0,433.0,0.00,0,0,1,333.3,76.2,76.2,61.4,61.4,34.0,-8.1,10.68,-10.3,17.6,4,-476.610,0.5,100.0,18.2,19.9,39.9,38.9,0,1,47.2,0.00,0.00,0.00,0.00,2251,3559,4839,4949,319.1,314.6,343.3,342.0,25.10,21.91,26.99,24.86,325.0,325.0,355.0,355.0,99.89,100.00,99.89,99.96,-0.03,-0.01,-0.05,0.08,-0.0,-0.1,1.3,1.2,82.9,62.9,88.4,75.1,95.5,67.1,94.2,78.2,90.6,64.6,92.6,75.8,87.3,64.1,91.7,74.7,0.04,-0.04,0.07,0.03,0.00,108.17,108.19,100.44,100.43,194.4,26.0,0.2823118842698621,123.15478511463174,40.69149333882938,46.81322234211464,18.005084969059695
0.550,19.2,44.054467845491921,-78.681911630345226,-1.7,5.3,-71.0,-78.7,7097.8,7098,127.5,0,1,1,0,1,1,0,0,0,100,1,1.186,26.0,0.0,-0.07,71.123,66.0,0.0,26.0,26.0,26.0,26.0,0.08,0.32,-0.05,382.9,-2.15,-2.02,-1.49,-1.55,-734.53,672.71,5.7,0.00,0.00,0.00,0.00,0.01,-7.49,-7.49,-0.48,-2.02,0.07,-2.17,35.42,0.02,-0.33,0.3,100.0,0,0,100.99,0,0,0.0,0,0,0,0,6770,0,30.00,3,127.5,0,0,0.0,0.0,0.0,0.0,1,0,0.553,0.553,110.313,29.225,0,110.00,435.8,8750,0.0,0.0,110.0,110.0,433.0,0.00,0,0,1,333.3,76.2,76.2,67.8,67.8,34.0,-5.9,12.95,-9.1,26.0,4,-476.660,0.5,100.0,18.1,20.2,36.4,35.0,0,1,47.2,0.00,0.00,0.00,0.00,2074,3688,3254,5594,319.7,314.5,346.9,340.9,25.10,21.91,26.99,24.86,325.0,325.0,355.0,355.0,99.89,100.00,99.89,99.96,0.00,0.04,-0.01,0.12,-0.0,-0.0,1.5,1.5,82.9,63.0,88.4,75.1,95.4,67.1,94.1,78.1,90.6,64.6,92.6,75.8,87.2,64.1,91.7,74.7,0.04,-0.03,0.07,0.05,0.00,108.56,108.63,101.00,100.99,194.4,26.0,0.3336165463522456,123.51488681401294,40.69149328192701,10.803051265947516,0.0
0.600,21.0,44.054452377160302,-78.681906594144237,-19.0,-16.9,-64.2,-49.2,7099.5,7100,128.0,0,1,1,0,1,1,0,0,0,100,1,1.186,26.0,0.0,-0.08,71.123,66.0,0.0,26.0,26.0,26.0,26.0,0.03,0.31,-0.23,385.2,-2.07,-2.94,-1.29,-1.19,-733.97,670.99,5.7,0.00,0.00,0.00,0.00,0.01,-7.49,-7.49,-0.60,-2.42,-0.23,-5.82,35.56,-0.01,-0.34,0.4,100.0,0,0,101.52,0,0,0.0,0,0,0,0,6805,0,30.00,3,128.0,1,0,0.0,0.0,0.0,0.0,1,0,0.603,0.603,110.313,29.225,1,110.00,435.8,8750,0.0,0.0,110.0,110.0,433.0,0.00,0,0,1,166.7,77.8,77.8,69.3,69.3,34.0,-7.0,12.29,-15.8,11.8,4,-476.710,0.8,100.0,17.2,19.4,33.1,32.5,0,1,47.2,0.00,0.00,0.00,0.00,2557,2684,5192,3700,318.2,317.3,343.0,345.6,25.11,21.91,26.99,24.86,325.0,325.0,355.0,355.0,99.89,100.00,99.89,99.96,0.02,0.04,-0.05,0.10,-0.0,-0.1,1.7,1.7,82.9,63.0,88.4,75.1,95.3,67.1,94.1,78.1,90.5,64.6,92.5,75.7,87.2,64.0,91.6,74.7,0.04,-0.04,0.07,0.06,0.00,109.00,109.00,101.52,101.51,194.4,26.0,0.3871692136521188,124.23509024122649,40.69149333882938,-25.207119525707498,-10.803050412412034
0.650,22.8,44.054436818896519,-78.681901468011077,49.1,-41.0,-1.5,-41.4,7101.3,7101,128.5,0,1,1,0,1,1,0,0,0,100,1,1.186,26.0,0.0,-0.09,71.123,66.0,0.0,26.0,26.0,26.0,26.0,-0.03,0.28,-0.13,386.4,-2.05,-2.22,-1.43,-1.52,-733.40,669.26,5.7,0.00,0.00,0.00,0.00,0.01,-7.49,-7.49,-0.76,-2.36,-0.31,1.11,35.70,-0.02,-0.38,1.0,100.0,0,0,102.04,0,0,0.0,0,0,0,0,6841,0,30.00,3,128.5,0,0,0.0,0.0,0.0,0.0,1,0,0.653,0.653,110.313,29.225,0,110.00,435.8,8750,0.0,0.0,110.0,110.0,433.0,0.00,0,0,1,166.7,77.8,77.8,75.6,75.6,34.0,-10.1,5.91,-14.8,10.1,4,-476.760,1.1,100.0,19.6,17.3,33.1,30.5,0,1,47.2,0.00,0.00,0.00,0.00,2635,2350,3593,3722,317.9,318.2,346.3,345.5,25.11,21.91,26.99,24.86,325.0,325.0,355.0,355.0,99.89,100.00,99.89,99.96,-0.07,-0.04,-0.15,0.01,-0.0,-0.0,1.7,1.8,82.9,63.0,88.4,75.1,95.2,67.0,94.0,78.1,90.4,64.5,92.5,75.7,87.1,64.0,91.6,74.6,0.06,-0.06,0.08,0.08,0.00,109.48,109.37,102.05,102.04,194.4,26.0,0.3101612483854165,120.99417486144219,39.611188240685806,-64.81830759568581,-21.606103100918972
0.700,24.6,44.054422159954342,-78.681896701606561,35.5,67.3,-56.7,-13.5,7103.1,7103,129.0,0,1,1,0,1,1,0,0,0,100,1,1.186,26.0,0.0,-0.09,71.123,66.0,0.0,26.0,26.0,26.0,26.0,-0.12,0.33,0.13,383.3,-2.35,-2.84,-1.13,-0.85,-732.87,667.63,5.7,0.00,0.00,0.00,0.00,0.02,-7.49,-7.49,-0.83,0.59,-0.31,-0.74,35.84,-0.03,-0.38,1.2,100.0,0,0,102.36,0,0,0.0,0,0,0,0,6862,0,30.00,3,129.0,1,0,0.0,0.0,0.0,0.0,1,0,0.703,0.703,110.313,29.225,1,110.00,435.8,8750,0.0,0.0,110.0,110.0,433.0,0.00,0,0,1,333.3,71.5,71.5,73.6,73.6,34.0,-25.6,10.92,-27.4,3.3,4,-476.810,1.1,100.0,21.4,20.7,30.2,29.8,0,1,47.2,0.00,0.00,0.00,0.00,4646,3014,5750,2704,313.2,315.6,341.6,347.7,25.11,21.91,26.99,24.86,325.0,325.0,355.0,355.0,99.89,100.00,99.89,99.96,-0.13,-0.05,-0.20,-0.02,-0.1,-0.0,1.7,1.8,82.9,63.0,88.5,75.1,95.2,67.0,94.0,78.1,90.4,64.5,92.4,75.7,87.0,64.0,91.5,74.6,0.07,-0.08,0.08,0.07,0.00,110.08,109.97,102.36,102.36,194.4,26.0,0.37443290453698114,117.7532594816579,38.530883028737485,10.8030512659478,3.6010164247882415
0.750,26.3,44.054407411080000,-78.681891845269902,22.0,-66.5,-1.1,22.0,7104.9,7105,129.5,0,1,1,0,1,1,0,0,0,100,1,1.186,26.0,0.0,-0.10,71.123,66.0,0.0,26.0,26.0,26.0,26.0,-0.09,0.33,-0.08,383.8,-2.06,-2.34,-1.59,-0.96,-732.33,665.99,5.7,0.00,0.00,0.00,0.00,0.02,-7.49,-7.49,-0.80,1.29,-0.14,5.24,35.97,-0.02,-0.33,1.2,100.0,0,0,102.75,0,0,0.0,0,0,0,0,6888,0,30.00,3,129.5,0,0,0.0,0.0,0.0,0.0,1,0,0.750,0.750,110.313,29.225,0,110.00,435.8,8750,0.0,0.0,110.0,110.0,433.0,0.00,0,0,1,333.3,73.4,73.4,80.7,80.7,34.0,-22.5,6.69,-19.3,5.8,4,-476.860,1.1,100.0,22.5,17.4,30.2,30.9,0,1,47.2,0.00,0.00,0.00,0.00,4374,2899,3673,5084,313.9,316.9,346.3,341.6,25.11,21.91,26.99,24.86,325.0,325.0,355.0,355.0,99.89,100.00,99.89,99.96,-0.14,-0.08,-0.22,-0.05,-0.1,-0.1,1.6,1.8,83.0,63.0,88.5,75.2,95.1,67.0,93.9,78.0,90.3,64.5,92.4,75.7,87.0,63.9,91.5,74.6,0.07,-0.07,0.08,0.07,0.00,110.49,110.35,102.75,102.75,194.4,26.0,0.35128336140500593,122.07447998803697,39.97128988316463,82.82339313376923,21.606103100918972
0.800,28.2,44.054391672951901,-78.681886719136742,-65.1,8.1,68.1,100.4,7106.7,7107,130.0,0,1,1,0,1,1,0,0,0,100,1,1.186,26.0,0.0,-0.10,71.123,66.0,0.0,26.0,26.0,26.0,26.0,-0.08,0.25,-0.19,383.8,-2.20,-1.88,-1.72,-1.14,-731.76,664.24,5.7,0.00,0.00,0.00,0.00,0.02,-7.49,-7.49,-0.77,-0.85,0.03,1.63,36.11,-0.00,-0.31,0.7,100.0,0,0,103.22,0,0,0.0,0,0,0,0,6919,0,30.00,3,130.0,1,0,0.0,0.0,0.0,0.0,1,0,0.800,0.800,110.313,29.225,1,110.00,435.8,8750,0.0,0.0,110.0,110.0,433.0,0.00,0,0,1,333.3,76.4,76.4,71.1,71.1,34.0,-11.2,7.44,-24.7,6.4,4,-476.910,1.0,100.0,19.3,17.8,33.6,35.9,0,1,47.2,0.00,0.00,0.00,0.00,2765,3413,4721,3264,317.6,315.7,344.0,346.8,25.11,21.91,26.99,24.86,325.0,325.0,355.0,355.0,99.89,100.00,99.89,99.96,-0.07,-0.04,-0.17,0.00,-0.1,-0.0,1.6,1.6,83.0,63.0,88.5,75.2,95.1,66.9,93.9,78.0,90.3,64.4,92.3,75.6,86.9,63.9,91.4,74.6,0.06,-0.07,0.08,0.06,0.00,110.76,110.72,103.22,103.21,194.4,26.0,0.32403703492039304,126.03559879503483,40.69149333882938,46.8132223421145,7.202034556647519
0.850,30.0,44.054375934823796,-78.681881682935753,54.1,69.9,33.4,-35.8,7108.5,7109,130.5,0,1,1,0,1,1,0,0,0,100,1,1.186,26.0,0.0,-0.11,71.123,66.0,0.0,26.0,26.0,26.0,26.0,-0.05,0.28,0.17,379.8,-2.59,-3.04,-1.91,-1.10,-731.20,662.49,5.7,0.00,0.00,0.00,0.00,0.02,-7.49,-7.49,-0.81,0.12,0.15,2.61,36.26,0.01,-0.37,0.8,100.0,0,0,103.34,0,0,0.0,0,0,0,0,6927,0,30.00,3,130.5,0,0,0.0,0.0,0.0,0.0,1,0,0.853,0.853,110.313,29.225,0,110.00,435.8,8750,0.0,0.0,110.0,110.0,433.0,0.00,0,0,1,333.3,70.3,70.3,69.6,69.6,34.0,-20.1,21.54,-21.1,14.9,4,-476.960,0.6,100.0,22.0,21.3,35.3,34.1,0,1,47.2,0.00,0.00,0.00,0.00,4015,4244,4021,5068,314.7,312.8,344.6,342.3,25.12,21.92,27.00,24.86,325.0,325.0,355.0,355.0,99.89,100.00,99.89,99.96,-0.07,0.03,-0.12,0.06,-0.1,-0.1,1.3,1.4,83.0,63.0,88.5,75.2,95.0,66.9,93.8,78.0,90.2,64.4,92.3,75.6,86.9,63.9,91.4,74.5,0.05,-0.05,0.08,0.06,0.00,111.37,111.23,103.34,103.34,194.4,26.0,0.3313608305156179,126.75580222224842,40.69149333882938,14.404068544271382,7.20203455664759
0.900,31.8,44.054360016831374,-78.681876556802592,-27.9,-64.6,-79.5,12.6,7110.4,7110,131.0,0,1,1,0,1,1,0,0,0,100,1,1.186,26.0,0.0,-0.12,71.123,66.0,0.0,26.0,26.0,26.0,26.0,-0.09,0.39,-0.13,383.4,-3.44,-2.36,-2.24,-1.69,-730.63,660.72,5.7,0.00,0.00,0.00,0.00,0.02,-7.49,-7.49,-0.72,1.67,0.23,0.49,36.41,0.01,-0.28,0.2,100.0,0,0,103.60,0,0,0.0,0,0,0,0,6945,0,30.00,3,131.0,1,0,0.0,0.0,0.0,0.0,1,0,0.903,0.903,110.313,29.225,1,110.00,435.8,8750,0.0,0.0,110.0,110.0,433.0,0.00,0,0,1,166.7,79.3,79.3,73.8,73.8,34.0,-11.3,2.47,-33.6,29.0,4,-477.010,0.5,100.0,20.6,18.0,31.3,34.8,0,1,47.2,0.00,0.00,0.00,0.00,2463,1135,5657,6267,319.0,321.6,341.8,338.7,25.12,21.92,27.00,24.86,325.0,325.0,355.0,355.0,99.89,100.00,99.89,99.96,0.00,-0.06,-0.11,0.08,-0.0,-0.1,1.5,1.5,83.0,63.0,88.5,75.2,94.9,66.9,93.8,78.0,90.1,64.4,92.2,75.6,86.8,63.8,91.3,74.5,0.03,-0.04,0.07,0.07,0.00,111.61,111.60,103.60,103.60,194.4,26.0,0.4208325082500163,127.47600564946197,41.41169679449414,-28.80813680403122,-7.202034556647519
0.950,33.6,44.054344098838946,-78.681871340737274,-85.9,-32.0,147.8,41.8,7112.2,7112,131.6,0,1,1,0,1,1,0,0,0,100,1,1.186,26.0,0.0,-0.12,71.123,66.0,0.0,26.0,26.0,26.0,26.0,0.03,0.31,-0.03,383.4,-2.43,-2.34,-1.36,-2.48,-730.05,658.95,5.7,0.00,0.00,0.00,0.00,0.02,-7.49,-7.49,-0.83,-4.69,0.23,0.46,36.55,0.02,-0.34,0.2,100.0,0,0,103.96,0,0,0.0,0,0,0,0,6969,0,30.00,3,131.6,0,0,0.0,0.0,0.0,0.0,1,0,0.953,0.953,110.313,29.225,0,110.00,435.8,8750,0.0,0.0,110.0,110.0,433.0,0.00,0,0,1,166.7,80.8,80.8,63.3,63.3,34.0,-5.5,10.91,-17.8,22.7,4,-477.060,0.7,100.0,16.3,16.4,38.7,36.8,0,1,47.2,0.00,0.00,0.00,0.00,1669,3030,4960,4025,320.7,316.4,342.6,344.5,25.12,21.92,27.00,24.87,325.0,325.0,355.0,355.0,99.89,100.00,99.89,99.96,-0.02,0.02,-0.06,0.08,-0.0,-0.0,1.3,1.3,83.0,63.0,88.5,75.2,94.8,66.8,93.7,77.9,90.1,64.4,92.2,75.6,86.7,63.8,91.3,74.5,0.04,-0.05,0.07,0.06,0.00,111.95,111.98,103.96,103.95,194.4,26.0,0.31288975694324034,123.8749885418453,39.97128988316463,-68.41932515852122,-25.207120663754665
1.000,35.4,44.054329080168131,-78.681866574332773,38.8,7.7,-166.5,-151.1,7114.0,7114,132.0,0,1,1,0,1,1,0,0,0,100,1,1.186,26.0,0.0,-0.13,71.123,66.0,0.0,26.0,26.0,26.0,26.0,-0.03,0.34,-0.33,387.2,-3.09,-2.13,-2.16,-1.99,-729.52,657.28,5.7,0.00,0.00,0.00,0.00,0.02,-7.49,-7.49,-1.02,-2.49,0.29,1.61,36.67,0.02,-0.36,0.7,100.0,0,0,104.88,0,0,0.0,0,0,0,0,7031,0,30.00,3,132.0,1,0,0.0,0.0,0.0,0.0,1,0,1.003,1.003,110.313,29.225,1,110.00,435.8,8750,0.0,0.0,110.0,110.0,433.0,0.00,0,0,1,333.3,78.1,78.1,79.1,79.1,34.0,-17.0,6.48,-13.9,16.6,4,-477.110,1.0,100.0,18.2,16.8,30.3,29.3,0,1,47.2,0.00,0.00,0.00,0.00,3231,2408,3156,4082,317.1,318.1,347.3,344.4,25.12,21.92,27.00,24.87,325.0,325.0,355.0,355.0,99.89,100.00,99.89,99.96,-0.07,-0.02,-0.08,0.05,-0.1,-0.0,1.8,2.0,83.0,63.0,88.5,75.2,94.8,66.8,93.7,77.9,90.0,64.3,92.1,75.5,86.7,63.8,91.2,74.5,0.07,-0.06,0.07,0.08,0.00,112.40,112.36,104.88,104.88,194.4,26.0,0.4747630988187688,120.63407313360985,38.890984728118674,10.803051550459486,3.60101756283548
1.050,37.3,44.054313971565151,-78.681861628063942,3.0,42.5,-36.9,28.6,7115.9,7116,132.5,0,1,1,0,1,1,0,0,0,100,1,1.186,26.0,0.0,-0.13,71.123,66.0,0.0,26.0,26.0,26.0,26.0,-0.03,0.32,-0.12,385.0,-2.76,-3.06,-2.07,-1.17,-728.97,655.60,5.6,0.00,0.00,0.00,0.00,0.02,-7.49,-7.49,-1.10,-0.92,0.21,-4.83,36.81,0.00,-0.37,0.6,100.0,0,0,104.94,0,0,0.0,0,0,0,0,7035,0,30.00,3,132.5,0,0,0.0,0.0,0.0,0.0,0,0,1.050,1.050,110.313,29.225,0,110.00,435.8,8750,0.0,0.0,110.0,110.0,433.0,0.00,0,0,1,333.3,76.0,76.0,74.2,74.2,34.0,-16.4,13.31,-29.9,11.6,4,-477.160,1.1,100.0,18.4,18.9,28.5,30.7,0,1,47.2,0.00,0.00,0.00,0.00,3539,2912,5545,3614,316.4,316.5,342.1,345.7,25.13,21.92,27.00,24.87,325.0,325.0,355.0,355.0,99.89,100.00,99.89,99.96,-0.04,0.02,-0.10,0.10,-0.1,-0.1,1.6,1.6,83.0,63.0,88.5,75.2,94.7,66.8,93.6,77.9,89.9,64.3,92.1,75.5,86.6,63.8,91.2,74.4,0.06,-0.07,0.09,0.07,0.00,112.92,112.88,104.94,104.94,194.4,26.0,0.34307433596816883,124.95529369689125,40.33139163944818,86.42441069660507,25.207120663754665
1.100,39.1,44.054297873708400,-78.681856501930781,-46.6,-53.4,86.1,-20.6,7117.7,7118,133.0,0,1,1,0,1,1,0,0,0,100,1,1.186,26.0,0.0,-0.14,71.123,66.0,0.0,26.0,26.0,26.0,26.0,-0.08,0.33,-0.13,384.6,-2.47,-1.97,-2.56,-1.67,-728.40,653.81,5.6,0.00,0.00,0.00,0.00,0.02,-7.49,-7.49,-1.19,-3.22,0.14,-0.86,36.96,0.00,-0.33,0.7,100.0,0,0,105.15,0,0,0.0,0,0,0,0,7049,0,30.00,3,133.0,1,0,0.0,0.0,0.0,0.0,0,0,1.100,1.100,110.313,29.225,1,110.00,435.8,8750,0.0,0.0,110.0,110.0,433.0,0.00,0,0,1,333.3,79.1,79.1,68.7,68.7,34.0,-16.9,7.23,-45.7,16.5,4,-477.210,1.2,100.0,16.0,16.3,32.8,29.7,0,1,47.2,0.00,0.00,0.00,0.00,3483,2816,6569,4121,316.4,317.3,339.9,344.3,25.13,21.92,27.00,24.87,325.0,325.0,355.0,355.0,99.89,100.00,99.89,99.96,-0.10,-0.02,-0.13,0.07,-0.1,-0.1,1.5,1.5,83.0,63.0,88.5,75.2,94.6,66.7,93.6,77.9,89.9,64.3,92.0,75.5,86.6,63.7,91.1,74.4,0.09,-0.07,0.07,0.07,0.00,113.29,113.21,105.15,105.14,194.4,26.0,0.36359317925395684,129.27651420327035,41.41169679449414,10.803050981435831,-5.690235838073932e-07
1.150,41.0,44.054281685919499,-78.681851285865463,212.9,148.6,-26.0,-3.0,7119.6,7120,133.5,0,1,1,0,1,1,0,0,0,100,1,1.186,26.0,0.0,-0.14,71.123,66.0,0.0,26.0,26.0,26.0,26.0,-0.04,0.23,0.13,379.5,-1.38,-3.04,-2.30,-1.68,-727.82,652.01,5.6,0.00,0.00,0.00,0.00,0.03,-7.49,-7.49,-1.30,1.64,0.11,0.74,37.08,-0.01,-0.43,1.2,100.0,0,0,106.16,0,0,0.0,0,0,0,0,7117,0,30.00,3,133.5,0,0,0.0,0.0,0.0,0.0,0,0,1.153,1.153,110.313,29.225,0,110.00,435.8,8750,0.0,0.0,110.0,110.0,433.0,0.00,0,0,1,333.3,63.3,63.3,77.7,77.7,34.0,-25.5,26.49,-19.5,10.6,4,-477.260,1.2,100.0,26.7,23.7,31.5,29.5,0,1,47.2,0.00,0.00,0.00,0.00,5740,4814,3582,3489,310.3,311.5,346.8,346.3,25.13,21.92,27.00,24.87,325.0,325.0,355.0,355.0,99.89,100.00,99.89,99.96,-0.14,0.06,-0.14,0.02,-0.0,-0.1,1.6,1.8,83.1,63.0,88.5,75.2,94.6,66.7,93.5,77.8,89.8,64.2,92.0,75.5,86.5,63.7,91.1,74.4,0.07,-0.06,0.08,0.07,0.00,114.03,113.85,106.16,106.16,194.4,26.0,0.2672077843177478,126.03559879503483,40.33139158254582,-28.808136804031363,-10.803052119483212
1.200,42.8,44.054266397452196,-78.681846429528804,34.0,33.3,-15.0,48.3,7121.4,7121,134.0,0,1,1,0,1,1,0,0,0,100,1,1.186,26.0,0.0,-0.16,71.123,66.0,0.0,26.0,26.0,26.0,26.0,-0.10,0.30,0.09,378.0,-3.03,-2.95,-1.10,-0.79,-727.28,650.31,5.6,0.00,0.00,0.00,0.00,0.03,-7.49,-7.49,-0.99,8.25,0.18,1.52,37.22,-0.01,-0.30,1.1,100.0,0,0,106.04,0,0,0.0,0,0,0,0,7109,0,30.00,3,134.0,1,0,0.0,0.0,0.0,0.0,0,0,1.200,1.200,110.313,29.225,1,110.00,435.8,8750,0.0,0.0,110.0,110.0,433.0,0.00,0,0,1,333.3,67.0,67.0,74.6,74.6,34.0,-29.1,6.04,-27.7,11.8,4,-477.310,1.4,100.0,28.4,25.4,30.7,31.9,0,1,47.2,0.00,0.00,0.00,0.00,4634,2224,5697,5882,313.9,318.1,341.9,339.9,25.13,21.92,27.00,24.87,325.0,325.0,355.0,355.0,99.89,100.00,99.89,99.96,-0.13,-0.12,-0.19,0.02,-0.1,-0.0,1.2,1.3,83.1,63.0,88.5,75.2,94.5,66.7,93.5,77.8,89.8,64.2,91.9,75.4,86.5,63.7,91.0,74.4,0.09,-0.09,0.07,0.07,0.00,114.48,114.37,106.05,106.04,194.4,26.0,0.3287856444554719,126.39570052286722,40.33139158254582,46.813222626626185,14.404069113295108
1.250,44.7,44.054250119731130,-78.681841213463485,-160.3,-103.5,304.9,273.8,7123.3,7123,134.5,0,1,1,0,1,1,0,0,0,100,1,1.186,26.0,0.0,-0.17,71.123,66.0,0.0,26.0,26.0,26.0,26.0,-0.08,0.31,0.28,374.3,-2.95,-2.44,-1.43,-1.48,-726.70,648.50,5.6,0.00,0.00,0.00,0.00,0.03,-7.49,-7.49,-0.77,-0.09,0.34,2.31,37.37,0.00,-0.27,0.8,100.0,0,0,106.13,0,0,0.0,0,0,0,0,7114,0,30.00,3,134.5,0,0,0.0,0.0,0.0,0.0,0,0,1.250,1.250,110.313,29.225,0,110.00,435.8,8750,0.0,0.0,110.0,110.0,433.0,0.00,0,0,1,333.3,75.3,75.3,52.1,52.1,34.0,-11.1,10.83,-33.2,17.0,4,-477.360,1.4,100.0,20.4,20.2,46.0,45.6,0,1,47.2,0.00,0.00,0.00,0.00,2191,3849,6284,5730,319.4,314.3,339.2,339.9,25.14,21.92,27.00,24.87,325.0,325.0,355.0,355.0,99.89,100.00,99.89,99.96,-0.10,-0.07,-0.14,-0.02,0.0,-0.0,1.0,1.1,83.1,63.0,88.5,75.2,94.5,66.7,93.5,77.8,89.7,64.2,91.9,75.4,86.4,63.7,91.0,74.3,0.08,-0.10,0.04,0.04,0.00,114.71,114.61,106.13,106.12,194.4,26.0,0.42532340636273475,130.71692105769745,41.77179849387533,10.803051265947516,5.690235838073932e-07
1.300,46.6,44.054233752077899,-78.681835997398167,-67.1,-61.3,-100.8,-158.6,7125.2,7125,135.0,0,1,1,0,1,1,0,0,0,100,1,1.186,26.0,0.0,-0.17,71.123,66.0,0.0,26.0,26.0,26.0,26.0,-0.03,0.24,-0.33,384.1,-2.48,-2.37,-1.43,-1.54,-726.12,646.68,5.6,0.00,0.00,0.00,0.00,0.03,-7.49,-7.49,-0.89,-3.52,0.33,0.35,37.50,-0.00,-0.29,0.7,100.0,0,0,107.07,0,0,0.0,0,0,0,0,7178,0,30.00,3,135.0,1,0,0.0,0.0,0.0,0.0,0,0,1.303,1.303,110.313,29.225,1,110.00,435.8,8750,0.0,0.0,110.0,110.0,433.0,0.00,0,0,1,333.3,81.3,81.3,68.7,68.7,34.0,-7.7,3.33,-9.7,12.4,4,-477.410,1.3,100.0,17.0,17.1,41.0,37.7,0,1,47.2,0.00,0.00,0.00,0.00,1889,1944,3080,4227,319.9,320.2,348.4,344.3,25.14,21.92,27.00,24.87,325.0,325.0,355.0,355.0,99.89,100.00,99.89,99.96,-0.07,-0.11,-0.08,0.01,-0.0,0.0,1.5,1.5,83.1,63.0,88.5,75.2,94.4,66.6,93.4,77.8,89.6,64.2,91.9,75.4,86.3,63.6,90.9,74.3,0.08,-0.09,0.06,0.05,0.00,114.94,114.76,107.08,107.07,194.4,26.0,0.40914545090957566,127.47600564946197,40.33139163944818,-28.808137088542765,-14.404068544271524
1.350,48.5,44.054218283746280,-78.681831141061494,-62.5,-21.6,-110.0,-22.8,7127.0,7127,135.5,0,1,1,0,1,1,0,0,0,100,1,1.186,26.0,0.0,-0.18,71.123,66.0,0.0,26.0,26.0,26.0,26.0,0.03,0.25,-0.12,384.8,-2.10,-1.97,-0.66,-1.63,-725.58,644.96,5.5,0.00,0.00,0.00,0.00,0.03,-7.49,-7.49,-1.14,-6.99,0.18,-6.45,37.64,-0.02,-0.36,0.7,100.0,0,0,107.16,0,0,0.0,0,0,0,0,7184,0,30.00,3,135.5,0,0,0.0,0.0,0.0,0.0,0,0,1.350,1.350,110.313,29.225,0,110.00,435.8,8750,0.0,0.0,110.0,110.0,433.0,0.00,0,0,1,333.3,80.7,80.7,69.8,69.8,34.0,-10.4,8.77,-6.9,14.6,4,-477.460,1.3,100.0,13.9,16.0,35.5,36.6,0,1,47.2,0.00,0.00,0.00,0.00,2784,2970,3847,3782,318.0,316.5,345.5,345.0,25.14,21.92,27.00,24.87,325.0,325.0,355.0,355.0,99.89,100.00,99.89,99.96,-0.06,0.01,-0.05,0.07,-0.1,-0.0,1.4,1.5,83.1,63.0,88.5,75.2,94.3,66.6,93.4,77.7,89.6,64.1,91.8,75.4,86.3,63.6,90.9,74.3,0.09,-0.08,0.06,0.05,0.00,115.22,115.17,107.16,107.16,194.4,26.0,0.27892651361962706,127.83610734884317,40.33139163944818,86.42441069660521,28.808136519519323
1.400,50.4,44.054201826160892,-78.681825924996176,180.1,53.3,-86.9,-218.0,7128.9,7129,135.9,0,1,1,0,1,1,0,0,0,100,1,1.186,26.0,0.0,-0.19,71.123,66.0,0.0,26.0,26.0,26.0,26.0,-0.08,0.27,-0.17,386.0,-2.16,-2.40,-1.54,-1.45,-725.00,643.13,5.5,0.00,0.00,0.00,0.00,0.03,-7.49,-7.49,-1.38,-1.05,-0.00,1.19,37.76,-0.03,-0.45,1.5,100.0,0,0,108.17,0,0,0.0,0,0,0,0,7251,0,30.00,3,135.9,1,0,0.0,0.0,0.0,0.0,0,0,1.400,1.400,110.313,29.225,1,110.00,435.8,8750,0.0,0.0,110.0,110.0,433.0,0.00,0,0,1,333.3,73.3,73.3,80.5,80.5,34.0,-19.0,7.32,-12.5,6.4,4,-477.510,1.3,100.0,22.9,18.7,31.1,25.7,0,1,47.2,0.00,0.00,0.00,0.00,3876,2788,3018,2981,315.0,317.3,347.5,347.6,25.14,21.92,27.01,24.87,325.0,325.0,355.0,355.0,99.89,100.00,99.89,99.96,-0.12,-0.06,-0.16,-0.01,0.0,-0.1,1.8,2.0,83.1,63.0,88.5,75.2,94.2,66.6,93.3,77.7,89.5,64.1,91.8,75.3,86.2,63.6,90.8,74.3,0.09,-0.09,0.08,0.09,0.00,115.85,115.69,108.17,108.17,194.4,26.0,0.3289376840679706,136.1184467191225,43.21220529140011,50.414239620438366,18.005084969059766
1.450,52.3,44.054184289389575,-78.681820349202226,123.8,104.8,-24.1,76.6,7130.8,7131,136.5,0,1,1,0,1,1,0,0,0,100,1,1.186,26.0,0.0,-0.20,71.123,66.0,0.0,26.0,26.0,26.0,26.0,-0.19,0.30,0.39,375.8,-2.71,-2.86,-1.65,-1.71,-724.38,641.18,5.5,0.00,0.00,0.00,0.00,0.03,-7.49,-7.49,-1.29,4.87,0.01,0.71,37.91,-0.04,-0.41,1.5,100.0,0,0,107.89,0,0,0.0,0,0,0,0,7233,0,30.00,3,136.5,0,0,0.0,0.0,0.0,0.0,0,0,1.453,1.453,110.313,29.225,0,110.00,435.8,8750,0.0,0.0,110.0,110.0,433.0,0.00,0,0,1,166.7,61.1,61.1,73.2,73.2,34.0,-47.7,22.14,-45.6,15.7,4,-477.560,1.2,100.0,29.1,23.9,29.9,29.5,0,1,47.2,0.00,0.00,0.00,0.00,6446,5035,6521,5008,308.9,310.8,339.3,342.2,25.14,21.92,27.01,24.87,325.0,325.0,355.0,355.0,99.89,100.00,99.89,99.96,-0.20,-0.02,-0.25,-0.03,-0.0,-0.1,1.3,1.3,83.1,63.0,88.5,75.2,94.2,66.5,93.2,77.7,89.5,64.1,91.7,75.3,86.2,63.5,90.8,74.2,0.09,-0.07,0.08,0.06,0.00,116.72,116.50,107.89,107.89,194.4,26.0,0.5274466797696238,132.877531310887,42.131900136354155,-68.41932515852136,-25.207119525707284
1.500,54.2,44.054168641193634,-78.681815402933395,67.8,97.0,105.5,81.2,7132.7,7133,136.9,0,1,1,0,1,1,0,0,0,100,1,1.186,26.0,0.0,-0.20,71.123,66.0,0.0,26.0,26.0,26.0,26.0,-0.10,0.27,0.43,372.1,-2.43,-2.83,-0.57,-1.59,-723.83,639.44,5.5,0.00,0.00,0.00,0.00,0.03,-7.49,-7.49,-0.92,11.17,0.12,2.33,38.03,-0.03,-0.33,1.6,100.0,0,0,108.52,0,0,0.0,0,0,0,0,7275,0,30.00,3,136.9,1,0,0.0,0.0,0.0,0.0,0,0,1.503,1.503,110.313,29.225,1,110.00,435.8,8750,0.0,0.0,110.0,110.0,433.0,0.00,0,0,1,166.7,56.8,56.8,69.7,69.7,34.0,-39.4,22.17,-19.2,14.6,4,-477.610,1.3,100.0,32.5,28.8,35.2,33.6,0,1,47.2,0.00,0.00,0.00,0.00,5954,5670,4820,5696,309.5,309.8,343.4,340.4,25.15,21.92,27.01,24.87,325.0,325.0,355.0,355.0,99.89,100.00,99.89,99.96,-0.17,-0.05,-0.22,-0.06,-0.0,-0.1,1.2,1.4,83.2,63.0,88.5,75.2,94.1,66.5,93.2,77.7,89.4,64.1,91.7,75.3,86.1,63.5,90.7,74.2,0.11,-0.08,0.08,0.05,0.00,117.21,117.02,108.52,108.52,194.4,26.0,0.5174939613174244,129.27651420327035,40.69149333882938,-28.80813680403122,-18.005084969059766
1.550,56.1,44.054152003743923,-78.681810186868077,-118.8,-115.3,235.4,269.9,7134.6,7135,137.4,0,1,1,0,1,1,0,0,0,100,1,1.186,26.0,0.0,-0.21,71.123,66.0,0.0,26.0,26.0,26.0,26.0,-0.07,0.29,0.12,371.7,-2.84,-2.45,-1.12,-1.55,-723.25,637.59,5.5,0.00,0.00,0.00,0.00,0.03,-7.49,-7.49,-0.42,6.65,0.28,3.18,38.17,-0.02,-0.18,1.1,100.0,0,0,108.69,0,0,0.0,0,0,0,0,7286,0,30.00,3,137.4,0,0,0.0,0.0,0.0,0.0,1,0,1.553,1.553,110.313,29.225,0,110.00,435.8,8750,0.0,0.0,110.0,110.0,433.0,0.00,0,0,1,166.7,71.1,71.1,56.1,56.1,34.0,-12.2,5.78,-25.7,18.5,4,-477.660,1.3,100.0,26.5,23.0,47.0,47.0,0,1,47.2,0.00,0.00,0.00,0.00,2551,2910,5692,7260,318.2,316.8,341.6,336.5,25.15,21.93,27.01,24.87,325.0,325.0,355.0,355.0,99.89,100.00,99.89,99.96,-0.06,-0.12,-0.15,-0.07,-0.0,-0.0,1.0,1.2,83.2,63.0,88.6,75.2,94.1,66.5,93.2,77.6,89.4,64.0,91.6,75.3,86.1,63.5,90.7,74.2,0.08,-0.08,0.05,0.02,0.00,117.27,117.17,108.69,108.69,194.4,26.0,0.3215587038162705,129.9967176304839,40.33139163944818,14.404068544270956,-3.6010169938120384
1.600,58.0,44.054136175683659,-78.681805330531404,-188.3,-86.1,66.7,42.3,7136.6,7137,137.9,0,1,1,0,1,1,0,0,0,100,1,1.186,26.0,0.0,-0.22,71.123,66.0,0.0,26.0,26.0,26.0,26.0,-0.05,0.28,0.15,373.7,-2.45,-2.21,-1.93,-2.19,-722.71,635.83,5.5,0.00,0.00,0.00,0.00,0.03,-7.49,-7.49,-0.39,-3.31,0.30,-0.40,38.30,-0.01,-0.25,0.8,100.0,0,0,108.83,0,0,0.0,0,0,0,0,7296,0,30.00,3,137.9,1,0,0.0,0.0,0.0,0.0,1,0,1.603,1.603,110.313,29.225,1,110.00,435.8,8750,0.0,0.0,110.0,110.0,433.0,0.00,0,0,1,166.7,75.8,75.8,50.5,50.5,34.0,-18.2,10.53,-31.6,26.1,4,-477.710,1.2,100.0,17.1,18.7,50.3,49.2,0,1,47.2,0.00,0.00,0.00,0.00,3675,3766,5856,5751,315.8,314.3,340.9,340.2,25.15,21.93,27.01,24.87,325.0,325.0,355.0,355.0,99.89,100.00,99.89,99.96,-0.10,-0.04,-0.09,-0.01,-0.0,-0.0,1.1,1.2,83.2,63.0,88.6,75.2,94.0,66.5,93.1,77.6,89.3,64.0,91.6,75.3,86.0,63.5,90.7,74.2,0.07,-0.09,0.04,0.02,0.00,117.41,117.42,108.83,108.83,194.4,26.0,0.32155870381627055,130.71692105769745,40.33139163944818,46.8132223421145,14.40406797524787
1.650,59.9,44.054119358369626,-78.681800114466085,148.6,70.7,-307.2,-241.1,7138.5,7138,138.3,0,1,1,0,1,1,0,0,0,100,1,1.186,26.0,0.0,-0.23,71.123,66.0,0.0,26.0,26.0,26.0,26.0,-0.05,0.25,-0.08,379.7,-2.22,-2.48,-2.01,-1.51,-722.13,633.96,5.5,0.00,0.00,0.00,0.00,0.04,-7.49,-7.49,-0.52,0.85,0.34,0.53,38.42,-0.01,-0.36,1.0,100.0,0,0,109.95,0,0,0.0,0,0,0,0,7371,0,30.00,3,138.3,0,0,0.0,0.0,0.0,0.0,1,0,1.653,1.653,110.313,29.225,0,110.00,435.8,8750,0.0,0.0,110.0,110.0,433.0,0.00,0,0,1,166.7,68.8,68.8,71.3,71.3,34.0,-16.2,14.95,-19.0,10.4,4,-477.760,1.3,100.0,24.5,22.3,34.9,37.1,0,1,47.2,0.00,0.00,0.00,0.00,3566,4222,4115,4295,315.7,312.9,345.9,344.4,25.15,21.93,27.01,24.87,325.0,325.0,355.0,355.0,99.89,100.00,99.89,99.96,-0.09,-0.02,-0.10,-0.02,0.0,-0.1,1.6,1.8,83.2,63.0,88.6,75.2,93.9,66.5,93.1,77.6,89.2,64.0,91.5,75.2,86.0,63.4,90.6,74.2,0.07,-0.08,0.06,0.06,0.00,117.89,117.88,109.95,109.95,194.4,26.0,0.2672077843177478,134.67803986469534,41.771798436972965,3.6010169938123227,3.6010164247883125
1.700,61.8,44.054102541055599,-78.681794898400781,24.3,-6.2,30.9,-3.8,7140.4,7140,138.8,0,1,1,0,1,1,0,0,0,100,1,1.186,26.0,0.0,-0.24,71.123,66.0,0.0,26.0,26.0,26.0,26.0,-0.07,0.27,0.29,376.1,-2.62,-2.87,-1.82,-2.18,-721.55,632.09,5.5,0.00,0.00,0.00,0.00,0.04,-7.49,-7.49,-0.43,1.89,0.37,3.19,38.56,-0.00,-0.36,1.1,100.0,0,0,109.64,0,0,0.0,0,0,0,0,7350,0,30.00,3,138.8,1,0,0.0,0.0,0.0,0.0,1,0,1.703,1.703,110.313,29.225,1,110.00,435.8,8750,0.0,0.0,110.0,110.0,433.0,0.00,0,0,1,166.7,67.2,67.2,66.8,66.8,34.0,-25.8,17.03,-39.2,27.0,4,-477.810,1.3,100.0,25.8,21.9,36.5,36.9,0,1,47.2,0.00,0.00,0.00,0.00,4556,4305,6173,5706,313.0,313.1,340.6,339.6,25.16,21.93,27.01,24.87,325.0,325.0,355.0,355.0,99.89,100.00,99.89,99.96,-0.10,-0.04,-0.18,0.00,-0.1,-0.1,1.2,1.3,83.2,63.0,88.6,75.2,93.9,66.4,93.0,77.6,89.2,64.0,91.5,75.2,85.9,63.4,90.6,74.1,0.08,-0.09,0.06,0.06,0.00,118.43,118.31,109.64,109.64,194.4,26.0,0.40236799077461416,131.07702275707868,40.69149328192701,-68.41932487400982,-21.606102531895246
1.750,63.8,44.054086623063171,-78.681789952131950,19.2,62.8,20.9,12.9,7142.3,7142,139.2,0,1,1,0,1,1,0,0,0,100,1,1.186,26.0,0.0,-0.25,71.123,66.0,0.0,26.0,26.0,26.0,26.0,-0.06,0.25,-0.03,377.9,-2.21,-2.99,-1.31,-1.24,-721.00,630.32,5.5,0.00,0.00,0.00,0.00,0.04,-7.49,-7.49,-0.29,3.91,0.50,2.36,38.67,-0.00,-0.38,0.9,100.0,0,0,110.32,0,0,0.0,0,0,0,0,7396,0,30.00,3,139.2,0,0,0.0,0.0,0.0,0.0,1,0,1.753,1.753,110.313,29.225,0,110.00,435.8,8750,0.0,0.0,110.0,110.0,433.0,0.00,0,0,1,333.3,68.8,68.8,63.3,63.3,34.0,-10.1,15.44,-27.2,9.3,4,-477.860,1.3,100.0,26.7,25.1,37.5,37.6,0,1,47.2,0.00,0.00,0.00,0.00,2354,3859,5839,4160,318.4,314.2,341.5,344.4,25.16,21.93,27.01,24.87,325.0,325.0,355.0,355.0,99.89,100.00,99.89,99.96,-0.09,-0.04,-0.15,-0.01,-0.0,-0.1,1.3,1.4,83.2,63.1,88.6,75.2,93.8,66.4,93.0,77.6,89.1,63.9,91.4,75.2,85.9,63.4,90.5,74.1,0.09,-0.08,0.05,0.06,0.00,118.72,118.76,110.32,110.32,194.4,26.0,0.2588435821108957,127.83610737729435,39.61118818378344,10.803051265947374,5.690237259159403e-07
1.800,65.7,44.054070615138585,-78.681785005863119,-171.1,-26.2,44.1,72.7,7144.3,7144,139.7,0,1,1,0,1,1,0,0,0,100,1,1.186,26.0,0.0,-0.25,71.123,66.0,0.0,26.0,26.0,26.0,26.0,-0.06,0.27,0.22,375.5,-3.34,-2.55,-1.54,-1.60,-720.45,628.54,5.5,0.00,0.00,0.00,0.00,0.04,-7.49,-7.49,-0.20,0.18,0.52,-5.40,38.80,-0.01,-0.34,0.8,100.0,0,0,110.09,0,0,0.0,0,0,0,0,7380,0,30.00,3,139.7,1,0,0.0,0.0,0.0,0.0,1,0,1.800,1.800,110.313,29.225,1,110.00,435.8,8750,0.0,0.0,110.0,110.0,433.0,0.00,0,0,1,333.3,70.9,70.9,53.2,53.2,34.0,-20.7,22.85,-39.5,22.8,4,-477.910,1.4,100.0,18.2,23.8,39.7,41.2,0,1,47.2,0.00,0.00,0.00,0.00,3657,5303,7309,5475,316.4,309.8,338.0,340.0,25.16,21.93,27.01,24.87,325.0,325.0,355.0,355.0,99.89,100.00,99.89,99.96,-0.07,0.01,-0.13,0.04,-0.1,-0.0,1.0,1.1,83.2,63.1,88.6,75.2,93.8,66.4,92.9,77.5,89.1,63.9,91.4,75.2,85.8,63.4,90.5,74.1,0.07,-0.09,0.06,0.05,0.00,118.95,119.07,110.09,110.09,194.4,26.0,0.35341194094144585,132.15732788367342,40.69149333882938,129.63661576039556,36.010171645190354
1.850,67.6,44.054053617960236,-78.681779789797801,150.7,147.9,1.3,-154.0,7146.2,7146,140.0,0,1,1,0,1,1,0,0,0,100,1,1.186,26.0,0.0,-0.26,71.123,66.0,0.0,26.0,26.0,26.0,26.0,-0.03,0.24,0.22,374.7,-3.03,-2.23,-1.15,-0.95,-719.87,626.65,5.5,0.00,0.00,0.00,0.00,0.04,-7.49,-7.49,-0.10,5.83,0.07,-9.35,38.90,-0.03,-0.39,0.9,100.0,0,0,111.12,0,0,0.0,0,0,0,0,7449,0,30.00,3,140.0,0,0,0.0,0.0,0.0,0.0,1,0,1.850,1.850,110.313,29.225,0,110.00,435.8,8750,0.0,0.0,110.0,110.0,433.0,0.00,0,0,1,166.7,59.8,59.8,58.6,58.6,34.0,-33.7,27.23,-14.3,10.9,4,-477.960,1.4,100.0,25.7,31.2,39.8,33.5,0,1,47.2,0.00,0.00,0.00,0.00,5481,5960,5174,3891,311.5,308.4,342.5,345.6,25.16,21.93,27.02,24.87,325.0,325.0,355.0,355.0,99.89,100.00,99.89,99.96,-0.09,0.06,-0.04,0.09,-0.0,-0.1,1.4,1.4,83.3,63.1,88.6,75.2,93.7,66.4,92.9,77.5,89.0,63.9,91.4,75.2,85.7,63.4,90.4,74.1,0.09,-0.08,0.06,0.08,0.00,119.69,119.49,111.11,111.12,194.4,26.0,0.3269556544854363,140.7997689533339,43.212205348302476,10.803051550459486,0.0
1.900,69.6,44.054035451663793,-78.681774214003838,214.3,-17.5,49.8,179.0,7148.2,7148,140.5,0,1,1,0,1,1,0,0,0,100,1,1.186,26.0,0.0,-0.27,71.123,66.0,0.0,26.0,26.0,26.0,26.0,-0.08,0.27,0.59,366.5,-2.75,-2.80,-1.01,-2.27,-719.25,624.63,5.5,0.00,0.00,0.00,0.00,0.04,-7.49,-7.49,0.44,11.92,-0.27,-1.41,39.04,-0.06,-0.28,1.9,100.0,0,0,110.97,0,0,0.0,0,0,0,0,7439,0,30.00,3,140.5,1,0,0.0,0.0,0.0,0.0,1,0,1.907,1.907,110.313,29.225,1,110.00,435.8,8750,0.0,0.0,110.0,110.0,433.0,0.00,0,0,1,166.7,55.4,55.4,58.9,58.9,34.0,-39.5,18.96,-40.6,36.6,4,-478.010,1.4,100.0,36.4,30.3,42.3,42.5,0,1,47.2,0.00,0.00,0.00,0.00,6102,4692,7636,7118,309.2,312.5,336.7,336.7,25.16,21.93,27.02,24.87,325.0,325.0,355.0,355.0,99.89,100.00,99.89,99.96,-0.12,-0.02,-0.19,-0.01,-0.0,-0.0,0.8,1.0,83.3,63.1,88.6,75.2,93.7,66.4,92.8,77.5,89.0,63.9,91.3,75.1,85.7,63.3,90.4,74.1,0.11,-0.06,0.05,0.04,0.00,120.24,120.07,110.97,110.97,194.4,26.0,0.6537583651472462,133.23763303871937,40.69149333882938,-115.23254750063558,-39.61118863900239
1.950,71.6,44.054020343060813,-78.681769627463652,-249.0,-163.5,237.3,130.6,7150.1,7150,140.9,0,1,1,0,1,1,0,0,0,100,1,1.186,26.0,0.0,-0.28,71.123,66.0,0.0,26.0,26.0,26.0,26.0,-0.13,0.26,0.27,372.1,-2.30,-3.04,-1.59,-2.09,-718.74,622.95,5.6,0.00,0.00,0.00,0.00,0.04,-7.49,-7.49,0.87,5.05,-0.31,0.57,39.15,-0.06,-0.19,1.2,100.0,0,0,111.18,0,0,0.0,0,0,0,0,7453,0,30.00,3,140.9,0,0,0.0,0.0,0.0,0.0,1,0,1.950,1.950,110.313,29.225,0,110.00,435.8,8750,0.0,0.0,110.0,110.0,433.0,0.00,0,0,1,333.3,75.8,75.8,43.2,43.2,34.0,-8.1,2.71,-60.2,22.1,4,-478.060,1.1,100.0,24.0,22.1,54.1,49.0,0,1,47.2,0.00,0.00,0.00,0.00,2100,1556,8749,6411,319.1,320.4,334.4,338.3,25.17,21.93,27.02,24.87,325.0,325.0,355.0,355.0,99.89,100.00,99.89,99.96,-0.05,-0.19,-0.19,-0.09,0.0,0.0,0.9,0.9,83.3,63.1,88.6,75.2,93.6,66.3,92.8,77.5,88.9,63.9,91.3,75.1,85.6,63.3,90.4,74.0,0.07,-0.07,0.02,0.04,0.00,120.21,120.03,111.18,111.17,194.4,26.0,0.39673668849754745,129.27651420327035,39.25108648440224,46.81322205760239,14.404068544271453
2.000,73.5,44.054003166018141,-78.681764411398333,-244.3,-258.3,-100.1,40.1,7152.1,7152,141.4,0,1,1,0,1,1,0,0,0,100,1,1.186,26.0,0.0,-0.28,71.123,66.0,0.0,26.0,26.0,26.0,26.0,-0.04,0.22,-0.28,384.6,-2.45,-1.44,-1.66,-1.99,-718.16,621.04,5.6,0.00,0.00,0.00,0.00,0.04,-7.49,-7.49,0.68,-11.17,-0.03,4.75,39.27,-0.03,-0.32,0.2,100.0,0,0,111.52,0,0,0.0,0,0,0,0,7476,0,30.00,3,141.4,1,0,0.0,0.0,0.0,0.0,1,0,2.000,2.000,110.313,29.225,1,110.00,435.8,8750,0.0,0.0,110.0,110.0,433.0,0.00,0,0,1,333.3,90.6,90.6,61.2,61.2,34.0,-5.2,0.22,-16.6,14.3,4,-478.110,1.0,100.0,11.7,9.2,49.1,51.0,0,1,47.2,0.00,0.00,0.00,0.00,1324,1126,3560,4851,321.9,322.1,346.2,341.8,25.17,21.93,27.02,24.87,325.0,325.0,355.0,355.0,99.89,100.00,99.89,99.96,-0.13,-0.15,-0.12,-0.09,0.0,-0.0,1.1,1.2,83.3,63.1,88.6,75.2,93.5,66.3,92.8,77.5,88.8,63.8,91.2,75.1,85.6,63.3,90.3,74.0,0.07,-0.05,0.05,0.02,0.00,120.02,120.03,111.53,111.52,194.4,26.0,0.35832945734337834,137.9189552444796,42.13190019325653,50.4142396204378,14.404068544271453
2.050,75.5,44.053985899043312,-78.681759105400857,9.8,25.3,-444.4,-451.1,7154.1,7154,141.7,0,1,1,0,1,1,0,0,0,100,1,1.186,26.0,0.0,-0.30,71.123,66.0,0.0,26.0,26.0,26.0,26.0,-0.06,0.17,-0.53,396.2,-2.15,-2.08,-1.69,-1.16,-717.57,619.12,5.6,0.00,0.00,0.00,0.00,0.05,-7.49,-7.49,0.09,-9.97,0.08,2.07,39.36,-0.01,-0.48,0.5,100.0,0,0,113.02,0,0,0.0,0,0,0,0,7576,0,30.00,3,141.7,0,0,0.0,0.0,0.0,0.0,0,0,2.053,2.053,110.313,29.225,0,110.00,435.8,8750,0.0,0.0,110.0,110.0,433.0,0.00,0,0,1,333.3,85.5,85.5,85.3,85.3,34.0,-11.3,5.52,-7.5,2.0,4,-478.160,0.6,100.0,12.2,10.5,26.9,28.4,0,1,47.2,0.00,0.00,0.00,0.00,2550,2377,2138,1650,318.6,318.6,349.5,350.6,25.17,21.93,27.02,24.87,325.0,325.0,355.0,355.0,99.89,100.00,99.89,99.96,-0.13,-0.04,-0.13,-0.03,-0.1,-0.1,2.2,2.2,83.3,63.1,88.6,75.2,93.4,66.2,92.7,77.4,88.8,63.8,91.2,75.1,85.5,63.2,90.3,74.0,0.07,-0.05,0.09,0.08,0.00,120.38,120.35,113.02,113.02,194.4,26.0,0.5598214000911362,134.31793816531413,40.69149333882938,-32.409153513330864,-14.40406911329518
2.100,77.5,44.053969621322238,-78.681754249064184,140.3,253.6,-126.8,-150.1,7156.0,7156,142.1,0,1,1,0,1,1,0,0,0,100,1,1.186,26.0,0.0,-0.31,71.123,66.0,0.0,26.0,26.0,26.0,26.0,-0.05,0.25,-0.00,389.5,-2.27,-1.87,-1.44,-1.28,-717.03,617.31,5.6,0.00,0.00,0.00,0.00,0.05,-7.49,-7.49,-0.18,-0.97,0.08,-2.34,39.47,-0.01,-0.52,0.6,100.0,0,0,113.18,0,0,0.0,0,0,0,0,7587,0,30.00,3,142.1,1,0,0.0,0.0,0.0,0.0,0,0,2.100,2.100,110.313,29.225,1,110.00,435.8,8750,0.0,0.0,110.0,110.0,433.0,0.00,0,0,1,333.3,68.5,68.5,82.8,82.8,34.0,-24.9,22.21,-13.1,6.1,4,-478.210,0.5,100.0,19.3,23.2,20.6,20.9,0,1,47.2,0.00,0.00,0.00,0.00,4590,5222,3396,2343,313.4,310.1,346.6,348.8,25.17,21.93,27.02,24.87,325.0,325.0,355.0,355.0,99.89,100.00,99.89,99.96,-0.13,0.08,-0.15,0.08,-0.1,-0.0,2.2,2.2,83.3,63.1,88.6,75.2,93.4,66.2,92.7,77.4,88.7,63.8,91.1,75.0,85.5,63.2,90.2,74.0,0.05,-0.04,0.11,0.10,0.00,121.24,121.15,113.18,113.18,194.4,26.0,0.25495097567963926,134.67803989314652,40.69149328192701,90.02542740590513,28.80813651951918
2.150,79.4,44.053952264415244,-78.681748943066722,173.7,80.6,86.0,87.0,7158.0,7158,142.5,0,1,1,0,1,1,0,0,0,100,1,1.186,26.0,0.0,-0.31,71.123,66.0,0.0,26.0,26.0,26.0,26.0,-0.05,0.28,0.23,380.3,-2.21,-2.39,-1.13,-0.35,-716.44,615.38,5.7,0.00,0.00,0.00,0.00,0.05,-7.49,-7.49,0.12,9.45,0.05,-0.57,39.59,-0.01,-0.38,0.8,100.0,0,0,112.79,0,0,0.0,0,0,0,0,7561,0,30.00,3,142.5,0,0,0.0,0.0,0.0,0.0,0,0,2.150,2.150,110.313,29.225,0,110.00,435.8,8750,0.0,0.0,110.0,110.0,433.0,0.00,0,0,1,333.3,60.7,60.7,77.8,77.8,34.0,-26.7,25.51,-21.4,11.8,4,-478.260,0.5,100.0,27.9,27.2,24.9,25.3,0,1,47.2,0.00,0.00,0.00,0.00,5548,5526,4709,6109,311.2,309.7,343.7,339.8,25.17,21.94,27.02,24.87,325.0,325.0,355.0,355.0,99.89,100.00,99.89,99.96,-0.08,0.05,-0.18,0.09,-0.0,-0.0,1.3,1.4,83.3,63.1,88.6,75.2,93.3,66.2,92.6,77.4,88.6,63.8,91.1,75.0,85.4,63.2,90.2,73.9,0.04,-0.03,0.09,0.08,0.00,121.82,121.80,112.79,112.79,194.4,26.0,0.3657868231634377,143.32048090590465,43.5723069907813,7.202033703111965,5.690237259159403e-07
2.200,81.4,44.053933828322329,-78.681743367272759,21.4,-79.6,412.5,331.0,7160.0,7160,143.0,0,1,1,0,1,1,0,0,0,100,1,1.186,26.0,0.0,-0.32,71.123,66.0,0.0,26.0,26.0,26.0,26.0,-0.10,0.23,0.20,374.1,-2.09,-3.41,-1.98,-0.98,-715.82,613.33,5.7,0.00,0.00,0.00,0.00,0.05,-7.49,-7.49,0.63,8.18,-0.01,3.86,39.72,0.00,-0.22,0.7,100.0,0,0,113.06,0,0,0.0,0,0,0,0,7579,0,30.00,3,143.0,1,0,0.0,0.0,0.0,0.0,0,0,2.203,2.203,110.313,29.225,1,110.00,435.8,8750,0.0,0.0,110.0,110.0,433.0,0.00,0,0,1,166.7,68.8,68.8,59.4,59.4,34.0,-15.0,8.04,-39.5,14.8,4,-478.310,0.5,100.0,29.0,23.2,45.5,41.8,0,1,47.2,0.00,0.00,0.00,0.00,3966,2073,6458,6252,314.5,318.7,339.6,339.4,25.18,21.94,27.02,24.87,325.0,325.0,355.0,355.0,99.89,100.00,99.89,99.96,-0.03,-0.06,-0.12,0.01,-0.0,-0.1,1.0,1.1,83.4,63.1,88.6,75.2,93.3,66.2,92.6,77.3,88.6,63.7,91.0,75.0,85.4,63.2,90.1,73.9,0.04,-0.04,0.04,0.04,0.00,122.12,122.02,113.07,113.06,194.4,26.0,0.3207802986469088,135.39824326345772,40.69149333882938,-115.23254721612432,-43.212205063790634
2.250,83.4,44.053918449922868,-78.681738780732573,-245.0,-214.3,41.2,190.2,7162.0,7162,143.4,0,1,1,0,1,1,0,0,0,100,1,1.186,26.0,0.0,-0.33,71.123,66.0,0.0,26.0,26.0,26.0,26.0,-0.12,0.20,-0.06,381.6,-2.99,-2.92,-3.42,-1.28,-715.31,611.62,5.7,0.00,0.00,0.00,0.00,0.05,-7.49,-7.49,0.74,-3.59,0.24,5.35,39.83,0.01,-0.18,0.4,100.0,0,0,113.10,0,0,0.0,0,0,0,0,7581,0,30.00,3,143.4,0,0,0.0,0.0,0.0,0.0,0,0,2.250,2.250,110.313,29.225,0,110.00,435.8,8750,0.0,0.0,110.0,110.0,433.0,0.00,0,0,1,333.3,87.7,87.7,58.8,58.8,34.0,-3.6,0.00,-53.6,10.5,4,-478.360,0.1,100.0,16.8,12.5,47.6,51.3,0,1,47.2,0.00,0.00,0.00,0.00,1087,0,6012,5344,322.1,324.9,340.9,341.2,25.18,21.94,27.02,24.87,325.0,325.0,355.0,355.0,99.89,100.00,99.89,99.96,0.01,0.00,-0.12,-0.05,0.0,0.0,1.0,1.0,83.4,63.1,88.6,75.2,93.2,66.1,92.5,77.3,88.5,63.7,91.0,75.0,85.3,63.1,90.1,73.9,0.02,-0.01,0.04,0.03,0.00,122.04,122.03,113.10,113.09,194.4,26.0,0.24083189157584592,131.7972261842922,39.25108648440224,93.62644525325265,25.20712009473094
2.300,85.4,44.053900913151551,-78.681733564667255,-222.8,-28.5,-208.0,-258.1,7164.0,7164,143.8,0,1,1,0,1,1,0,0,0,100,1,1.186,26.0,0.0,-0.34,71.123,66.0,0.0,26.0,26.0,26.0,26.0,0.00,0.31,-0.60,391.9,-2.21,-1.91,-0.94,-1.53,-714.73,609.67,5.8,0.00,0.00,0.00,0.00,0.05,-7.49,-7.49,0.20,-12.58,0.42,-1.36,39.94,0.03,-0.34,-0.6,100.0,0,0,113.83,0,0,0.0,0,0,0,0,7630,0,30.00,3,143.8,1,0,0.0,0.0,0.0,0.0,0,0,2.300,2.300,110.313,29.225,1,110.00,435.8,8750,0.0,0.0,110.0,110.0,433.0,0.00,0,0,1,333.3,92.9,92.9,62.7,62.7,34.0,0.0,6.82,-7.6,11.1,4,-478.410,0.1,100.0,5.6,11.1,37.2,38.4,0,1,47.2,0.00,0.00,0.00,0.00,0,2310,4489,3153,325.0,318.5,343.7,346.8,25.18,21.94,27.02,24.87,325.0,325.0,355.0,355.0,99.89,100.00,99.89,99.96,0.00,0.04,0.00,0.09,0.0,-0.1,1.8,1.7,83.4,63.1,88.6,75.2,93.1,66.1,92.5,77.3,88.4,63.7,91.0,75.0,85.2,63.1,90.0,73.9,0.02,-0.01,0.06,0.05,0.00,121.94,122.06,113.83,113.83,194.4,26.0,0.6753517601961218,144.76088778878298,43.212205348302476,50.414239620438366,18.00508553808335
2.350,87.4,44.053882297194306,-78.681727988873291,200.9,151.2,-319.9,-293.4,7166.0,7166,144.1,0,1,1,0,1,1,0,0,0,100,1,1.186,26.0,0.0,-0.35,71.123,66.0,0.0,26.0,26.0,26.0,26.0,0.02,0.19,-0.25,393.0,-2.74,-1.41,-0.89,-1.31,-714.11,607.60,5.8,0.00,0.00,0.00,0.00,0.05,-7.49,-7.49,-0.34,-6.16,0.16,-9.09,40.04,0.04,-0.52,-0.4,100.0,0,0,115.17,0,0,0.0,0,0,0,0,7721,0,30.00,3,144.1,0,0,0.0,0.0,0.0,0.0,0,0,2.353,2.353,110.313,29.225,0,110.00,435.8,8750,0.0,0.0,110.0,110.0,433.0,0.00,0,0,1,166.7,75.4,75.4,88.3,88.3,34.0,-16.7,15.17,-0.6,10.5,4,-478.460,1.1,100.0,15.7,18.6,21.2,23.8,0,1,47.2,0.00,0.00,0.00,0.00,3558,4115,1426,2592,316.2,313.3,351.5,347.9,25.18,21.94,27.02,24.87,325.0,325.0,355.0,355.0,99.89,100.00,99.89,99.96,-0.05,0.11,0.08,0.24,-0.0,-0.0,2.4,2.5,83.4,63.1,88.6,75.2,93.0,66.1,92.4,77.3,88.4,63.6,90.9,74.9,85.1,63.1,90.0,73.9,0.07,-0.06,0.10,0.09,0.00,122.66,122.68,115.17,115.17,194.4,26.0,0.31464265445104544,136.83865014633605,41.05159503821057,-118.83356477895973,-32.40915465137846
2.400,89.4,44.053866738930523,-78.681723312400948,201.8,113.7,9.0,-60.1,7168.0,7168,144.5,0,1,1,0,1,1,0,0,0,100,1,1.186,26.0,0.0,-0.36,71.123,66.0,0.0,26.0,26.0,26.0,26.0,0.05,0.35,0.09,386.7,-2.13,-2.27,-1.45,-1.46,-713.59,605.87,5.8,0.00,0.00,0.00,0.00,0.05,-7.49,-7.49,-0.37,3.83,-0.21,-6.24,40.15,0.03,-0.49,0.6,100.0,0,0,114.69,0,0,0.0,0,0,0,0,7688,0,30.00,3,144.5,1,0,0.0,0.0,0.0,0.0,0,0,2.400,2.400,110.313,29.225,1,110.00,435.8,8750,0.0,0.0,110.0,110.0,433.0,0.00,0,0,1,333.3,67.3,67.3,80.7,80.7,34.0,-13.0,17.87,-17.6,13.8,4,-478.510,1.4,100.0,25.8,24.3,21.6,20.8,0,1,47.2,0.00,0.00,0.00,0.00,3720,3928,5379,3064,315.5,313.3,342.5,347.0,25.18,21.94,27.02,24.87,325.0,325.0,355.0,355.0,99.89,100.00,99.89,99.96,-0.01,0.08,-0.05,0.20,0.0,-0.0,1.9,1.8,83.4,63.1,88.6,75.2,93.0,66.1,92.4,77.2,88.3,63.6,90.8,74.9,85.1,63.1,89.9,73.8,0.09,-0.08,0.10,0.09,0.00,123.29,123.37,114.69,114.68,194.4,26.0,0.36482872693909396,132.877531310887,39.97128988316463,50.414239335926254,14.404068544271453
2.450,91.4,44.053849112227049,-78.681718006403472,-152.4,-128.6,261.7,174.7,7170.0,7170,145.0,0,1,1,0,1,1,0,0,0,100,1,1.186,26.0,0.0,-0.37,71.123,66.0,0.0,26.0,26.0,26.0,26.0,-0.08,0.31,-0.13,383.4,-2.21,-1.98,-1.53,-0.82,-713.00,603.91,5.8,0.00,0.00,0.00,0.00,0.05,-7.49,-7.49,-0.21,1.15,-0.29,-0.04,40.28,0.01,-0.33,1.0,100.0,0,0,114.37,0,0,0.0,0,0,0,0,7667,0,30.00,3,145.0,0,0,0.0,0.0,0.0,0.0,0,0,2.450,2.450,110.313,29.225,0,110.00,435.8,8750,0.0,0.0,110.0,110.0,433.0,0.00,0,0,1,333.3,78.6,78.6,62.5,62.5,34.0,-8.7,7.15,-46.3,15.2,4,-478.560,1.4,100.0,18.1,17.9,34.7,29.5,0,1,46.8,0.00,0.00,0.00,0.00,2447,2935,7982,5647,318.7,316.7,336.8,340.8,25.18,21.94,27.02,24.87,325.0,325.0,355.0,355.0,99.89,100.00,99.89,99.96,-0.04,-0.03,-0.16,0.08,-0.1,-0.0,1.2,1.3,83.4,63.1,88.7,75.2,92.9,66.0,92.3,77.2,88.3,63.6,90.8,74.9,85.0,63.0,89.9,73.8,0.10,-0.09,0.07,0.07,0.00,123.53,123.60,114.38,114.37,194.4,26.0,0.3455430508634199,141.88007407992868,42.49200189263772,50.414239620438366,14.404068544271453
2.500,93.5,44.053831305659251,-78.681712700405996,0.1,15.4,66.3,54.6,7172.0,7172,145.3,0,1,1,0,1,1,0,0,0,100,1,1.186,26.0,0.0,-0.38,71.123,66.0,0.0,26.0,26.0,26.0,26.0,-0.09,0.18,-0.12,384.0,-3.42,-2.60,-1.77,-0.41,-712.41,601.93,5.8,0.00,0.00,0.00,0.00,0.06,-7.49,-7.49,-0.31,-1.56,-0.31,0.57,40.38,-0.01,-0.37,1.0,100.0,0,0,114.88,0,0,0.0,0,0,0,0,7701,0,30.00,3,145.3,1,0,0.0,0.0,0.0,0.0,0,0,2.503,2.503,110.313,29.225,1,110.00,435.8,8750,0.0,0.0,110.0,110.0,433.0,0.00,0,0,1,333.3,75.3,75.3,68.7,68.7,34.0,-22.0,12.28,-15.3,2.9,4,-478.610,1.6,100.0,18.1,18.7,38.0,32.2,0,1,32.9,0.00,0.00,0.00,0.00,3506,3629,3330,4098,315.9,314.6,346.6,345.2,25.18,21.94,27.03,24.87,325.0,325.0,355.0,355.0,99.89,100.00,99.89,99.96,-0.09,-0.04,-0.11,-0.00,-0.0,-0.1,1.3,1.3,83.4,63.1,88.7,75.2,92.8,66.0,92.3,77.2,88.2,63.6,90.7,74.8,85.0,63.0,89.8,73.8,0.09,-0.10,0.07,0.07,0.00,123.90,123.78,114.89,114.88,194.4,26.0,0.2343074902771996,137.91895527293084,41.411696737591775,-43.21220534830246,-10.803051550459415
2.550,95.5,44.053814668209540,-78.681707664205007,53.1,42.7,-114.1,4.8,7174.0,7174,145.5,0,1,1,0,1,1,0,0,0,100,1,1.186,26.0,0.0,-0.39,71.123,66.0,0.0,26.0,26.0,26.0,26.0,-0.06,-0.19,0.05,382.0,-2.62,-1.99,-0.80,-1.50,-711.85,600.08,5.8,0.00,0.00,0.00,0.00,0.06,-7.49,-7.49,-0.31,0.65,-0.38,-2.85,40.40,-0.03,-0.33,1.4,100.0,0,0,112.99,0,0,0.0,0,0,0,0,7575,0,30.00,3,145.5,0,0,0.0,0.0,0.0,0.0,1,0,2.550,2.550,110.313,29.225,0,110.00,435.8,8750,0.0,0.0,110.0,110.0,433.0,0.00,0,0,1,333.3,71.2,71.2,70.4,70.4,34.0,-22.2,10.93,-20.5,16.2,4,-478.650,1.7,100.0,20.8,20.8,32.3,32.5,0,1,0.0,0.00,0.00,0.00,0.00,4057,4053,5063,4496,314.7,313.1,343.0,343.5,25.19,21.94,27.03,24.87,325.0,325.0,355.0,355.0,99.89,100.00,99.89,99.96,-0.11,-0.03,-0.15,0.02,-0.0,-0.0,-0.4,-0.3,83.4,63.1,88.7,75.2,92.8,66.0,92.2,77.1,88.1,63.5,90.7,74.8,84.9,63.0,89.8,73.7,0.10,-0.11,0.08,0.06,0.00,124.03,124.00,112.99,112.99,194.4,26.0,0.2054263858417414,137.55885354509843,41.411696737591775,39.61118806997831,7.202034556647519
2.600,97.5,44.053796951573908,-78.681702358207531,-7.1,0.8,118.9,27.4,7176.1,7176,145.1,0,1,1,0,1,1,0,0,0,100,1,1.186,26.0,0.0,-0.40,71.123,66.0,0.0,26.0,26.0,26.0,26.0,-0.07,-0.20,-0.12,382.4,-2.22,-2.84,-1.07,-1.77,-711.26,598.11,5.8,0.00,0.00,0.00,0.00,0.06,-7.49,-7.49,-0.38,-3.39,-0.54,-2.05,40.29,-0.04,-0.39,1.0,100.0,0,0,112.74,0,0,0.0,0,0,0,0,7557,0,30.00,3,145.1,1,0,0.0,0.0,0.0,0.0,1,0,2.600,2.600,110.313,29.225,1,110.00,435.8,8750,0.0,0.0,110.0,110.0,433.0,0.00,0,0,1,333.3,75.0,75.0,64.6,64.6,34.0,-12.0,8.59,-25.0,12.5,4,-478.710,1.7,100.0,20.4,20.8,38.3,33.8,0,1,0.0,0.00,0.00,0.00,0.00,2520,2822,5083,3494,318.0,316.7,342.3,345.8,25.19,21.94,27.03,24.87,325.0,325.0,355.0,355.0,99.89,100.00,99.89,99.96,-0.13,-0.08,-0.17,-0.01,0.0,-0.0,-0.4,-0.3,83.4,63.1,88.7,75.2,92.7,65.9,92.2,77.1,88.1,63.5,90.6,74.8,84.9,63.0,89.7,73.7,0.11,-0.10,0.06,0.06,0.00,123.59,123.51,112.74,112.73,194.4,26.0,0.24351591323771843,141.88007407992868,42.13190019325653,2.8451182743083336e-07,-7.202033987623935
2.650,99.5,44.053779234938268,-78.681697142142212,127.1,5.3,-65.6,-28.1,7178.1,7178,144.7,0,1,1,0,1,1,0,0,0,100,1,1.186,26.0,0.0,-0.42,71.123,66.0,0.0,26.0,26.0,26.0,26.0,-0.12,-0.21,0.07,378.7,-2.78,-2.53,-1.19,-1.48,-710.68,596.14,5.8,0.00,0.00,0.00,0.00,0.06,-7.49,-7.49,-0.65,-4.21,-0.65,0.37,40.19,-0.04,-0.53,1.4,100.0,0,0,112.30,0,0,0.0,0,0,0,0,7528,0,30.00,3,144.7,0,0,0.0,0.0,0.0,0.0,1,0,2.653,2.653,110.313,29.225,0,110.00,435.8,8750,0.0,0.0,110.0,110.0,433.0,0.00,0,0,1,333.3,62.5,62.5,75.6,75.6,34.0,-54.0,21.52,-17.8,9.1,4,-478.760,1.6,100.0,26.8,21.1,35.0,32.4,0,1,0.0,0.00,0.00,0.00,0.00,6722,5697,3784,3283,308.3,309.5,346.0,346.6,25.19,21.94,27.03,24.87,325.0,325.0,355.0,355.0,99.89,100.00,99.89,99.96,-0.23,-0.03,-0.17,-0.02,-0.0,-0.1,-0.5,-0.4,83.4,63.1,88.7,75.2,92.6,65.9,92.1,77.1,88.0,63.5,90.6,74.7,84.8,62.9,89.6,73.7,0.11,-0.11,0.06,0.07,0.00,123.42,123.19,112.30,112.30,194.4,26.0,0.25179356624028343,137.5588535735496,40.69149333882938,-46.813222342114216,-14.404068544271453
2.700,101.5,44.053762597488557,-78.681692195873381,181.1,146.8,-187.2,-58.1,7180.1,7180,144.3,0,1,1,0,1,1,0,0,0,100,1,1.186,26.0,0.0,-0.43,71.123,66.0,0.0,26.0,26.0,26.0,26.0,-0.17,-0.27,-0.08,378.0,-2.67,-2.85,-1.33,-1.72,-710.13,594.29,5.8,0.00,0.00,0.00,0.00,0.06,-7.49,-7.49,-0.56,6.94,-0.51,3.68,40.08,-0.05,-0.52,2.3,100.0,0,0,112.44,0,0,0.0,0,0,0,0,7537,0,30.00,3,144.3,1,0,0.0,0.0,0.0,0.0,1,0,2.700,2.700,110.313,29.225,1,110.00,435.8,8750,0.0,0.0,110.0,110.0,433.0,0.00,0,0,1,333.3,56.7,56.7,81.0,81.0,34.0,-34.4,18.15,-37.1,6.2,4,-478.810,1.4,100.0,35.8,28.4,25.6,29.5,0,1,0.0,0.00,0.00,0.00,0.00,5186,4640,5376,3266,311.3,311.5,342.9,346.5,25.19,21.94,27.03,24.87,325.0,325.0,355.0,355.0,99.89,100.00,99.89,99.96,-0.16,-0.05,-0.29,-0.12,0.0,-0.0,-0.6,-0.4,83.4,63.1,88.7,75.2,92.6,65.9,92.0,77.0,88.0,63.5,90.5,74.7,84.8,62.9,89.6,73.6,0.12,-0.08,0.08,0.08,0.00,123.31,123.16,112.44,112.44,194.4,26.0,0.3289376840679706,137.19875184571725,40.69149333882938,75.62135914614544,18.00508553808335
2.750,103.5,44.053744970785083,-78.681686979808063,-175.4,-11.7,371.2,249.8,7182.1,7182,143.9,0,1,1,0,1,1,0,0,0,100,1,1.186,26.0,0.0,-0.44,71.123,66.0,0.0,26.0,26.0,26.0,26.0,-0.08,-0.22,0.31,373.5,-2.50,-2.33,-1.73,-2.36,-709.55,592.33,5.8,0.00,0.00,0.00,0.00,0.06,-7.49,-7.49,-0.22,3.51,-0.31,2.32,39.98,-0.03,-0.42,0.8,100.0,0,0,112.08,0,0,0.0,0,0,0,0,7513,0,30.00,3,143.9,0,0,0.0,0.0,0.0,0.0,1,0,2.750,2.750,110.313,29.225,0,110.00,435.8,8750,0.0,0.0,110.0,110.0,433.0,0.00,0,0,1,333.3,66.6,66.6,53.3,53.3,34.0,-10.6,13.47,-42.6,19.6,4,-478.860,1.1,100.0,27.1,27.9,44.2,42.0,0,1,0.0,0.00,0.00,0.00,0.00,2254,4767,6051,4367,318.9,311.8,340.4,343.3,25.19,21.94,27.03,24.87,325.0,325.0,355.0,355.0,99.89,100.00,99.89,99.96,-0.11,-0.06,-0.20,-0.05,0.1,0.0,-0.4,-0.3,83.5,63.1,88.7,75.2,92.5,65.9,92.0,77.0,87.9,63.4,90.5,74.6,84.7,62.9,89.5,73.6,0.08,-0.06,0.05,0.04,0.00,122.75,122.81,112.08,112.07,194.4,26.0,0.38845849199110066,145.12098948816416,42.49200189263772,32.40915379784269,3.6010169938118963
