Time,Distance,GPS Latitude,GPS Longitude,Damper Velocity (Calc) FL,Damper Velocity (Calc) FR,Damper Velocity (Calc) RL,Damper Velocity (Calc) RR,Corr Dist,Corr Dist (Unstretched),Corr Speed,ABS Active,ABS Enabled,AID Allow Tire Blankets,AID Auto Blip,AID Auto Clutch,AID Auto Shift,AID Fuel Rate,AID Ideal Line,AID Mech Damage,AID Stability,AID Tire Wear Rate,Air Density,Air Temp,Ballast,Best Lap Delta,Best Lap Time,Brake Bias,Brake Pos,Brake Temp FL,Brake Temp FR,Brake Temp RL,Brake Temp RR,CG Accel Lateral,CG Accel Longitudinal,CG Accel Vertical,CG Height,Camber FL,Camber FR,Camber RL,Camber RR,Car Coord X,Car Coord Y,Car Coord Z,Car Damage Front,Car Damage Left,Car Damage Rear,Car Damage Right,Car Pos Norm,Caster FL,Caster FR,Chassis Pitch Angle,Chassis Pitch Rate,Chassis Roll Angle,Chassis Roll Rate,Chassis Velocity X,Chassis Velocity Y,Chassis Velocity Z,Chassis Yaw Rate,Clutch Pos,DRS Active,DRS Available,Drive Train Speed,ERS Heat Charging,ERS Is Charging,ERS Max Energy,ERS Power Level,ERS Recovery Level,Engine Brake Setting,Engine Limiter,Engine RPM,Flags,Fuel Level,Gear,Ground Speed,HR Sample Clock,In Pit,KERS Charge,KERS Deployed Energy,KERS Input,KERS Max Energy,LR Sample Clock,Lap Invalidated,Lap Time,Lap Time2,Last Lap Time,Last Sector Time,MR Sample Clock,Max Fuel,Max Power,Max RPM,Max Sus Travel FL,Max Sus Travel FR,Max Sus Travel RL,Max Sus Travel RR,Max Torque,Max Turbo Boost,Num Tires Off Track,Penalties Enabled,Position,Raw Data Sample Rate,Ride Height FL,Ride Height FR,Ride Height RL,Ride Height RR,Road Temp,Self Align Torque FL,Self Align Torque FR,Self Align Torque RL,Self Align Torque RR,Session Lap Count,Session Time Left,Steering Angle,Surface Grip,Suspension Travel FL,Suspension Travel FR,Suspension Travel RL,Suspension Travel RR,TC Active,TC Enabled,Throttle Pos,Tire Dirt Level FL,Tire Dirt Level FR,Tire Dirt Level RL,Tire Dirt Level RR,Tire Load FL,Tire Load FR,Tire Load RL,Tire Load RR,Tire Loaded Radius FL,Tire Loaded Radius FR,Tire Loaded Radius RL,Tire Loaded Radius RR,Tire Pressure FL,Tire Pressure FR,Tire Pressure RL,Tire Pressure RR,Tire Radius FL,Tire Radius FR,Tire Radius RL,Tire Radius RR,Tire Rubber Grip FL,Tire Rubber Grip FR,Tire Rubber Grip RL,Tire Rubber Grip RR,Tire Slip Angle FL,Tire Slip Angle FR,Tire Slip Angle RL,Tire Slip Angle RR,Tire Slip Ratio FL,Tire Slip Ratio FR,Tire Slip Ratio RL,Tire Slip Ratio RR,Tire Temp Core FL,Tire Temp Core FR,Tire Temp Core RL,Tire Temp Core RR,Tire Temp Inner FL,Tire Temp Inner FR,Tire Temp Inner RL,Tire Temp Inner RR,Tire Temp Middle FL,Tire Temp Middle FR,Tire Temp Middle RL,Tire Temp Middle RR,Tire Temp Outer FL,Tire Temp Outer FR,Tire Temp Outer RL,Tire Temp Outer RR,Toe In FL,Toe In FR,Toe In RL,Toe In RR,Turbo Boost,Wheel Angular Speed FL,Wheel Angular Speed FR,Wheel Angular Speed RL,Wheel Angular Speed RR,Wind Direction,Wind Speed,CG Distance,Lateral Velocity,Longitudinal Velocity,Lateral Acceleration,Longitudinal Acceleration
s,m,deg,deg,mm/s,mm/s,mm/s,mm/s,m,m,km/h,,,,,,,,,%,%,,kg/m3,C,kg,s,s,%,%,C,C,C,C,G,G,G,mm,deg,deg,deg,deg,m,m,m,,,,,,deg,deg,deg,deg/s,deg,deg/s,m/s,m/s,m/s,deg/s,%,,,rad/s,,,MJ,,,,,rpm,,l,,km/h,,,%,kJ,%,MJ,,,s,s,s,s,,l,hp,rpm,mm,mm,mm,mm,N.m,,,,,Hz,mm,mm,mm,mm,C,N.m,N.m,N.m,N.m,,s,deg,%,mm,mm,mm,mm,,,%,,,,,N,N,N,N,mm,mm,mm,mm,psi,psi,psi,psi,mm,mm,mm,mm,%,%,%,%,deg,deg,deg,deg,%,%,%,%,C,C,C,C,C,C,C,C,C,C,C,C,C,C,C,C,deg,deg,deg,deg,,rad/s,rad/s,rad/s,rad/s,deg,km/h,G,Km/h,Km/h,Km/h^2,Km/h^2
0.000,0.0,44.054621449622211,-78.681977370754623,-54.5,6.5,43.3,22.6,8487.1,8487,122.2,0,1,1,0,1,1,0,0,0,100,1,1.186,26.0,0.0,0.000,65.041,66.0,0.0,26.0,26.0,26.0,26.0,0.31,0.25,0.03,382.4,-3.40,-1.93,-2.14,-1.18,-741.84,689.79,5.7,0.00,0.00,0.00,0.00,0.00,-7.49,-7.49,-0.20,2.05,0.30,-5.12,33.95,0.11,-0.29,-4.43,100.0,0,0,96.76,0,0,0.0,0,0,0,0,8316,0,30.00,2,122.2,1,0,0.0,0.0,0.0,0.0,0,0,0.024,0.024,65.041,23.378,1,110.00,435.8,8750,0.0,0.0,110.0,110.0,433.0,0.00,0,0,1,333.3,74.6,74.6,61.7,61.7,34.0,-1.15,39.34,-0.5,46.9,5,-337.290,-5.3,100.0,15.8,25.2,32.6,34.2,0,1,42.1,0.00,0.00,0.00,0.00,1690,4868,4420,5422,321.4,311.8,343.6,340.6,25.25,23.50,24.43,23.94,325.0,325.0,355.0,355.0,99.78,99.95,99.94,99.98,0.33,0.38,0.32,0.48,-0.0,-0.0,1.5,1.1,83.8,72.9,72.4,69.4,99.0,75.5,78.3,72.2,94.6,73.1,76.4,70.1,90.9,71.8,76.1,69.3,-0.31,0.31,0.07,0.06,0.00,103.98,104.46,96.76,96.76,176.9,6.4,0.3993745109543172
0.050,1.7,44.054606610815711,-78.681972604350108,16.8,-160.2,11.0,68.7,8488.8,8489,122.7,0,1,1,0,1,1,0,0,0,100,1,1.186,26.0,0.0,0.000,65.041,66.0,0.0,26.0,26.0,26.0,26.0,0.18,0.29,-0.11,384.8,-2.03,-2.35,-2.18,-1.74,-741.31,688.14,5.7,0.00,0.00,0.00,0.00,0.00,-7.49,-7.49,-0.21,-2.04,0.07,-3.14,34.08,0.09,-0.29,-2.95,100.0,0,0,97.11,0,0,0.0,0,0,0,0,8346,0,30.00,2,122.7,0,0,0.0,0.0,0.0,0.0,0,0,0.074,0.074,65.041,23.378,0,110.00,435.8,8750,0.0,0.0,110.0,110.0,433.0,0.00,0,0,1,333.3,80.5,80.5,71.0,71.0,34.0,2.01,11.52,-5.5,37.6,5,-337.340,-4.2,100.0,16.7,17.2,33.2,37.7,0,1,42.1,0.00,0.00,0.00,0.00,2848,1911,4807,4521,318.1,320.1,342.6,342.9,25.25,23.50,24.43,23.94,325.0,325.0,355.0,355.0,99.78,99.95,99.94,99.98,0.30,0.30,0.25,0.40,-0.0,-0.0,1.5,1.2,83.8,72.9,72.4,69.4,98.9,75.5,78.3,72.2,94.5,73.1,76.4,70.0,90.8,71.7,76.0,69.3,-0.24,0.24,0.08,0.04,0.00,104.39,104.56,97.11,97.11,176.9,6.4,0.3586084215408221,118.83356457980148,38.89098478502104
0.100,3.4,44.054591772009218,-78.681967658081277,-79.9,-104.7,-41.9,-54.1,8490.5,8490,123.2,0,1,1,0,1,1,0,0,0,100,1,1.186,26.0,0.0,0.009,65.041,66.0,0.0,26.0,26.0,26.0,26.0,0.12,0.24,-0.23,389.9,-1.73,-2.69,-1.68,-1.56,-740.76,686.49,5.7,0.00,0.00,0.00,0.00,0.00,-7.49,-7.49,-0.45,-7.43,0.04,0.12,34.22,0.08,-0.31,-2.09,100.0,0,0,97.48,0,0,0.0,0,0,0,0,8378,0,30.00,2,123.2,1,0,0.0,0.0,0.0,0.0,0,0,0.126,0.126,65.041,23.378,1,110.00,435.8,8750,0.0,0.0,110.0,110.0,433.0,0.00,0,0,1,333.3,85.9,85.9,74.2,74.2,34.0,1.71,13.73,-6.4,18.7,5,-337.390,-3.8,100.0,12.7,12.0,31.1,35.0,0,1,41.7,0.00,0.00,0.00,0.00,1834,2073,4258,3230,320.3,319.4,343.9,346.8,25.25,23.50,24.43,23.94,325.0,325.0,355.0,355.0,99.78,99.95,99.94,99.98,0.29,0.29,0.13,0.28,-0.0,-0.0,1.7,1.4,83.8,72.9,72.4,69.4,98.8,75.4,78.3,72.2,94.4,73.0,76.4,70.0,90.8,71.7,76.0,69.3,-0.22,0.21,0.08,0.05,0.00,104.63,104.82,97.48,97.48,176.9,6.4,0.35341194094144585,115.59264917156598,38.17078132935629,-25.20711952570707,-3.6010169938118253
0.150,5.1,44.054577742592166,-78.681963071541091,44.2,104.7,-42.0,-151.4,8492.2,8492,123.6,0,1,1,0,1,1,0,0,0,100,1,1.186,26.0,0.0,0.018,65.041,66.0,0.0,26.0,26.0,26.0,26.0,0.17,0.20,-0.15,388.8,-2.53,-2.09,-0.97,-2.29,-740.25,684.93,5.7,0.00,0.00,0.00,0.00,0.00,-7.49,-7.49,-0.79,-5.28,0.16,4.13,34.33,0.08,-0.42,-2.31,100.0,0,0,98.21,0,0,0.0,0,0,0,0,8441,0,30.00,2,123.6,0,0,0.0,0.0,0.0,0.0,0,0,0.174,0.174,65.041,23.378,0,110.00,435.8,8750,0.0,0.0,110.0,110.0,433.0,0.00,0,0,1,333.3,76.1,76.1,77.1,77.1,34.0,-6.25,38.93,-1.0,14.8,5,-337.440,-3.8,100.0,14.9,17.2,29.0,27.4,0,1,42.1,0.00,0.00,0.00,0.00,3400,5224,2198,2490,316.5,311.4,348.8,348.1,25.26,23.50,24.43,23.94,325.0,325.0,355.0,355.0,99.78,99.95,99.94,99.98,0.16,0.30,0.10,0.23,-0.1,-0.1,1.9,1.7,83.9,72.9,72.4,69.4,98.8,75.4,78.2,72.1,94.4,73.0,76.4,70.0,90.7,71.7,76.0,69.2,-0.21,0.21,0.08,0.07,0.00,105.10,105.37,98.21,98.21,176.9,6.4,0.3023243291566195,116.31285262723077,38.53088308563986,46.813222626626185,21.6061031009189
0.200,6.9,44.054562723921343,-78.681958035340088,118.5,259.4,-131.3,-41.3,8493.9,8494,124.0,0,1,1,0,1,1,0,0,0,100,1,1.186,26.0,0.0,0.030,65.041,66.0,0.0,26.0,26.0,26.0,26.0,0.19,0.32,0.12,382.9,-3.37,-1.80,-1.69,-0.71,-739.69,683.26,5.7,0.00,0.00,0.00,0.00,0.01,-7.49,-7.49,-0.74,5.91,0.11,-6.75,34.45,0.07,-0.39,-3.50,100.0,0,0,98.55,0,0,0.0,0,0,0,0,8469,0,30.00,2,124.0,1,0,0.0,0.0,0.0,0.0,0,0,0.226,0.226,65.041,23.378,1,110.00,435.8,8750,0.0,0.0,110.0,110.0,433.0,0.00,0,0,1,333.3,64.5,64.5,75.6,75.6,34.0,-12.23,42.74,-1.8,30.1,5,-337.490,-3.8,100.0,20.8,30.2,22.4,25.3,0,1,41.7,0.00,0.00,0.00,0.00,4085,5975,3696,4694,314.7,309.4,345.9,342.6,25.26,23.50,24.43,23.94,325.0,325.0,355.0,355.0,99.78,99.95,99.94,99.98,0.18,0.30,0.21,0.43,-0.1,-0.0,1.9,1.6,83.9,72.9,72.4,69.4,98.7,75.4,78.2,72.1,94.3,73.0,76.3,70.0,90.6,71.7,75.9,69.2,-0.22,0.22,0.10,0.08,0.00,105.81,106.04,98.55,98.55,176.9,6.4,0.39102429592034305,120.2739714342286,40.33139163944818,3.6010169938118963,10.803050981435831
0.250,8.6,44.054547705250528,-78.681952999139099,-62.9,-129.5,246.6,202.0,8495.6,8496,124.5,0,1,1,0,1,1,0,0,0,100,1,1.186,26.0,0.0,0.039,65.041,66.0,0.0,26.0,26.0,26.0,26.0,0.24,0.28,0.07,380.9,-2.06,-2.95,-1.45,-1.53,-739.13,681.59,5.7,0.00,0.00,0.00,0.00,0.01,-7.49,-7.49,-0.34,5.89,-0.26,-8.00,34.60,0.04,-0.22,-2.22,100.0,0,0,98.38,0,0,0.0,0,0,0,0,8455,0,30.00,2,124.5,0,0,0.0,0.0,0.0,0.0,0,0,0.276,0.276,65.041,23.378,0,110.00,435.8,8750,0.0,0.0,110.0,110.0,433.0,0.00,0,0,1,333.3,76.9,76.9,61.6,61.6,34.0,1.56,15.79,-6.4,53.5,5,-337.540,-3.6,100.0,17.7,23.7,34.8,35.4,0,1,41.7,0.00,0.00,0.00,0.00,2082,2433,5748,5961,319.6,318.3,340.0,339.1,25.26,23.50,24.43,23.94,325.0,325.0,355.0,355.0,99.78,99.95,99.94,99.98,0.31,0.22,0.14,0.41,-0.1,-0.0,1.2,1.0,83.9,72.9,72.5,69.4,98.6,75.4,78.2,72.1,94.2,72.9,76.3,70.0,90.6,71.6,75.9,69.2,-0.22,0.21,0.07,0.06,0.00,106.22,106.31,98.38,98.38,176.9,6.4,0.3753664875824692,116.67295432661196,39.61118818378344,-32.40915408235466,-3.6010169938118963
0.300,10.3,44.054533585901311,-78.681948142802426,25.8,-104.3,161.9,131.6,8497.4,8497,125.0,0,1,1,0,1,1,0,0,0,100,1,1.186,26.0,0.0,0.048,65.041,66.0,0.0,26.0,26.0,26.0,26.0,0.06,0.26,0.20,378.1,-3.45,-1.06,-1.77,-1.95,-738.59,680.02,5.7,0.00,0.00,0.00,0.00,0.01,-7.49,-7.49,-0.24,-0.58,-0.53,-2.17,34.72,0.02,-0.25,-1.32,100.0,0,0,98.57,0,0,0.0,0,0,0,0,8471,0,30.00,2,125.0,1,0,0.0,0.0,0.0,0.0,0,0,0.324,0.324,65.041,23.378,1,110.00,435.8,8750,0.0,0.0,110.0,110.0,433.0,0.00,0,0,1,333.3,78.3,78.3,59.3,59.3,34.0,-10.70,5.45,-18.7,37.5,5,-337.590,-3.5,100.0,19.0,18.5,42.9,42.0,0,1,41.7,0.00,0.00,0.00,0.00,3553,1681,6138,5370,316.0,320.6,338.4,340.6,25.27,23.50,24.43,23.94,325.0,325.0,355.0,355.0,99.78,99.95,99.94,99.98,0.18,0.18,0.07,0.20,-0.0,-0.0,1.2,0.9,83.9,72.9,72.5,69.4,98.5,75.3,78.2,72.1,94.2,72.9,76.3,70.0,90.5,71.6,75.9,69.2,-0.19,0.19,0.04,0.04,0.00,106.51,106.55,98.57,98.57,176.9,6.4,0.33346664001066134,117.03305602599313,39.97128994006699,39.61118806997888,14.404068544271311
0.350,12.1,44.054518477298338,-78.681943016669265,-70.5,-50.5,-136.1,-144.0,8499.1,8499,125.1,0,1,1,0,1,1,0,0,0,100,1,1.186,26.0,0.0,0.057,65.041,66.0,0.0,26.0,26.0,26.0,26.0,0.09,-0.04,-0.17,384.5,-2.83,-3.08,-1.73,-1.73,-738.02,678.34,5.7,0.00,0.00,0.00,0.00,0.01,-7.49,-7.49,-0.41,-4.85,-0.52,0.37,34.74,0.01,-0.26,-1.52,100.0,0,0,97.41,0,0,0.0,0,0,0,0,8223,0,30.00,0,125.1,0,0,0.0,0.0,0.0,0.0,1,0,0.374,0.374,65.041,23.378,0,110.00,435.8,8750,0.0,0.0,110.0,110.0,433.0,0.00,0,0,1,333.3,79.5,79.5,69.1,69.1,34.0,-9.62,20.45,-14.3,28.8,5,-337.640,-3.1,100.0,15.4,16.0,36.1,34.8,0,1,0.0,0.00,0.00,0.00,0.00,3236,3141,3838,4824,317.3,316.7,344.7,342.3,25.27,23.50,24.44,23.94,325.0,325.0,355.0,355.0,99.78,99.95,99.94,99.98,0.10,0.18,0.00,0.14,-0.0,-0.0,-0.0,0.1,83.9,72.9,72.5,69.4,98.5,75.3,78.1,72.1,94.1,72.9,76.2,69.9,90.4,71.6,75.9,69.2,-0.18,0.18,0.07,0.05,0.00,106.36,106.53,97.38,97.44,176.9,6.4,0.19646882704388502,120.63407313360985,41.05159503821057,36.010171360679095,14.40406797524787
0.400,13.8,44.054503458627515,-78.681937890536119,83.3,79.4,-68.1,-81.4,8500.8,8501,124.9,0,1,1,0,1,1,0,0,0,100,1,1.186,26.0,0.0,0.069,65.041,66.0,0.0,26.0,26.0,26.0,26.0,0.05,-0.07,-0.11,384.8,-2.27,-2.45,-2.01,-1.46,-737.45,676.67,5.7,0.00,0.00,0.00,0.00,0.01,-7.49,-7.49,-0.67,-3.81,-0.46,2.20,34.70,0.04,-0.41,-1.92,100.0,0,0,97.49,0,0,0.0,0,0,0,0,7849,0,30.00,0,124.9,1,0,0.0,0.0,0.0,0.0,1,0,0.426,0.426,65.041,23.378,1,110.00,435.8,8750,0.0,0.0,110.0,110.0,433.0,0.00,0,0,1,333.3,72.9,72.9,76.1,76.1,34.0,-14.06,19.19,-8.0,19.3,5,-337.690,-1.3,100.0,19.6,19.9,32.7,30.7,0,1,0.0,0.00,0.00,0.00,0.00,3937,3913,2593,3613,314.9,314.6,348.1,345.5,25.27,23.50,24.44,23.94,325.0,325.0,355.0,355.0,99.78,99.95,99.94,99.98,0.01,0.09,0.07,0.18,-0.0,-0.0,-0.0,-0.1,84.0,72.9,72.5,69.4,98.4,75.2,78.1,72.0,94.0,72.8,76.2,69.9,90.4,71.5,75.8,69.1,-0.09,0.08,0.07,0.07,0.00,106.34,106.46,97.48,97.51,176.9,6.4,0.1396424004376894,120.63407316206104,41.411696737591775,3.6010172783234395,7.202033987623935
0.450,15.5,44.054488350024535,-78.681932674470801,50.6,3.4,-103.4,-18.8,8502.6,8503,125.4,0,1,1,0,1,1,0,0,0,100,1,1.186,26.0,0.0,0.078,65.041,66.0,0.0,26.0,26.0,26.0,26.0,0.04,0.09,0.13,383.8,-2.38,-2.68,-0.90,-1.37,-736.87,674.99,5.7,0.00,0.00,0.00,0.00,0.01,-7.49,-7.49,-0.73,0.92,-0.38,3.17,34.84,0.06,-0.42,-0.91,100.0,0,0,96.97,0,0,0.0,0,0,0,0,6501,0,30.00,3,125.4,0,0,0.0,0.0,0.0,0.0,1,0,0.477,0.477,65.041,23.378,0,110.00,435.8,8750,0.0,0.0,110.0,110.0,433.0,0.00,0,0,1,166.7,70.9,70.9,81.3,81.3,34.0,-26.06,14.29,-6.5,30.1,5,-337.740,1.2,100.0,22.1,20.1,27.5,29.8,0,1,0.0,0.00,0.00,0.00,0.00,4974,3479,3421,4952,312.5,315.7,345.6,342.1,25.28,23.50,24.44,23.94,325.0,325.0,355.0,355.0,99.78,99.95,99.94,99.98,-0.09,0.00,0.00,0.21,-0.0,-0.0,-0.0,0.0,84.0,72.9,72.5,69.4,98.3,75.2,78.1,72.0,94.0,72.8,76.2,69.9,90.3,71.5,75.8,69.1,0.06,-0.06,0.08,0.07,0.00,107.00,107.05,96.97,96.97,176.9,6.4,0.16309506430300091,120.99417486144219,41.771798436972965,-2.845119695393805e-07,0.0
0.500,17.3,44.054473241421555,-78.681927458405497,14.2,90.8,19.0,43.9,8504.3,8504,125.1,0,1,1,0,1,1,0,0,0,100,1,1.186,26.0,0.0,0.087,65.041,66.0,0.0,26.0,26.0,26.0,26.0,0.05,-0.14,-0.02,383.1,-1.64,-2.77,-1.35,-0.90,-736.29,673.31,5.7,0.00,0.00,0.00,0.00,0.01,-7.49,-7.49,-0.66,2.13,-0.28,-1.27,34.75,0.05,-0.41,0.13,100.0,0,0,97.39,0,0,0.0,0,0,0,0,6528,0,30.00,3,125.1,1,0,0.0,0.0,0.0,0.0,1,0,0.528,0.528,65.041,23.378,1,110.00,435.8,8750,0.0,0.0,110.0,110.0,433.0,0.00,0,0,1,166.7,69.0,69.0,75.8,75.8,34.0,-14.21,18.44,-10.0,12.9,5,-337.790,2.6,100.0,22.9,24.7,28.4,32.0,0,1,0.0,0.00,0.00,0.00,0.00,3546,4189,3388,3327,316.1,313.6,346.1,346.1,25.28,23.50,24.44,23.94,325.0,325.0,355.0,355.0,99.78,99.95,99.94,99.98,-0.11,-0.00,-0.01,0.16,-0.0,0.0,-0.4,-0.4,84.0,72.9,72.5,69.4,98.3,75.2,78.0,72.0,93.9,72.8,76.1,69.9,90.3,71.4,75.8,69.1,0.16,-0.15,0.08,0.07,0.00,106.75,106.76,97.39,97.39,176.9,6.4,0.15000000000000002,120.63407313360985,41.411696737591775,-79.2223764244693,-28.808136519519252
0.550,19.0,44.054458222750739,-78.681922332272336,-21.3,-95.8,109.7,-18.2,8506.1,8506,124.8,0,1,1,0,1,1,0,0,0,100,1,1.186,26.0,0.0,0.096,65.041,66.0,0.0,26.0,26.0,26.0,26.0,-0.04,-0.15,-0.07,383.3,-2.47,-3.15,-1.89,-1.69,-735.72,671.64,5.7,0.00,0.00,0.00,0.00,0.01,-7.49,-7.49,-0.58,-0.03,-0.27,3.25,34.67,0.03,-0.33,0.96,100.0,0,0,97.16,0,0,0.0,0,0,0,0,6514,0,30.00,3,124.8,0,0,0.0,0.0,0.0,0.0,1,0,0.579,0.579,65.041,23.378,0,110.00,435.8,8750,0.0,0.0,110.0,110.0,433.0,0.00,0,0,1,166.7,74.6,74.6,72.3,72.3,34.0,-18.02,8.34,-22.4,23.9,5,-337.840,3.4,100.0,21.8,19.9,33.9,31.1,0,1,0.0,0.00,0.00,0.00,0.00,3167,2813,4117,4736,317.1,317.7,344.1,342.6,25.28,23.50,24.44,23.94,325.0,325.0,355.0,355.0,99.78,99.95,99.94,99.98,-0.17,-0.13,-0.09,0.09,0.0,-0.0,-0.3,-0.3,84.0,72.9,72.5,69.4,98.2,75.1,78.0,72.0,93.8,72.7,76.1,69.8,90.2,71.4,75.7,69.1,0.20,-0.20,0.08,0.06,0.00,106.50,106.33,97.16,97.16,176.9,6.4,0.17029386365926402,113.07193721899526,38.89098478502104,-72.02034215233411,-21.606102531895388
0.600,20.7,44.054445002723128,-78.681917745732150,-25.3,52.2,-17.5,103.6,8507.8,8508,124.6,0,1,1,0,1,1,0,0,0,100,1,1.186,26.0,0.0,0.105,65.041,66.0,0.0,26.0,26.0,26.0,26.0,-0.01,0.09,0.08,381.1,-2.45,-2.48,-0.98,-1.45,-735.21,670.17,5.7,0.00,0.00,0.00,0.00,0.01,-7.49,-7.49,-0.64,-1.56,-0.33,-5.14,34.63,-0.00,-0.39,1.83,100.0,0,0,98.88,0,0,0.0,0,0,0,0,6628,0,30.00,3,124.6,1,0,0.0,0.0,0.0,0.0,1,0,0.624,0.624,65.041,23.378,1,110.00,435.8,8750,0.0,0.0,110.0,110.0,433.0,0.00,0,0,1,333.3,71.3,71.3,69.2,69.2,34.0,-16.09,16.27,-14.6,13.9,5,-337.890,3.4,100.0,20.5,22.5,33.1,36.3,0,1,41.7,0.00,0.00,0.00,0.00,3337,4473,4298,4010,316.4,313.0,344.1,344.3,25.29,23.50,24.44,23.94,325.0,325.0,355.0,355.0,99.78,99.95,99.94,99.98,-0.08,-0.03,-0.11,0.04,-0.0,-0.0,0.9,1.0,84.0,72.9,72.5,69.4,98.1,75.1,77.9,71.9,93.8,72.7,76.1,69.8,90.1,71.4,75.7,69.0,0.20,-0.19,0.08,0.05,0.00,106.28,106.15,98.88,98.88,176.9,6.4,0.12083045973594571,113.43203891837643,39.25108648440224,79.22237613995748,25.20712009473101
0.650,22.5,44.054429894120155,-78.681912529666832,-47.9,-27.2,18.1,-176.1,8509.5,8510,125.1,0,1,1,0,1,1,0,0,0,100,1,1.186,26.0,0.0,0.117,65.041,66.0,0.0,26.0,26.0,26.0,26.0,-0.07,0.34,-0.11,385.3,-2.62,-2.91,-1.15,-1.37,-734.63,668.49,5.7,0.00,0.00,0.00,0.00,0.01,-7.49,-7.49,-0.68,-0.70,-0.57,-3.18,34.76,-0.04,-0.36,2.23,100.0,0,0,99.02,0,0,0.0,0,0,0,0,6638,0,30.00,3,125.1,0,0,0.0,0.0,0.0,0.0,1,0,0.674,0.674,65.041,23.378,0,110.00,435.8,8750,0.0,0.0,110.0,110.0,433.0,0.00,0,0,1,333.3,77.6,77.6,67.6,67.6,34.0,-14.33,4.79,-24.8,9.6,5,-337.940,3.4,100.0,18.1,21.1,34.0,27.5,0,1,41.7,0.00,0.00,0.00,0.00,2632,2151,4967,4231,318.7,318.7,342.1,343.8,25.29,23.50,24.44,23.94,325.0,325.0,355.0,355.0,99.78,99.95,99.94,99.98,-0.16,-0.16,-0.21,-0.02,-0.1,0.0,1.4,1.6,84.0,72.9,72.5,69.4,98.1,75.1,77.9,71.9,93.7,72.6,76.0,69.8,90.1,71.3,75.7,69.0,0.21,-0.20,0.08,0.07,0.00,106.67,106.49,99.02,99.02,176.9,6.4,0.36414282912066254,120.994174832991,41.41169679449414,43.212205632814715,10.803051550459415
0.700,24.2,44.054414785517174,-78.681907403533671,39.8,-124.6,-37.4,84.6,8511.3,8511,125.6,0,1,1,0,1,1,0,0,0,100,1,1.186,26.0,0.0,0.126,65.041,66.0,0.0,26.0,26.0,26.0,26.0,-0.06,0.22,-0.13,386.8,-1.93,-2.84,-1.41,-1.39,-734.06,666.81,5.7,0.00,0.00,0.00,0.00,0.02,-7.49,-7.49,-0.80,-2.59,-0.58,0.30,34.89,-0.06,-0.39,2.26,100.0,0,0,99.54,0,0,0.0,0,0,0,0,6673,0,30.00,3,125.6,1,0,0.0,0.0,0.0,0.0,1,0,0.726,0.726,65.041,23.378,1,110.00,435.8,8750,0.0,0.0,110.0,110.0,433.0,0.00,0,0,1,333.3,78.9,78.9,75.5,75.5,34.0,-9.21,8.68,-24.1,3.4,5,-337.990,2.6,100.0,20.1,14.9,32.1,31.7,0,1,41.7,0.00,0.00,0.00,0.00,2018,3149,3974,3241,319.6,316.7,345.1,346.3,25.29,23.50,24.44,23.94,325.0,325.0,355.0,355.0,99.78,99.95,99.94,99.98,-0.17,-0.12,-0.29,-0.12,-0.0,-0.0,1.3,1.6,84.1,72.9,72.5,69.4,98.0,75.0,77.9,71.9,93.6,72.6,76.0,69.8,90.0,71.3,75.6,69.0,0.16,-0.17,0.09,0.08,0.00,106.97,106.90,99.54,99.54,176.9,6.4,0.26248809496813374,117.7532594816579,40.33139163944818,7.202034556647732,-5.690236548616667e-07
0.750,26.0,44.054400486303635,-78.681902457264840,-50.8,-8.2,-65.8,-108.4,8513.0,8513,126.0,0,1,1,0,1,1,0,0,0,100,1,1.186,26.0,0.0,0.135,65.041,66.0,0.0,26.0,26.0,26.0,26.0,-0.14,0.21,-0.22,389.9,-2.26,-2.68,-0.93,-2.16,-733.51,665.22,5.7,0.00,0.00,0.00,0.00,0.02,-7.49,-7.49,-0.92,-2.04,-0.63,1.34,35.01,-0.07,-0.34,2.20,100.0,0,0,100.39,0,0,0.0,0,0,0,0,6729,0,30.00,3,126.0,0,0,0.0,0.0,0.0,0.0,1,0,0.774,0.774,65.041,23.378,0,110.00,435.8,8750,0.0,0.0,110.0,110.0,433.0,0.00,0,0,1,333.3,78.9,78.9,79.5,79.5,34.0,-22.98,6.16,-21.4,1.7,5,-338.040,1.0,100.0,17.6,14.5,28.8,26.3,0,1,41.7,0.00,0.00,0.00,0.00,3988,2406,4209,1351,315.0,318.5,344.0,352.0,25.29,23.50,24.45,23.94,325.0,325.0,355.0,355.0,99.78,99.95,99.94,99.98,-0.17,-0.10,-0.30,-0.16,-0.0,-0.0,1.9,2.0,84.1,72.8,72.5,69.4,97.9,75.0,77.9,71.9,93.6,72.6,76.0,69.7,90.0,71.3,75.6,69.0,0.06,-0.08,0.07,0.08,0.00,107.44,107.23,100.39,100.39,176.9,6.4,0.33481338085566414,121.71437828865578,41.411696737591775,79.22237613995719,21.606101962871733
0.800,27.7,44.054384388446891,-78.681897061335206,51.3,36.5,-35.2,59.0,8514.8,8515,126.5,0,1,1,0,1,1,0,0,0,100,1,1.186,26.0,0.0,0.147,65.041,66.0,0.0,26.0,26.0,26.0,26.0,-0.09,0.23,-0.18,387.8,-2.32,-2.43,-1.55,-1.48,-732.91,663.43,5.7,0.00,0.00,0.00,0.00,0.02,-7.49,-7.49,-0.97,0.24,-0.31,4.72,35.15,-0.07,-0.33,1.34,100.0,0,0,100.59,0,0,0.0,0,0,0,0,6743,0,30.00,3,126.5,1,0,0.0,0.0,0.0,0.0,1,0,0.828,0.828,65.041,23.378,1,110.00,435.8,8750,0.0,0.0,110.0,110.0,433.0,0.00,0,0,1,166.7,77.3,77.3,81.2,81.2,34.0,-11.95,8.96,-20.0,2.2,5,-338.090,-0.8,100.0,20.1,16.3,27.0,29.2,0,1,41.7,0.00,0.00,0.00,0.00,2510,3078,3295,3582,318.4,316.6,346.7,345.8,25.30,23.50,24.45,23.94,325.0,325.0,355.0,355.0,99.78,99.95,99.94,99.98,-0.12,-0.06,-0.32,-0.17,-0.0,-0.1,1.6,1.8,84.1,72.8,72.5,69.4,97.9,74.9,77.8,71.8,93.5,72.5,76.0,69.7,89.9,71.2,75.6,69.0,-0.03,0.03,0.10,0.07,0.00,107.91,107.82,100.59,100.59,176.9,6.4,0.3056141357987225,125.67549709565363,42.49200183573535,-61.21729088638617,-25.207119525707355
0.850,29.5,44.054369099979588,-78.681891845269902,65.3,1.6,44.6,74.1,8516.5,8517,127.0,0,1,1,0,1,1,0,0,0,100,1,1.186,26.0,0.0,0.156,65.041,66.0,0.0,26.0,26.0,26.0,26.0,-0.13,0.30,0.06,382.6,-2.38,-2.96,-0.72,-0.91,-732.33,661.73,5.7,0.00,0.00,0.00,0.00,0.02,-7.49,-7.49,-0.93,0.88,-0.05,7.68,35.29,-0.04,-0.31,0.30,100.0,0,0,100.42,0,0,0.0,0,0,0,0,6732,0,30.00,3,127.0,0,0,0.0,0.0,0.0,0.0,0,0,0.879,0.879,65.041,23.378,0,110.00,435.8,8750,0.0,0.0,110.0,110.0,433.0,0.00,0,0,1,166.7,74.4,74.4,79.8,79.8,34.0,-20.13,8.59,-23.8,4.0,5,-338.140,-2.2,100.0,23.4,16.4,29.3,32.9,0,1,41.7,0.00,0.00,0.00,0.00,4436,2119,4634,5172,313.7,319.0,342.1,341.4,25.30,23.49,24.45,23.94,325.0,325.0,355.0,355.0,99.78,99.95,99.94,99.98,-0.05,-0.00,-0.27,-0.08,-0.0,-0.1,1.3,1.3,84.1,72.8,72.6,69.4,97.8,74.9,77.8,71.8,93.4,72.5,75.9,69.7,89.8,71.2,75.5,68.9,-0.11,0.11,0.08,0.07,0.00,108.33,108.29,100.42,100.42,176.9,6.4,0.33241540277189324,115.59264920001716,38.89098478502104,-93.62644496874054,-36.010170507143116
0.900,31.3,44.054355520223339,-78.681887348661860,-39.9,-40.6,-1.6,66.4,8518.3,8518,127.4,0,1,1,0,1,1,0,0,0,100,1,1.186,26.0,0.0,0.165,65.041,66.0,0.0,26.0,26.0,26.0,26.0,-0.09,0.31,-0.03,383.7,-2.27,-1.91,-1.84,-1.04,-731.83,660.22,5.7,0.00,0.00,0.00,0.00,0.02,-7.49,-7.49,-0.96,-1.94,0.38,8.85,35.41,-0.00,-0.29,-0.60,100.0,0,0,100.71,0,0,0.0,0,0,0,0,6751,0,30.00,3,127.4,1,0,0.0,0.0,0.0,0.0,0,0,0.924,0.924,65.041,23.378,1,110.00,435.8,8750,0.0,0.0,110.0,110.0,433.0,0.00,0,0,1,333.3,78.4,78.4,76.7,76.7,34.0,-8.74,8.65,-32.0,7.7,5,-338.190,-2.8,100.0,21.4,14.4,29.2,36.3,0,1,41.7,0.00,0.00,0.00,0.00,2774,2616,4938,4987,318.4,318.1,341.5,341.9,25.30,23.49,24.45,23.94,325.0,325.0,355.0,355.0,99.78,99.95,99.94,99.98,0.01,0.05,-0.20,-0.04,0.0,-0.1,1.4,1.3,84.1,72.8,72.6,69.4,97.7,74.8,77.8,71.8,93.4,72.4,75.9,69.7,89.8,71.1,75.5,68.9,-0.15,0.14,0.08,0.06,0.00,108.49,108.59,100.71,100.71,176.9,6.4,0.32419130154894654,116.31285259877957,38.89098478502104,118.83356449444804,39.61118806997874
0.950,33.0,44.054340051891721,-78.681882132596556,-18.1,217.6,44.9,-28.7,8520.1,8520,127.9,0,1,1,0,1,1,0,0,0,100,1,1.186,26.0,0.0,0.183,65.041,66.0,0.0,26.0,26.0,26.0,26.0,0.04,0.22,0.03,380.9,-3.02,-2.65,-2.02,-1.34,-731.25,658.50,5.7,0.00,0.00,0.00,0.00,0.02,-7.49,-7.49,-1.04,-0.01,0.67,1.59,35.53,0.04,-0.40,-1.87,100.0,0,0,101.43,0,0,0.0,0,0,0,0,6800,0,30.00,3,127.9,0,0,0.0,0.0,0.0,0.0,0,0,0.976,0.976,65.041,23.378,0,110.00,435.8,8750,0.0,0.0,110.0,110.0,433.0,0.00,0,0,1,333.3,69.0,69.0,69.7,69.7,34.0,-14.11,31.26,-13.4,13.2,5,-338.240,-2.4,100.0,20.5,25.2,31.4,34.8,0,1,41.7,0.00,0.00,0.00,0.00,3570,5033,3725,3204,316.1,311.6,345.3,346.3,25.31,23.49,24.45,23.94,325.0,325.0,355.0,355.0,99.78,99.95,99.94,99.98,0.05,0.14,0.01,0.15,-0.1,-0.1,1.5,1.3,84.2,72.8,72.6,69.4,97.6,74.8,77.7,71.8,93.3,72.4,75.9,69.7,89.7,71.1,75.5,68.9,-0.13,0.15,0.07,0.06,0.00,108.94,109.10,101.43,101.43,176.9,6.4,0.22561028345356954,127.47600564946197,42.85210359201891,39.61118835449028,18.00508553808342
1.000,34.8,44.054323684238490,-78.681876646734750,-61.1,-3.8,5.5,-14.8,8521.9,8522,128.4,0,1,1,0,1,1,0,0,0,100,1,1.186,26.0,0.0,0.183,65.041,66.0,0.0,26.0,26.0,26.0,26.0,0.13,0.32,0.05,380.6,-2.53,-1.96,-1.56,-1.19,-730.64,656.68,5.6,0.00,0.00,0.00,0.00,0.02,-7.49,-7.49,-0.93,1.72,0.57,-6.30,35.68,0.05,-0.31,-1.99,100.0,0,0,101.28,0,0,0.0,0,0,0,0,6789,0,30.00,3,128.4,1,0,0.0,0.0,0.0,0.0,0,0,1.029,1.029,65.041,23.378,1,110.00,435.8,8750,0.0,0.0,110.0,110.0,433.0,0.00,0,0,1,166.7,74.6,74.6,63.6,63.6,34.0,-2.91,21.90,-8.4,47.4,5,-338.290,-1.3,100.0,17.5,25.1,31.7,34.1,0,1,41.7,0.00,0.00,0.00,0.00,1640,4208,4913,6391,320.8,313.9,342.2,337.4,25.31,23.49,24.45,23.94,325.0,325.0,355.0,355.0,99.78,99.95,99.94,99.98,0.14,0.16,0.11,0.33,-0.1,-0.0,1.2,1.1,84.2,72.8,72.6,69.4,97.6,74.8,77.7,71.8,93.2,72.4,75.9,69.7,89.6,71.1,75.5,68.9,-0.09,0.08,0.08,0.06,0.00,109.43,109.62,101.28,101.28,176.9,6.4,0.34899856733230294,120.2739714342286,40.69149333882938,-64.8183081647096,-18.00508553808342
1.050,36.6,44.054310014550083,-78.681871970262407,56.6,-152.4,76.8,61.4,8523.7,8524,128.8,0,1,1,0,1,1,0,0,0,100,1,1.186,26.0,0.0,0.198,65.041,66.0,0.0,26.0,26.0,26.0,26.0,0.03,0.25,-0.02,382.5,-1.92,-2.54,-2.74,-2.45,-730.12,655.16,5.6,0.00,0.00,0.00,0.00,0.02,-7.49,-7.49,-0.92,-0.91,0.26,-2.24,35.79,0.05,-0.34,-0.81,100.0,0,0,101.89,0,0,0.0,0,0,0,0,6830,0,30.00,3,128.8,0,0,0.0,0.0,0.0,0.0,0,0,1.074,1.074,65.041,23.378,0,110.00,435.8,8750,0.0,0.0,110.0,110.0,433.0,0.00,0,0,1,333.3,78.6,78.6,72.2,72.2,34.0,-5.01,5.13,-17.6,36.1,5,-338.340,-0.2,100.0,20.3,17.4,35.5,37.1,0,1,41.7,0.00,0.00,0.00,0.00,2932,1396,4222,4576,317.2,320.9,343.2,342.7,25.31,23.49,24.45,23.94,325.0,325.0,355.0,355.0,99.78,99.95,99.94,99.98,0.09,0.04,0.11,0.24,-0.0,-0.1,1.3,1.2,84.2,72.8,72.6,69.4,97.5,74.7,77.7,71.8,93.2,72.3,75.8,69.6,89.6,71.0,75.4,68.9,-0.02,0.01,0.07,0.06,0.00,109.74,109.66,101.89,101.89,176.9,6.4,0.2525866188063018,120.994174832991,41.05159503821057,46.813222342114784,14.404068544271453
1.100,38.4,44.054293467032537,-78.681866394468443,-109.7,-54.4,-59.0,-34.1,8525.5,8525,129.3,0,1,1,0,1,1,0,0,0,100,1,1.186,26.0,0.0,0.207,65.041,66.0,0.0,26.0,26.0,26.0,26.0,0.08,0.28,-0.18,386.1,-2.71,-3.14,-1.56,-2.37,-729.50,653.32,5.6,0.00,0.00,0.00,0.00,0.02,-7.49,-7.49,-1.07,-4.62,0.24,-1.94,35.93,0.03,-0.32,-0.40,100.0,0,0,102.14,0,0,0.0,0,0,0,0,6847,0,30.00,3,129.3,1,0,0.0,0.0,0.0,0.0,0,0,1.128,1.128,65.041,23.378,1,110.00,435.8,8750,0.0,0.0,110.0,110.0,433.0,0.00,0,0,1,166.7,83.6,83.6,70.2,70.2,34.0,-6.38,9.67,-17.2,24.1,5,-338.390,0.5,100.0,14.8,14.7,32.6,35.4,0,1,42.1,0.00,0.00,0.00,0.00,2070,2127,5142,3816,320.4,319.2,341.9,344.3,25.31,23.49,24.45,23.94,325.0,325.0,355.0,355.0,99.78,99.95,99.94,99.98,0.04,0.03,-0.01,0.14,-0.0,-0.1,1.3,1.3,84.2,72.8,72.6,69.4,97.4,74.7,77.7,71.8,93.1,72.3,75.8,69.6,89.5,71.0,75.4,68.9,0.04,-0.03,0.08,0.06,0.00,109.93,110.13,102.14,102.14,176.9,6.4,0.34234485537247383,124.95529366844008,42.13190019325653,-32.409153513331006,-10.803051550459415
1.150,40.2,44.054278808090359,-78.681861448199612,102.9,130.5,-13.9,-186.0,8527.3,8527,129.7,0,1,1,0,1,1,0,0,0,100,1,1.186,26.0,0.0,0.207,65.041,66.0,0.0,26.0,26.0,26.0,26.0,-0.01,0.26,0.04,382.1,-3.07,-2.96,-1.47,-1.80,-728.95,651.69,5.6,0.00,0.00,0.00,0.00,0.03,-7.49,-7.49,-1.26,-1.06,0.30,2.89,36.04,0.03,-0.40,0.32,100.0,0,0,102.94,0,0,0.0,0,0,0,0,6900,0,30.00,3,129.7,0,0,0.0,0.0,0.0,0.0,0,0,1.176,1.176,65.041,23.378,0,110.00,435.8,8750,0.0,0.0,110.0,110.0,433.0,0.00,0,0,1,166.7,68.2,68.2,73.4,73.4,34.0,-40.53,32.69,-11.4,16.9,5,-338.440,1.1,100.0,19.9,21.2,31.9,26.1,0,1,41.7,0.00,0.00,0.00,0.00,5522,5734,3556,3855,311.3,310.3,345.7,344.9,25.32,23.49,24.46,23.94,325.0,325.0,355.0,355.0,99.78,99.95,99.94,99.98,-0.16,0.05,-0.06,0.11,-0.1,-0.1,1.7,1.7,84.2,72.8,72.6,69.4,97.4,74.6,77.6,71.7,93.0,72.2,75.8,69.6,89.5,70.9,75.4,68.8,0.06,-0.06,0.08,0.08,0.00,110.74,110.55,102.94,102.94,176.9,6.4,0.2632489316217637,117.7532594816579,39.97128988316463,-28.80813680403108,-3.6010175628356222
1.200,42.0,44.054264059216017,-78.681856411998623,77.8,49.2,-117.2,56.3,8529.1,8529,130.2,0,1,1,0,1,1,0,0,0,100,1,1.186,26.0,0.0,0.231,65.041,66.0,0.0,26.0,26.0,26.0,26.0,-0.03,0.36,-0.07,382.0,-2.94,-2.39,-1.67,-1.38,-728.39,650.05,5.6,0.00,0.00,0.00,0.00,0.03,-7.49,-7.49,-1.09,5.73,0.35,-1.38,36.16,0.01,-0.32,0.60,100.0,0,0,103.13,0,0,0.0,0,0,0,0,6913,0,30.00,3,130.2,1,0,0.0,0.0,0.0,0.0,0,0,1.224,1.224,65.041,23.378,1,110.00,435.8,8750,0.0,0.0,110.0,110.0,433.0,0.00,0,0,1,333.3,69.8,69.8,76.9,76.9,34.0,-16.47,15.05,-18.9,22.9,5,-338.490,1.2,100.0,23.8,23.7,26.0,29.0,0,1,41.7,0.00,0.00,0.00,0.00,3348,3829,4234,5716,316.7,314.6,344.1,340.0,25.32,23.49,24.46,23.94,325.0,325.0,355.0,355.0,99.78,99.95,99.94,99.98,-0.04,0.01,-0.11,0.09,-0.1,-0.1,1.4,1.6,84.2,72.8,72.6,69.4,97.3,74.6,77.6,71.7,93.0,72.2,75.7,69.6,89.4,70.9,75.4,68.8,0.08,-0.07,0.09,0.07,0.00,111.07,111.11,103.13,103.13,176.9,6.4,0.36796738985948196,122.07447998803697,41.771798436972965,86.42441012758113,28.808137088542836
1.250,43.8,44.054248321087918,-78.681851016068990,-29.1,-55.5,347.5,226.8,8530.9,8531,130.7,0,1,1,0,1,1,0,0,0,100,1,1.186,26.0,0.0,0.240,65.041,66.0,0.0,26.0,26.0,26.0,26.0,-0.03,0.21,0.45,374.1,-2.11,-2.75,-1.98,-1.74,-727.79,648.30,5.6,0.00,0.00,0.00,0.00,0.03,-7.49,-7.49,-0.91,0.91,0.21,-0.80,36.30,-0.00,-0.30,0.65,100.0,0,0,103.05,0,0,0.0,0,0,0,0,6908,0,30.00,3,130.7,0,0,0.0,0.0,0.0,0.0,0,0,1.274,1.274,65.041,23.378,0,110.00,435.8,8750,0.0,0.0,110.0,110.0,433.0,0.00,0,0,1,333.3,70.2,70.2,57.9,57.9,34.0,-21.37,19.45,-36.0,24.6,5,-338.540,1.2,100.0,22.4,20.9,43.4,40.3,0,1,42.1,0.00,0.00,0.00,0.00,4731,4281,5897,5125,313.2,313.8,339.3,341.1,25.32,23.49,24.46,23.95,325.0,325.0,355.0,355.0,99.78,99.95,99.94,99.98,-0.07,0.02,-0.11,0.07,-0.0,-0.0,1.0,0.9,84.3,72.8,72.6,69.4,97.2,74.6,77.6,71.7,92.9,72.2,75.7,69.6,89.3,70.9,75.3,68.8,0.07,-0.07,0.05,0.05,0.00,111.48,111.44,103.05,103.05,176.9,6.4,0.49749371855331,126.39570049441602,42.85210359201891,46.81322262662633,10.803051550459486
1.300,45.6,44.054232493027655,-78.681845710071514,-26.5,-68.0,-118.9,-79.4,8532.7,8533,131.1,0,1,1,0,1,1,0,0,0,100,1,1.186,26.0,0.0,0.249,65.041,66.0,0.0,26.0,26.0,26.0,26.0,-0.04,0.26,-0.23,382.6,-2.36,-2.28,-1.26,-2.39,-727.20,646.54,5.6,0.00,0.00,0.00,0.00,0.03,-7.49,-7.49,-0.88,-0.10,0.31,3.65,36.42,0.00,-0.27,0.85,100.0,0,0,103.82,0,0,0.0,0,0,0,0,6960,0,30.00,3,131.1,1,0,0.0,0.0,0.0,0.0,0,0,1.326,1.326,65.041,23.378,1,110.00,435.8,8750,0.0,0.0,110.0,110.0,433.0,0.00,0,0,1,333.3,79.0,79.0,67.8,67.8,34.0,-5.94,4.95,-18.7,20.1,5,-338.590,1.2,100.0,21.1,17.5,37.5,36.3,0,1,42.1,0.00,0.00,0.00,0.00,1603,2285,4501,4332,320.6,319.2,343.2,343.7,25.33,23.49,24.46,23.95,325.0,325.0,355.0,355.0,99.78,99.95,99.94,99.98,-0.05,-0.08,-0.13,0.00,-0.0,-0.1,1.4,1.4,84.3,72.8,72.6,69.4,97.2,74.5,77.6,71.7,92.9,72.1,75.7,69.6,89.3,70.8,75.3,68.8,0.08,-0.08,0.07,0.06,0.00,111.74,111.65,103.82,103.82,176.9,6.4,0.349428104193123,126.7558022506996,42.85210359201891,-28.808136519518968,-10.803050981435831
1.350,47.5,44.054216664967385,-78.681840314141880,-105.8,40.8,1.6,27.9,8534.5,8535,131.6,0,1,1,0,1,1,0,0,0,100,1,1.186,26.0,0.0,0.255,65.041,66.0,0.0,26.0,26.0,26.0,26.0,0.02,0.20,-0.06,381.5,-2.36,-2.18,-1.72,-2.61,-726.60,644.78,5.5,0.00,0.00,0.00,0.00,0.03,-7.49,-7.49,-1.01,-4.31,0.29,-4.56,36.56,-0.02,-0.34,0.65,100.0,0,0,104.00,0,0,0.0,0,0,0,0,6972,0,30.00,3,131.6,0,0,0.0,0.0,0.0,0.0,1,0,1.377,1.377,65.041,23.378,0,110.00,435.8,8750,0.0,0.0,110.0,110.0,433.0,0.00,0,0,1,166.7,77.2,77.2,60.6,60.6,34.0,-7.04,18.86,-22.3,18.6,5,-338.640,1.1,100.0,15.8,19.6,37.5,37.7,0,1,41.7,0.00,0.00,0.00,0.00,1986,4795,4751,3464,320.1,312.6,342.5,345.2,25.33,23.49,24.46,23.95,325.0,325.0,355.0,355.0,99.78,99.95,99.94,99.98,-0.04,0.03,-0.09,0.03,-0.0,-0.1,1.2,1.2,84.3,72.8,72.6,69.4,97.1,74.5,77.5,71.7,92.8,72.1,75.7,69.5,89.2,70.8,75.3,68.8,0.07,-0.07,0.07,0.05,0.00,112.00,112.01,104.00,104.00,176.9,6.4,0.20976176963403032,123.51488684246412,41.77179849387533,-28.80813708854305,-10.803050981435831
1.400,49.3,44.054201646296569,-78.681835277940877,35.3,-80.1,-99.5,-159.0,8536.4,8536,132.0,0,1,1,0,1,1,0,0,0,100,1,1.186,26.0,0.0,0.264,65.041,66.0,0.0,26.0,26.0,26.0,26.0,-0.09,0.30,-0.18,385.8,-2.32,-3.31,-1.28,-1.27,-726.04,643.11,5.5,0.00,0.00,0.00,0.00,0.03,-7.49,-7.49,-1.19,-3.40,0.10,-1.25,36.67,-0.02,-0.36,1.01,100.0,0,0,104.45,0,0,0.0,0,0,0,0,7002,0,30.00,3,132.0,1,0,0.0,0.0,0.0,0.0,1,0,1.424,1.424,65.041,23.378,1,110.00,435.8,8750,0.0,0.0,110.0,110.0,433.0,0.00,0,0,1,166.7,79.4,79.4,75.6,75.6,34.0,-17.52,7.79,-16.8,12.1,5,-338.690,1.2,100.0,17.5,15.6,32.6,29.8,0,1,41.7,0.00,0.00,0.00,0.00,3589,2121,4239,4198,315.8,319.7,344.0,343.7,25.33,23.49,24.46,23.95,325.0,325.0,355.0,355.0,99.78,99.95,99.94,99.98,-0.10,-0.05,-0.13,0.04,-0.0,-0.1,1.5,1.6,84.3,72.8,72.6,69.4,97.0,74.4,77.5,71.6,92.7,72.1,75.6,69.5,89.1,70.8,75.3,68.8,0.07,-0.08,0.09,0.07,0.00,112.51,112.26,104.45,104.45,176.9,6.4,0.36124783736376886,123.8749885418453,41.77179849387533,7.2020339876236505,-5.690236548616667e-07
1.450,51.1,44.054185728304141,-78.681829882011243,59.1,55.3,-63.3,23.1,8538.2,8538,132.4,0,1,1,0,1,1,0,0,0,100,1,1.186,26.0,0.0,0.273,65.041,66.0,0.0,26.0,26.0,26.0,26.0,-0.10,0.19,-0.02,383.1,-3.03,-2.95,-1.40,-1.19,-725.44,641.34,5.5,0.00,0.00,0.00,0.00,0.03,-7.49,-7.49,-1.33,-1.12,-0.04,-3.99,36.79,-0.03,-0.42,1.10,100.0,0,0,105.03,0,0,0.0,0,0,0,0,7041,0,30.00,3,132.4,0,0,0.0,0.0,0.0,0.0,1,0,1.476,1.476,65.041,23.378,0,110.00,435.8,8750,0.0,0.0,110.0,110.0,433.0,0.00,0,0,1,333.3,70.5,70.5,77.9,77.9,34.0,-42.84,22.63,-18.3,5.0,5,-338.740,1.3,100.0,20.5,18.3,29.4,30.9,0,1,41.7,0.00,0.00,0.00,0.00,5966,4521,4211,2417,310.7,313.1,344.3,348.3,25.33,23.49,24.46,23.95,325.0,325.0,355.0,355.0,99.78,99.95,99.94,99.98,-0.15,0.02,-0.14,0.01,-0.1,-0.1,1.4,1.5,84.3,72.8,72.6,69.4,96.9,74.4,77.5,71.6,92.7,72.0,75.6,69.5,89.1,70.7,75.2,68.7,0.09,-0.09,0.08,0.07,0.00,112.96,112.86,105.03,105.03,176.9,6.4,0.21563858652847825,124.23509024122649,41.771798436972965,10.8030512659478,-5.690236548616667e-07
1.500,53.0,44.054170619701168,-78.681824845810254,202.7,108.7,16.8,-48.0,8540.0,8540,132.8,0,1,1,0,1,1,0,0,0,100,1,1.186,26.0,0.0,0.282,65.041,66.0,0.0,26.0,26.0,26.0,26.0,-0.11,0.23,0.15,379.0,-2.67,-2.51,-1.18,-1.18,-724.88,639.66,5.5,0.00,0.00,0.00,0.00,0.03,-7.49,-7.49,-1.14,7.16,0.13,6.56,36.91,-0.02,-0.38,1.74,100.0,0,0,105.30,0,0,0.0,0,0,0,0,7059,0,30.00,3,132.8,1,0,0.0,0.0,0.0,0.0,1,0,1.524,1.524,65.041,23.378,1,110.00,435.8,8750,0.0,0.0,110.0,110.0,433.0,0.00,0,0,1,333.3,63.5,63.5,78.2,78.2,34.0,-34.29,13.69,-22.3,5.9,5,-338.790,1.3,100.0,30.6,23.8,30.2,28.5,0,1,41.3,0.00,0.00,0.00,0.00,5052,4307,4043,4244,312.4,313.5,344.5,343.9,25.34,23.49,24.46,23.95,325.0,325.0,355.0,355.0,99.78,99.95,99.94,99.98,-0.18,-0.06,-0.26,-0.07,-0.1,-0.1,1.2,1.4,84.4,72.8,72.7,69.4,96.9,74.4,77.5,71.6,92.6,72.0,75.6,69.5,89.0,70.7,75.2,68.7,0.10,-0.08,0.07,0.07,0.00,113.60,113.43,105.30,105.30,176.9,6.4,0.2958039891549808,124.95529366844008,41.771798436972965,86.42441098111703,25.20712009473087
1.550,54.8,44.054154521844417,-78.681819449880621,-13.9,57.7,220.9,234.0,8541.9,8542,133.3,0,1,1,0,1,1,0,0,0,100,1,1.186,26.0,0.0,0.288,65.041,66.0,0.0,26.0,26.0,26.0,26.0,-0.17,0.25,0.51,371.0,-1.77,-2.47,-2.44,-1.08,-724.28,637.87,5.5,0.00,0.00,0.00,0.00,0.03,-7.49,-7.49,-0.67,9.40,0.39,4.02,37.04,0.01,-0.26,0.93,100.0,0,0,105.25,0,0,0.0,0,0,0,0,7056,0,30.00,3,133.3,0,0,0.0,0.0,0.0,0.0,1,0,1.574,1.574,65.041,23.378,0,110.00,435.8,8750,0.0,0.0,110.0,110.0,433.0,0.00,0,0,1,333.3,65.3,65.3,56.0,56.0,34.0,-10.85,13.69,-58.3,14.7,5,-338.840,1.3,100.0,29.9,26.6,41.3,40.2,0,1,41.3,0.00,0.00,0.00,0.00,2859,4037,6660,6239,316.6,313.6,337.2,338.6,25.34,23.49,24.47,23.95,325.0,325.0,355.0,355.0,99.78,99.95,99.94,99.98,-0.07,-0.05,-0.21,-0.01,-0.0,-0.0,0.9,0.9,84.4,72.8,72.7,69.4,96.8,74.3,77.4,71.6,92.6,72.0,75.6,69.5,89.0,70.7,75.2,68.7,0.08,-0.08,0.05,0.05,0.00,113.97,113.97,105.25,105.25,176.9,6.4,0.5928743543112656,132.8775313393382,44.29251044644605,46.813222342114216,10.803051550459486
1.600,56.7,44.054137434733903,-78.681813784154500,-191.1,-94.6,114.0,109.3,8543.8,8544,133.8,0,1,1,0,1,1,0,0,0,100,1,1.186,26.0,0.0,0.297,65.041,66.0,0.0,26.0,26.0,26.0,26.0,-0.02,0.29,0.33,373.1,-2.17,-2.60,-1.96,-1.67,-723.65,635.97,5.5,0.00,0.00,0.00,0.00,0.03,-7.49,-7.49,-0.39,1.38,0.46,-0.25,37.17,0.01,-0.20,0.51,100.0,0,0,105.38,0,0,0.0,0,0,0,0,7064,0,30.00,3,133.8,1,0,0.0,0.0,0.0,0.0,1,0,1.629,1.629,65.041,23.378,1,110.00,435.8,8750,0.0,0.0,110.0,110.0,433.0,0.00,0,0,1,166.7,75.6,75.6,47.5,47.5,34.0,-4.86,12.23,-38.8,32.7,5,-338.890,1.3,100.0,20.4,21.9,47.0,45.7,0,1,41.3,0.00,0.00,0.00,0.00,1644,3431,6784,6734,320.6,315.2,337.0,336.8,25.34,23.49,24.47,23.95,325.0,325.0,355.0,355.0,99.78,99.95,99.94,99.98,-0.01,-0.04,-0.07,0.06,0.0,-0.0,0.9,0.9,84.4,72.8,72.7,69.4,96.8,74.3,77.4,71.6,92.5,71.9,75.6,69.5,88.9,70.6,75.2,68.7,0.08,-0.08,0.04,0.03,0.00,114.09,114.12,105.38,105.38,176.9,6.4,0.43977266854592045,129.6366159026515,42.85210359201891,-68.41932544303361,-25.20712009473087
1.650,58.6,44.054122146266607,-78.681808747953511,39.4,-26.5,-127.7,-43.7,8545.6,8546,134.2,0,1,1,0,1,1,0,0,0,100,1,1.186,26.0,0.0,0.306,65.041,66.0,0.0,26.0,26.0,26.0,26.0,-0.05,0.19,0.13,376.4,-3.22,-2.50,-2.20,-1.45,-723.09,634.27,5.5,0.00,0.00,0.00,0.00,0.04,-7.49,-7.49,-0.48,-1.50,0.44,-1.06,37.28,0.02,-0.33,0.77,100.0,0,0,106.19,0,0,0.0,0,0,0,0,7119,0,30.00,3,134.2,0,0,0.0,0.0,0.0,0.0,1,0,1.677,1.677,65.041,23.378,0,110.00,435.8,8750,0.0,0.0,110.0,110.0,433.0,0.00,0,0,1,166.7,69.8,69.8,64.0,64.0,34.0,-25.35,19.08,-23.7,13.0,5,-338.940,1.4,100.0,22.3,20.6,40.6,43.5,0,1,41.7,0.00,0.00,0.00,0.00,4251,4488,4738,4227,313.6,312.9,343.1,344.3,25.35,23.49,24.47,23.95,325.0,325.0,355.0,355.0,99.78,99.95,99.94,99.98,-0.05,0.01,-0.05,0.02,-0.1,-0.1,1.3,1.3,84.4,72.8,72.7,69.4,96.7,74.3,77.4,71.6,92.4,71.9,75.5,69.4,88.9,70.6,75.1,68.7,0.08,-0.09,0.07,0.04,0.00,114.40,114.31,106.19,106.19,176.9,6.4,0.23558437978779495,126.03559879503483,41.771798436972965,-32.40915379784283,-7.202033987623864
1.700,60.4,44.054105958477699,-78.681803352023877,19.7,30.5,-80.2,-180.6,8547.5,8547,134.6,0,1,1,0,1,1,0,0,0,100,1,1.186,26.0,0.0,0.315,65.041,66.0,0.0,26.0,26.0,26.0,26.0,-0.05,0.29,0.12,378.4,-2.28,-2.81,-1.38,-1.62,-722.49,632.47,5.5,0.00,0.00,0.00,0.00,0.04,-7.49,-7.49,-0.46,1.82,0.38,0.92,37.39,0.01,-0.34,0.92,100.0,0,0,106.51,0,0,0.0,0,0,0,0,7140,0,30.00,3,134.6,1,0,0.0,0.0,0.0,0.0,1,0,1.728,1.728,65.041,23.378,1,110.00,435.8,8750,0.0,0.0,110.0,110.0,433.0,0.00,0,0,1,166.7,68.7,68.7,64.6,64.6,34.0,-21.16,21.84,-22.6,15.5,5,-338.990,1.4,100.0,23.3,22.1,36.6,34.5,0,1,41.3,0.00,0.00,0.00,0.00,4521,4593,5338,4305,313.6,312.7,340.4,344.4,25.35,23.49,24.47,23.95,325.0,325.0,355.0,355.0,99.78,99.95,99.94,99.98,-0.07,0.01,-0.10,0.05,-0.0,-0.1,1.4,1.3,84.4,72.8,72.7,69.4,96.6,74.2,77.4,71.6,92.4,71.8,75.5,69.4,88.8,70.5,75.1,68.7,0.09,-0.08,0.07,0.05,0.00,114.85,114.81,106.51,106.51,176.9,6.4,0.3178049716414141,126.39570052286722,42.13190019325653,10.803051550459344,3.6010175628356222
1.750,62.3,44.054090580078238,-78.681798225890716,8.1,87.5,13.9,49.1,8549.4,8549,135.0,0,1,1,0,1,1,0,0,0,100,1,1.186,26.0,0.0,0.324,65.041,66.0,0.0,26.0,26.0,26.0,26.0,0.00,0.21,0.16,376.8,-2.66,-2.73,-1.72,-1.33,-721.92,630.76,5.5,0.00,0.00,0.00,0.00,0.04,-7.49,-7.49,-0.33,3.54,0.43,-2.99,37.50,-0.00,-0.38,0.80,100.0,0,0,106.80,0,0,0.0,0,0,0,0,7159,0,30.00,3,135.0,0,0,0.0,0.0,0.0,0.0,1,0,1.776,1.776,65.041,23.378,0,110.00,435.8,8750,0.0,0.0,110.0,110.0,433.0,0.00,0,0,1,166.7,66.6,66.6,62.4,62.4,34.0,-16.36,26.62,-19.2,17.7,5,-339.040,1.5,100.0,23.7,26.5,37.3,36.9,0,1,41.3,0.00,0.00,0.00,0.00,3390,5594,4218,5216,316.6,310.1,344.0,341.2,25.35,23.49,24.47,23.95,325.0,325.0,355.0,355.0,99.78,99.95,99.94,99.98,-0.07,0.01,-0.08,0.04,-0.0,-0.1,1.1,1.2,84.4,72.8,72.7,69.4,96.6,74.2,77.3,71.5,92.3,71.8,75.5,69.4,88.7,70.5,75.1,68.7,0.08,-0.09,0.07,0.05,0.00,115.19,115.22,106.80,106.80,176.9,6.4,0.2640075756488817,127.11590395008076,42.13190019325653,10.803051265947516,-3.6010175628356222
1.800,64.2,44.054074212425007,-78.681792829961083,-71.2,-115.8,43.5,-23.3,8551.2,8551,135.4,0,1,1,0,1,1,0,0,0,100,1,1.186,26.0,0.0,0.336,65.041,66.0,0.0,26.0,26.0,26.0,26.0,-0.04,0.25,0.14,378.6,-1.70,-2.77,-1.39,-2.40,-721.32,628.94,5.5,0.00,0.00,0.00,0.00,0.04,-7.49,-7.49,-0.17,1.15,0.18,-3.18,37.63,-0.02,-0.30,1.22,100.0,0,0,106.88,0,0,0.0,0,0,0,0,7165,0,30.00,3,135.4,1,0,0.0,0.0,0.0,0.0,1,0,1.827,1.827,65.041,23.378,1,110.00,435.8,8750,0.0,0.0,110.0,110.0,433.0,0.00,0,0,1,166.7,73.5,73.5,60.3,60.3,34.0,-15.57,12.52,-28.8,30.6,5,-339.090,2.3,100.0,20.2,20.7,39.5,35.8,0,1,41.3,0.00,0.00,0.00,0.00,3829,3501,6127,5224,314.9,315.7,338.7,340.9,25.35,23.49,24.47,23.95,325.0,325.0,355.0,355.0,99.78,99.95,99.94,99.98,-0.10,-0.05,-0.11,0.05,-0.0,-0.1,1.1,1.1,84.5,72.8,72.7,69.4,96.5,74.2,77.3,71.5,92.2,71.8,75.5,69.4,88.7,70.5,75.1,68.6,0.13,-0.14,0.05,0.06,0.00,115.54,115.45,106.88,106.88,176.9,6.4,0.28930952282978867,127.47600564946197,41.771798436972965,7.202033987624077,-3.6010175628356222
1.850,66.1,44.054058744093389,-78.681787793760094,100.7,110.0,-5.1,48.2,8553.1,8553,135.8,0,1,1,0,1,1,0,0,0,100,1,1.186,26.0,0.0,0.345,65.041,66.0,0.0,26.0,26.0,26.0,26.0,-0.08,0.14,0.26,376.5,-2.72,-2.77,-0.91,-3.01,-720.76,627.22,5.5,0.00,0.00,0.00,0.00,0.04,-7.49,-7.49,-0.11,2.81,-0.10,-7.27,37.72,-0.04,-0.40,1.97,100.0,0,0,107.62,0,0,0.0,0,0,0,0,7215,0,30.00,3,135.8,0,0,0.0,0.0,0.0,0.0,0,0,1.874,1.874,65.041,23.378,0,110.00,435.8,8750,0.0,0.0,110.0,110.0,433.0,0.00,0,0,1,333.3,63.4,63.4,62.7,62.7,34.0,-35.40,24.29,-16.4,8.6,5,-339.140,3.2,100.0,25.2,26.2,39.2,38.2,0,1,41.7,0.00,0.00,0.00,0.00,5215,5587,4559,1992,312.0,309.9,342.9,348.7,25.36,23.49,24.47,23.95,325.0,325.0,355.0,355.0,99.78,99.95,99.94,99.98,-0.17,-0.03,-0.13,-0.07,-0.1,-0.1,1.1,1.3,84.5,72.8,72.7,69.4,96.4,74.1,77.3,71.5,92.2,71.7,75.4,69.4,88.6,70.5,75.0,68.6,0.20,-0.17,0.06,0.05,0.00,115.89,115.88,107.62,107.62,176.9,6.4,0.3059411708155671,127.83610734884317,41.771798436972965,7.202034272135904,3.6010175628356222
1.900,68.0,44.054042286508000,-78.681782397830460,130.0,47.5,10.4,-49.7,8555.0,8555,136.2,0,1,1,0,1,1,0,0,0,100,1,1.186,26.0,0.0,0.354,65.041,66.0,0.0,26.0,26.0,26.0,26.0,-0.21,0.21,0.58,370.7,-2.51,-3.31,-1.38,-1.98,-720.16,625.39,5.5,0.00,0.00,0.00,0.00,0.04,-7.49,-7.49,0.27,10.14,-0.26,-0.99,37.83,-0.06,-0.31,3.04,100.0,0,0,107.58,0,0,0.0,0,0,0,0,7212,0,30.00,3,136.2,1,0,0.0,0.0,0.0,0.0,0,0,1.926,1.926,65.041,23.378,1,110.00,435.8,8750,0.0,0.0,110.0,110.0,433.0,0.00,0,0,1,333.3,57.5,57.5,59.8,59.8,34.0,-54.02,17.44,-53.4,15.0,5,-339.190,4.3,100.0,31.7,28.6,39.7,35.7,0,1,41.7,0.00,0.00,0.00,0.00,6522,5005,7185,5164,308.1,311.1,336.5,340.6,25.36,23.49,24.48,23.95,325.0,325.0,355.0,355.0,99.78,99.95,99.94,99.98,-0.26,-0.15,-0.28,-0.10,-0.1,-0.0,0.8,1.1,84.5,72.8,72.7,69.4,96.4,74.1,77.3,71.5,92.1,71.7,75.4,69.4,88.6,70.4,75.0,68.6,0.26,-0.23,0.07,0.05,0.00,116.74,116.36,107.58,107.58,176.9,6.4,0.6516133823057964,128.19620907667556,42.13190019325653,7.202034272135904,5.690236548616667e-07
1.950,69.9,44.054026728244217,-78.681777271697300,-16.8,-63.4,143.2,210.0,8556.9,8557,136.6,0,1,1,0,1,1,0,0,0,100,1,1.186,26.0,0.0,0.363,65.041,66.0,0.0,26.0,26.0,26.0,26.0,-0.25,0.22,0.52,369.8,-4.90,-3.42,-1.81,-2.67,-719.59,623.66,5.5,0.00,0.00,0.00,0.00,0.04,-7.49,-7.49,0.72,7.54,-0.15,2.98,37.94,-0.04,-0.23,3.05,100.0,0,0,107.80,0,0,0.0,0,0,0,0,7227,0,30.00,3,136.6,0,0,0.0,0.0,0.0,0.0,0,0,1.974,1.974,65.041,23.378,0,110.00,435.8,8750,0.0,0.0,110.0,110.0,433.0,0.00,0,0,1,333.3,65.2,65.2,53.6,53.6,34.0,-45.00,5.90,-58.2,23.1,5,-339.240,5.1,100.0,30.9,25.4,46.9,46.2,0,1,41.7,0.00,0.00,0.00,0.00,4271,3415,6888,6213,314.3,315.6,336.7,338.2,25.36,23.49,24.48,23.95,325.0,325.0,355.0,355.0,99.78,99.95,99.94,99.98,-0.30,-0.27,-0.27,-0.16,-0.0,-0.0,0.8,1.0,84.5,72.8,72.7,69.4,96.3,74.1,77.3,71.5,92.1,71.7,75.4,69.4,88.5,70.4,75.0,68.6,0.30,-0.30,0.04,0.03,0.00,116.74,116.57,107.80,107.80,176.9,6.4,0.6174949392505172,128.55631077605676,41.77179849387533,46.8132223421145,3.6010169938118963
2.000,71.8,44.054010180726671,-78.681771965699824,-285.9,-202.0,66.7,-10.8,8558.8,8559,137.0,0,1,1,0,1,1,0,0,0,100,1,1.186,26.0,0.0,0.372,65.041,66.0,0.0,26.0,26.0,26.0,26.0,-0.13,0.24,-0.07,379.6,-2.51,-2.35,-1.41,-2.90,-719.00,621.82,5.6,0.00,0.00,0.00,0.00,0.04,-7.49,-7.49,0.83,-3.14,-0.11,1.21,38.06,-0.04,-0.21,2.48,100.0,0,0,107.99,0,0,0.0,0,0,0,0,7239,0,30.00,3,137.0,1,0,0.0,0.0,0.0,0.0,0,0,2.024,2.024,65.041,23.378,1,110.00,435.8,8750,0.0,0.0,110.0,110.0,433.0,0.00,0,0,1,333.3,84.4,84.4,50.0,50.0,34.0,-11.71,-1.13,-43.5,24.3,5,-339.290,6.0,100.0,16.6,15.3,50.2,45.6,0,1,41.3,0.00,0.00,0.00,0.00,1802,888,7085,5127,320.3,322.3,336.6,341.3,25.36,23.49,24.48,23.95,325.0,325.0,355.0,355.0,99.78,99.95,99.94,99.98,-0.31,-0.41,-0.19,-0.10,-0.0,-0.0,1.0,1.1,84.5,72.8,72.8,69.4,96.3,74.0,77.3,71.5,92.0,71.6,75.4,69.4,88.5,70.4,75.0,68.6,0.35,-0.35,0.03,0.04,0.00,116.76,116.41,107.99,107.99,176.9,6.4,0.28178005607210743,132.877531310887,42.49200189263772,10.803051550459486,-3.601017562835551
2.050,73.7,44.053993543276960,-78.681766659702348,-98.4,-109.7,-285.6,-93.8,8560.7,8561,137.4,0,1,1,0,1,1,0,0,0,100,1,1.186,26.0,0.0,0.378,65.041,66.0,0.0,26.0,26.0,26.0,26.0,-0.10,0.21,-0.44,390.3,-2.10,-2.23,-1.23,-1.19,-718.41,619.97,5.6,0.00,0.00,0.00,0.00,0.04,-7.49,-7.49,0.38,-11.79,0.01,-1.39,38.16,-0.05,-0.37,2.25,100.0,0,0,108.67,0,0,0.0,0,0,0,0,7285,0,30.00,3,137.4,0,0,0.0,0.0,0.0,0.0,0,0,2.076,2.076,65.041,23.378,0,110.00,435.8,8750,0.0,0.0,110.0,110.0,433.0,0.00,0,0,1,333.3,88.2,88.2,75.0,75.0,34.0,-12.37,-2.67,-10.8,3.0,5,-339.340,7.8,100.0,11.7,9.8,36.0,41.0,0,1,41.3,0.00,0.00,0.00,0.00,1773,1699,2811,3500,320.6,320.4,347.8,345.0,25.37,23.49,24.48,23.95,325.0,325.0,355.0,355.0,99.78,99.95,99.94,99.98,-0.44,-0.41,-0.16,-0.11,-0.0,-0.1,1.4,1.7,84.5,72.8,72.8,69.4,96.2,74.0,77.2,71.5,91.9,71.6,75.4,69.3,88.4,70.3,75.0,68.6,0.45,-0.46,0.07,0.05,0.00,116.71,116.53,108.67,108.67,176.9,6.4,0.4976946855251721,129.6366159311027,41.411696737591775,-28.80813680403122,-14.404068544271453
2.100,75.6,44.053977805148854,-78.681761623501359,63.3,142.2,-185.7,-408.0,8562.6,8563,137.6,0,1,1,0,1,1,0,0,0,100,1,1.186,26.0,0.0,0.387,65.041,66.0,0.0,26.0,26.0,26.0,26.0,-0.18,0.15,-0.35,394.0,-1.52,-2.40,-1.72,-1.38,-717.85,618.22,5.6,0.00,0.00,0.00,0.00,0.05,-7.49,-7.49,-0.11,-6.73,-0.16,-3.87,38.23,-0.06,-0.51,4.37,100.0,0,0,109.97,0,0,0.0,0,0,0,0,7372,0,30.00,3,137.6,1,0,0.0,0.0,0.0,0.0,0,0,2.124,2.124,65.041,23.378,1,110.00,435.8,8750,0.0,0.0,110.0,110.0,433.0,0.00,0,0,1,333.3,77.6,77.6,81.7,81.7,34.0,-28.59,-4.70,-10.7,0.7,5,-339.390,10.0,100.0,14.8,16.9,26.7,20.6,0,1,41.3,0.00,0.00,0.00,0.00,3464,3952,2268,1462,316.3,314.3,349.0,351.4,25.37,23.48,24.48,23.95,325.0,325.0,355.0,355.0,99.78,99.95,99.94,99.98,-0.51,-0.37,-0.26,-0.14,-0.1,-0.1,2.3,2.5,84.5,72.8,72.8,69.4,96.1,73.9,77.2,71.4,91.9,71.6,75.3,69.3,88.3,70.3,74.9,68.5,0.57,-0.56,0.09,0.09,0.00,117.26,116.99,109.97,109.97,176.9,6.4,0.42118879377305374,129.9967176304839,41.05159503821057,50.414239335926254,3.6010169938118963
2.150,77.5,44.053961077766985,-78.681756407436040,320.8,165.4,-45.4,-52.2,8564.6,8565,138.0,0,1,1,0,1,1,0,0,0,100,1,1.186,26.0,0.0,0.393,65.041,66.0,0.0,26.0,26.0,26.0,26.0,-0.46,0.28,0.19,383.1,-2.34,-0.31,-0.82,-0.93,-717.27,616.36,5.7,0.00,0.00,0.00,0.00,0.05,-7.49,-7.49,-0.11,6.16,-0.34,-2.20,38.34,-0.11,-0.49,8.31,100.0,0,0,109.71,0,0,0.0,0,0,0,0,7355,0,30.00,3,138.0,0,0,0.0,0.0,0.0,0.0,0,0,2.174,2.174,65.041,23.378,0,110.00,435.8,8750,0.0,0.0,110.0,110.0,433.0,0.00,0,0,1,333.3,59.1,59.1,83.9,83.9,34.0,-72.88,-30.63,-28.0,-5.3,5,-339.440,11.0,100.0,30.9,25.2,24.4,17.9,0,1,41.3,0.00,0.00,0.00,0.00,6348,5916,3853,3724,309.1,309.6,345.1,345.1,25.37,23.48,24.48,23.95,325.0,325.0,355.0,355.0,99.78,99.95,99.94,99.98,-0.58,-0.41,-0.52,-0.28,-0.0,-0.1,1.5,2.2,84.6,72.8,72.8,69.4,96.1,73.9,77.2,71.4,91.8,71.5,75.3,69.3,88.3,70.2,74.9,68.5,0.64,-0.63,0.09,0.10,0.00,118.26,117.47,109.71,109.71,176.9,6.4,0.5710516614107695,134.67803986469534,41.771798436972965,10.803051265947943,-7.202034556647519
2.200,79.4,44.053944170520793,-78.681751191370736,6.6,-20.9,239.7,232.8,8566.5,8566,138.4,0,1,1,0,1,1,0,0,0,100,1,1.186,26.0,0.0,0.402,65.041,66.0,0.0,26.0,26.0,26.0,26.0,-0.48,0.28,0.24,376.3,-1.93,-3.81,-1.51,-2.08,-716.69,614.48,5.7,0.00,0.00,0.00,0.00,0.05,-7.49,-7.49,0.37,10.12,-0.51,-2.15,38.46,-0.19,-0.27,8.32,100.0,0,0,109.34,0,0,0.0,0,0,0,0,7330,0,30.00,3,138.4,1,0,0.0,0.0,0.0,0.0,0,0,2.226,2.226,65.041,23.378,1,110.00,435.8,8750,0.0,0.0,110.0,110.0,433.0,0.00,0,0,1,333.3,65.4,65.4,68.3,68.3,34.0,-66.86,-2.69,-97.3,-9.3,5,-339.490,10.4,100.0,31.2,24.1,36.4,29.6,0,1,41.7,0.00,0.00,0.00,0.00,6149,2079,7670,6101,310.2,319.6,336.2,338.4,25.37,23.48,24.48,23.95,325.0,325.0,355.0,355.0,99.78,99.95,99.94,99.98,-0.60,-0.57,-0.68,-0.44,-0.0,-0.0,0.8,1.4,84.6,72.8,72.8,69.4,96.0,73.9,77.1,71.4,91.8,71.5,75.3,69.3,88.3,70.2,74.9,68.5,0.61,-0.61,0.07,0.06,0.00,118.70,117.87,109.34,109.34,176.9,6.4,0.6053098380168622,131.07702275707868,40.33139158254582,-32.4091540823548,-25.207119525707284
2.250,81.4,44.053928342460530,-78.681746335034063,-107.5,-174.3,261.6,261.2,8568.4,8568,138.8,0,1,1,0,1,1,0,0,0,100,1,1.186,26.0,0.0,0.408,65.041,66.0,0.0,26.0,26.0,26.0,26.0,-0.42,0.20,-0.03,377.3,-1.87,-2.42,-1.34,-1.75,-716.15,612.72,5.7,0.00,0.00,0.00,0.00,0.05,-7.49,-7.49,0.70,2.87,-0.33,6.60,38.55,-0.18,-0.19,6.21,100.0,0,0,109.67,0,0,0.0,0,0,0,0,7352,0,30.00,3,138.8,0,0,0.0,0.0,0.0,0.0,0,0,2.274,2.274,65.041,23.378,0,110.00,435.8,8750,0.0,0.0,110.0,110.0,433.0,0.00,0,0,1,333.3,76.7,76.7,59.8,59.8,34.0,-32.10,-3.86,-61.3,-17.3,5,-339.540,7.8,100.0,25.8,15.4,49.5,42.6,0,1,41.7,0.00,0.00,0.00,0.00,3398,1317,5683,5537,316.1,321.6,340.1,340.4,25.38,23.48,24.49,23.95,325.0,325.0,355.0,355.0,99.78,99.95,99.94,99.98,-0.57,-0.61,-0.59,-0.52,-0.0,-0.0,0.8,1.3,84.6,72.8,72.8,69.4,96.0,73.8,77.1,71.4,91.7,71.5,75.3,69.3,88.2,70.2,74.9,68.5,0.47,-0.48,0.04,0.04,0.00,118.58,117.99,109.67,109.67,176.9,6.4,0.46615448083226657,131.43712445645986,39.25108648440224,54.015256614249836,-3.6010164247883125
2.300,83.3,44.053911345282181,-78.681741388765232,-288.8,-134.2,-23.4,-0.5,8570.3,8570,139.2,0,1,1,0,1,1,0,0,0,100,1,1.186,26.0,0.0,0.426,65.041,66.0,0.0,26.0,26.0,26.0,26.0,-0.24,0.22,-0.22,385.9,-1.75,-1.79,-1.18,-1.80,-715.60,610.83,5.7,0.00,0.00,0.00,0.00,0.05,-7.49,-7.49,0.52,-9.30,0.10,8.34,38.67,-0.16,-0.24,2.76,100.0,0,0,109.70,0,0,0.0,0,0,0,0,7354,0,30.00,3,139.2,1,0,0.0,0.0,0.0,0.0,0,0,2.324,2.324,65.041,23.378,1,110.00,435.8,8750,0.0,0.0,110.0,110.0,433.0,0.00,0,0,1,333.3,90.8,90.8,57.0,57.0,34.0,-3.35,-6.34,-35.2,-7.5,5,-339.590,5.4,100.0,11.4,8.7,48.3,42.6,0,1,41.3,0.00,0.00,0.00,0.00,618,1957,4098,4448,323.3,320.1,343.1,342.9,25.38,23.48,24.49,23.95,325.0,325.0,355.0,355.0,99.78,99.95,99.94,99.98,-0.47,-0.53,-0.47,-0.41,0.0,-0.0,1.0,1.2,84.6,72.8,72.8,69.5,95.9,73.8,77.1,71.4,91.7,71.4,75.3,69.3,88.2,70.1,74.9,68.5,0.33,-0.33,0.04,0.03,0.00,118.32,118.17,109.70,109.70,176.9,6.4,0.39293765408777,136.47854841850366,39.97128994006699,14.404068544271524,-3.6010169938119674
2.350,85.2,44.053894258171667,-78.681736352564229,8.3,105.2,-312.1,-297.8,8572.3,8572,139.5,0,1,1,0,1,1,0,0,0,100,1,1.186,26.0,0.0,0.429,65.041,66.0,0.0,26.0,26.0,26.0,26.0,-0.18,0.20,-0.36,392.2,-2.42,-1.74,-0.50,-1.53,-715.04,608.93,5.8,0.00,0.00,0.00,0.00,0.05,-7.49,-7.49,-0.07,-9.86,0.17,-1.51,38.76,-0.14,-0.44,3.02,100.0,0,0,110.83,0,0,0.0,0,0,0,0,7429,0,30.00,3,139.5,0,0,0.0,0.0,0.0,0.0,1,0,2.376,2.376,65.041,23.378,0,110.00,435.8,8750,0.0,0.0,110.0,110.0,433.0,0.00,0,0,1,333.3,82.9,82.9,72.5,72.5,34.0,-16.23,-4.64,-14.0,-0.4,5,-339.640,4.5,100.0,11.8,14.0,32.7,27.7,0,1,41.3,0.00,0.00,0.00,0.00,2133,3847,3088,1974,319.5,315.0,346.6,350.0,25.38,23.48,24.49,23.95,325.0,325.0,355.0,355.0,99.78,99.95,99.94,99.98,-0.42,-0.30,-0.35,-0.26,-0.0,-0.1,1.8,1.9,84.6,72.8,72.8,69.4,95.8,73.7,77.1,71.3,91.6,71.4,75.2,69.2,88.1,70.1,74.8,68.5,0.28,-0.27,0.06,0.07,0.00,118.71,118.44,110.83,110.83,176.9,6.4,0.44944410108488464,132.877531310887,38.89098478502104,7.202034272135904,-7.202034556647519
2.400,87.2,44.053878160314923,-78.681731676091886,106.6,121.8,-236.8,-124.7,8574.2,8574,139.8,0,1,1,0,1,1,0,0,0,100,1,1.186,26.0,0.0,0.438,65.041,66.0,0.0,26.0,26.0,26.0,26.0,-0.16,0.23,-0.21,391.6,-1.29,-2.16,-0.91,-1.33,-714.52,607.14,5.8,0.00,0.00,0.00,0.00,0.05,-7.49,-7.49,-0.32,-1.61,-0.14,-10.81,38.84,-0.17,-0.48,3.68,100.0,0,0,111.37,0,0,0.0,0,0,0,0,7466,0,30.00,3,139.8,1,0,0.0,0.0,0.0,0.0,1,0,2.424,2.424,65.041,23.378,1,110.00,435.8,8750,0.0,0.0,110.0,110.0,433.0,0.00,0,0,1,333.3,73.9,73.9,83.6,83.6,34.0,-22.16,2.60,-17.3,1.1,5,-339.690,4.0,100.0,17.1,20.1,20.8,21.5,0,1,40.9,0.00,0.00,0.00,0.00,3842,4164,3191,2425,315.3,313.6,346.2,348.9,25.38,23.48,24.49,23.95,325.0,325.0,355.0,355.0,99.78,99.95,99.94,99.98,-0.29,-0.21,-0.38,-0.16,-0.1,-0.1,2.1,2.3,84.6,72.8,72.8,69.4,95.8,73.7,77.1,71.3,91.5,71.3,75.2,69.2,88.0,70.1,74.8,68.4,0.24,-0.24,0.10,0.10,0.00,119.27,119.03,111.37,111.37,176.9,6.4,0.3501428280002319,137.19875184571725,39.25108648440224,46.81322262662604,0.0
2.450,89.1,44.053859994018481,-78.681726549958725,148.3,6.1,189.4,12.5,8576.2,8576,140.3,0,1,1,0,1,1,0,0,0,100,1,1.186,26.0,0.0,0.447,65.041,66.0,0.0,26.0,26.0,26.0,26.0,-0.27,0.26,-0.08,385.7,-2.23,-3.02,-0.94,-1.72,-713.95,605.12,5.8,0.00,0.00,0.00,0.00,0.05,-7.49,-7.49,-0.21,3.52,-0.50,-3.14,38.97,-0.18,-0.39,4.14,100.0,0,0,110.87,0,0,0.0,0,0,0,0,7432,0,30.00,3,140.3,0,0,0.0,0.0,0.0,0.0,1,0,2.478,2.478,65.041,23.378,0,110.00,435.8,8750,0.0,0.0,110.0,110.0,433.0,0.00,0,0,1,166.7,73.0,73.0,75.8,75.8,34.0,-34.95,0.56,-50.2,-0.3,5,-339.740,3.6,100.0,24.5,20.4,30.3,22.1,0,1,39.7,0.00,0.00,0.00,0.00,4479,1314,5748,4035,313.9,320.5,340.1,344.6,25.39,23.48,24.49,23.95,325.0,325.0,355.0,355.0,99.78,99.95,99.94,99.98,-0.33,-0.31,-0.51,-0.27,-0.1,-0.0,1.1,1.4,84.7,72.7,72.8,69.4,95.7,73.7,77.0,71.3,91.5,71.3,75.2,69.2,88.0,70.0,74.8,68.4,0.21,-0.22,0.08,0.09,0.00,119.89,119.45,110.87,110.87,176.9,6.4,0.383275357934736,137.5588535735496,38.89098478502104,-32.40915408235509,-14.404068544271453
2.500,91.1,44.053843806229573,-78.681721963418539,-153.6,-121.7,206.3,164.3,8578.1,8578,140.6,0,1,1,0,1,1,0,0,0,100,1,1.186,26.0,0.0,0.450,65.041,66.0,0.0,26.0,26.0,26.0,26.0,-0.26,0.12,0.06,384.9,-2.06,-4.03,-1.45,-1.98,-713.44,603.32,5.8,0.00,0.00,0.00,0.00,0.05,-7.49,-7.49,-0.16,-2.39,-0.46,2.24,39.06,-0.17,-0.32,2.71,100.0,0,0,110.50,0,0,0.0,0,0,0,0,7407,0,30.00,3,140.6,1,0,0.0,0.0,0.0,0.0,1,0,2.526,2.526,65.041,23.378,1,110.00,435.8,8750,0.0,0.0,110.0,110.0,433.0,0.00,0,0,1,166.7,80.3,80.3,65.4,65.4,34.0,-25.93,4.56,-41.6,0.8,5,-339.790,3.7,100.0,16.9,14.3,40.6,30.3,0,1,27.4,0.00,0.00,0.00,0.00,3288,3042,4488,4238,316.5,317.7,342.7,343.5,25.39,23.48,24.49,23.95,325.0,325.0,355.0,355.0,99.78,99.95,99.94,99.98,-0.40,-0.35,-0.47,-0.29,-0.1,-0.0,0.7,0.9,84.7,72.7,72.8,69.4,95.6,73.6,77.0,71.3,91.4,71.3,75.2,69.2,87.9,70.0,74.8,68.4,0.21,-0.22,0.06,0.07,0.00,119.88,119.61,110.50,110.50,176.9,6.4,0.2925747767665559,133.95783643748175,37.81067962997509,-32.4091540823548,-14.404068544271453
2.550,93.0,44.053826539254743,-78.681717107081866,64.8,91.1,-76.8,-41.4,8580.1,8580,140.7,0,1,1,0,1,1,0,0,0,100,1,1.186,26.0,0.0,0.459,65.041,66.0,0.0,26.0,26.0,26.0,26.0,-0.23,-0.01,-0.13,385.7,-2.52,-2.53,-0.92,-1.86,-712.90,601.40,5.8,0.00,0.00,0.00,0.00,0.06,-7.49,-7.49,-0.29,-1.20,-0.45,1.10,39.08,-0.14,-0.38,2.98,100.0,0,0,109.81,0,0,0.0,0,0,0,0,7361,0,30.00,3,140.7,0,0,0.0,0.0,0.0,0.0,1,0,2.577,2.577,65.041,23.378,0,110.00,435.8,8750,0.0,0.0,110.0,110.0,433.0,0.00,0,0,1,166.7,74.4,74.4,73.0,73.0,34.0,-33.74,-1.20,-15.5,2.1,5,-339.840,4.3,100.0,20.1,18.8,36.8,28.3,0,1,0.0,0.00,0.00,0.00,0.00,3841,3325,2502,3104,315.2,316.1,347.7,347.0,25.39,23.48,24.49,23.95,325.0,325.0,355.0,355.0,99.78,99.95,99.94,99.98,-0.41,-0.32,-0.36,-0.23,-0.0,-0.0,0.1,0.3,84.7,72.7,72.8,69.4,95.6,73.6,77.0,71.2,91.4,71.2,75.1,69.1,87.9,69.9,74.7,68.4,0.26,-0.25,0.07,0.07,0.00,120.04,119.79,109.81,109.81,176.9,6.4,0.2643860813280457,134.31793816531413,37.450577930593894,2.8451211164792767e-07,-10.803050981435689
2.600,95.0,44.053810261533670,-78.681712610473838,39.1,4.6,-85.5,58.1,8582.0,8582,140.4,0,1,1,0,1,1,0,0,0,100,1,1.186,26.0,0.0,0.465,65.041,66.0,0.0,26.0,26.0,26.0,26.0,-0.25,-0.20,0.11,381.4,-2.54,-2.07,-1.29,-1.53,-712.40,599.59,5.8,0.00,0.00,0.00,0.00,0.06,-7.49,-7.49,-0.33,-1.40,-0.49,-1.58,39.00,-0.13,-0.37,3.21,100.0,0,0,109.16,0,0,0.0,0,0,0,0,7317,0,30.00,3,140.4,1,0,0.0,0.0,0.0,0.0,1,0,2.624,2.624,65.041,23.378,1,110.00,435.8,8750,0.0,0.0,110.0,110.0,433.0,0.00,0,0,1,166.7,70.5,70.5,71.2,71.2,34.0,-35.76,-1.83,-41.2,3.1,5,-339.890,4.6,100.0,22.1,19.1,32.5,31.2,0,1,0.0,0.00,0.00,0.00,0.00,4241,4713,5085,4745,313.8,312.4,342.0,342.1,25.39,23.48,24.49,23.95,325.0,325.0,355.0,355.0,99.78,99.95,99.94,99.98,-0.34,-0.27,-0.38,-0.19,-0.0,-0.1,-0.4,-0.2,84.7,72.7,72.8,69.4,95.5,73.6,77.0,71.2,91.3,71.2,75.1,69.1,87.8,69.9,74.7,68.3,0.26,-0.27,0.07,0.07,0.00,119.81,119.54,109.16,109.16,176.9,6.4,0.33852621759621515,133.95783646593296,36.73037453183152,-7.2020345566474475,-10.80305098143576
2.650,96.9,44.053793084490998,-78.681707934001480,-14.8,41.8,59.2,-37.2,8584.0,8584,140.1,0,1,1,0,1,1,0,0,0,100,1,1.186,26.0,0.0,0.477,65.041,66.0,0.0,26.0,26.0,26.0,26.0,-0.23,-0.19,-0.19,383.4,-3.16,-2.50,-1.27,-1.63,-711.88,597.68,5.8,0.00,0.00,0.00,0.00,0.06,-7.49,-7.49,-0.45,-2.47,-0.68,-3.49,38.91,-0.12,-0.43,2.98,100.0,0,0,108.86,0,0,0.0,0,0,0,0,7297,0,30.00,3,140.1,0,0,0.0,0.0,0.0,0.0,1,0,2.676,2.676,65.041,23.378,0,110.00,435.8,8750,0.0,0.0,110.0,110.0,433.0,0.00,0,0,1,333.3,72.9,72.9,67.5,67.5,34.0,-33.28,-0.35,-38.6,3.0,5,-339.940,4.8,100.0,21.3,21.2,35.5,29.3,0,1,0.0,0.00,0.00,0.00,0.00,3805,3457,5045,3029,316.0,315.7,341.9,347.2,25.39,23.48,24.49,23.95,325.0,325.0,355.0,355.0,99.78,99.95,99.94,99.98,-0.36,-0.29,-0.34,-0.17,0.0,0.0,-0.5,-0.3,84.7,72.7,72.8,69.4,95.5,73.5,76.9,71.2,91.3,71.2,75.1,69.1,87.8,69.9,74.7,68.3,0.28,-0.28,0.08,0.09,0.00,119.41,119.17,108.86,108.86,176.9,6.4,0.3536947836765479,133.5977347096494,36.37027283245032,-3.601017278323866,-7.202034556647661
2.700,98.9,44.053776896702097,-78.681703527325610,89.4,5.4,-41.8,14.9,8585.9,8586,139.8,0,1,1,0,1,1,0,0,0,100,1,1.186,26.0,0.0,0.483,65.041,66.0,0.0,26.0,26.0,26.0,26.0,-0.27,-0.21,0.06,380.6,-2.10,-3.40,-1.59,-1.80,-711.39,595.88,5.8,0.00,0.00,0.00,0.00,0.06,-7.49,-7.49,-0.60,-1.87,-0.71,-0.84,38.81,-0.11,-0.51,3.69,100.0,0,0,108.54,0,0,0.0,0,0,0,0,7276,0,30.00,3,139.8,1,0,0.0,0.0,0.0,0.0,1,0,2.724,2.724,65.041,23.378,1,110.00,435.8,8750,0.0,0.0,110.0,110.0,433.0,0.00,0,0,1,333.3,64.8,64.8,76.3,76.3,34.0,-58.39,9.80,-31.4,2.9,5,-339.990,4.7,100.0,25.8,21.4,33.4,30.1,0,1,0.0,0.00,0.00,0.00,0.00,6407,4716,4007,3084,309.2,312.1,345.0,346.7,25.40,23.48,24.50,23.95,325.0,325.0,355.0,355.0,99.78,99.95,99.94,99.98,-0.40,-0.25,-0.37,-0.20,-0.0,-0.0,-0.7,-0.4,84.7,72.7,72.8,69.4,95.4,73.5,76.9,71.1,91.2,71.1,75.0,69.0,87.7,69.8,74.6,68.3,0.28,-0.29,0.08,0.07,0.00,119.32,118.97,108.54,108.54,176.9,6.4,0.34727510708370674,133.59773473810057,36.010171076166756,39.61118863900225,-5.690235838073932e-07
2.750,100.8,44.053759719659418,-78.681698940785424,121.6,70.7,-69.4,-65.5,8587.8,8588,139.4,0,1,1,0,1,1,0,0,0,100,1,1.186,26.0,0.0,0.492,65.041,66.0,0.0,26.0,26.0,26.0,26.0,-0.34,-0.27,0.04,379.1,-2.14,-2.55,-1.90,-1.35,-710.88,593.97,5.8,0.00,0.00,0.00,0.00,0.06,-7.49,-7.49,-0.45,6.21,-0.66,2.46,38.71,-0.12,-0.46,4.35,100.0,0,0,108.55,0,0,0.0,0,0,0,0,7277,0,30.00,3,139.4,0,0,0.0,0.0,0.0,0.0,1,0,2.774,2.774,65.041,23.378,0,110.00,435.8,8750,0.0,0.0,110.0,110.0,433.0,0.00,0,0,1,333.3,60.2,60.2,78.8,78.8,34.0,-55.15,3.85,-44.0,-2.8,5,-340.040,4.5,100.0,31.9,25.0,29.9,26.8,0,1,0.0,0.00,0.00,0.00,0.00,6182,5079,4527,3915,309.5,312.3,343.6,345.2,25.40,23.48,24.50,23.95,325.0,325.0,355.0,355.0,99.78,99.95,99.94,99.98,-0.38,-0.24,-0.46,-0.26,-0.1,-0.0,-0.7,-0.4,84.7,72.7,72.8,69.4,95.4,73.5,76.9,71.1,91.2,71.1,75.0,69.0,87.7,69.8,74.6,68.2,0.28,-0.26,0.08,0.08,0.00,119.21,118.84,108.55,108.55,176.9,6.4,0.4360045871318328,137.5588535735496,36.37027277554796,-3.601017278323866,-14.404068544271382
