,Time,Distance,GPS Latitude,GPS Longitude,Damper Velocity (Calc) FL,Damper Velocity (Calc) FR,Damper Velocity (Calc) RL,Damper Velocity (Calc) RR,Corr Dist,Corr Dist (Unstretched),Corr Speed,ABS Active,ABS Enabled,AID Allow Tire Blankets,AID Auto Blip,AID Auto Clutch,AID Auto Shift,AID Fuel Rate,AID Ideal Line,AID Mech Damage,AID Stability,AID Tire Wear Rate,Air Density,Air Temp,Ballast,Best Lap Delta,Best Lap Time,Brake Bias,Brake Pos,Brake Temp FL,Brake Temp FR,Brake Temp RL,Brake Temp RR,CG Accel Lateral,CG Accel Longitudinal,CG Accel Vertical,CG Height,Camber FL,Camber FR,Camber RL,Camber RR,Car Coord X,Car Coord Y,Car Coord Z,Car Damage Front,Car Damage Left,Car Damage Rear,Car Damage Right,Car Pos Norm,Caster FL,Caster FR,Chassis Pitch Angle,Chassis Pitch Rate,Chassis Roll Angle,Chassis Roll Rate,Chassis Velocity X,Chassis Velocity Y,Chassis Velocity Z,Chassis Yaw Rate,Clutch Pos,DRS Active,DRS Available,Drive Train Speed,ERS Heat Charging,ERS Is Charging,ERS Max Energy,ERS Power Level,ERS Recovery Level,Engine Brake Setting,Engine Limiter,Engine RPM,Flags,Fuel Level,Gear,Ground Speed,HR Sample Clock,In Pit,KERS Charge,KERS Deployed Energy,KERS Input,KERS Max Energy,LR Sample Clock,Lap Invalidated,Lap Time,Lap Time2,Last Lap Time,Last Sector Time,MR Sample Clock,Max Fuel,Max Power,Max RPM,Max Sus Travel FL,Max Sus Travel FR,Max Sus Travel RL,Max Sus Travel RR,Max Torque,Max Turbo Boost,Num Tires Off Track,Penalties Enabled,Position,Raw Data Sample Rate,Ride Height FL,Ride Height FR,Ride Height RL,Ride Height RR,Road Temp,Self Align Torque FL,Self Align Torque FR,Self Align Torque RL,Self Align Torque RR,Session Lap Count,Session Time Left,Steering Angle,Surface Grip,Suspension Travel FL,Suspension Travel FR,Suspension Travel RL,Suspension Travel RR,TC Active,TC Enabled,Throttle Pos,Tire Dirt Level FL,Tire Dirt Level FR,Tire Dirt Level RL,Tire Dirt Level RR,Tire Load FL,Tire Load FR,Tire Load RL,Tire Load RR,Tire Loaded Radius FL,Tire Loaded Radius FR,Tire Loaded Radius RL,Tire Loaded Radius RR,Tire Pressure FL,Tire Pressure FR,Tire Pressure RL,Tire Pressure RR,Tire Radius FL,Tire Radius FR,Tire Radius RL,Tire Radius RR,Tire Rubber Grip FL,Tire Rubber Grip FR,Tire Rubber Grip RL,Tire Rubber Grip RR,Tire Slip Angle FL,Tire Slip Angle FR,Tire Slip Angle RL,Tire Slip Angle RR,Tire Slip Ratio FL,Tire Slip Ratio FR,Tire Slip Ratio RL,Tire Slip Ratio RR,Tire Temp Core FL,Tire Temp Core FR,Tire Temp Core RL,Tire Temp Core RR,Tire Temp Inner FL,Tire Temp Inner FR,Tire Temp Inner RL,Tire Temp Inner RR,Tire Temp Middle FL,Tire Temp Middle FR,Tire Temp Middle RL,Tire Temp Middle RR,Tire Temp Outer FL,Tire Temp Outer FR,Tire Temp Outer RL,Tire Temp Outer RR,Toe In FL,Toe In FR,Toe In RL,Toe In RR,Turbo Boost,Wheel Angular Speed FL,Wheel Angular Speed FR,Wheel Angular Speed RL,Wheel Angular Speed RR,Wind Direction,Wind Speed,CG Distance,Lateral Velocity,Longitudinal Velocity,Lateral Acceleration,Longitudinal Acceleration,level
1321,66.0,1212.7,44.05425461633916,-78.68331906865849,22.0,-0.7,-12.2,-48.0,2783.9,2784.0,146.3,0.0,1.0,1.0,0.0,1.0,1.0,0.0,0.0,0.0,100.0,1.0,1.186,26.0,0.0,8.604,74.678,66.0,100.0,26.0,26.0,26.0,26.0,0.04,-1.84,-0.06,383.7,-2.8,-2.65,-1.38,-1.31,-891.03,649.0,5.5,0.0,0.0,0.0,0.0,0.68,-7.49,-7.49,-1.17,-0.53,-0.38,-0.71,40.59,0.19,-0.88,3.92,100.0,0.0,0.0,109.41,0.0,0.0,0.0,0.0,0.0,0.0,0.0,5836.0,0.0,30.0,4.0,146.3,0.0,0.0,0.0,0.0,0.0,0.0,1.0,0.0,66.03,66.03,74.679,27.738,0.0,110.0,435.8,8750.0,0.0,0.0,110.0,110.0,433.0,0.0,0.0,0.0,1.0,333.3,58.3,58.3,88.3,88.3,34.0,-7.47,5.93,-2.7,7.8,1.0,-143.29,8.0,100.0,28.4,29.2,21.4,22.8,0.0,1.0,0.0,0.0,0.0,0.0,0.0,5669.0,5634.0,2377.0,2452.0,309.5,309.3,349.2,349.0,22.89,22.28,26.78,26.35,325.0,325.0,355.0,355.0,99.81,99.75,99.95,99.9,-0.12,0.0,0.04,0.26,-7.0,-6.7,-4.2,-4.0,69.0,65.3,87.1,84.5,68.0,65.9,87.1,86.3,65.4,63.6,85.0,84.1,63.7,62.4,83.6,82.7,0.47,-0.47,0.1,0.08,0.0,116.04,115.93,109.41,109.41,356.7,7.7,1.8414125013152267,70.94003705418993,120.99417486144219,-10.803051265947516,-14.40406911329518,0
1322,66.05,1214.7,44.0542638793517,-78.68333498665092,2.3,-8.1,-3.0,-24.8,2785.9,2786.0,143.0,0.0,1.0,1.0,0.0,1.0,1.0,0.0,0.0,0.0,100.0,1.0,1.186,26.0,0.0,8.61,74.678,66.0,100.0,26.0,26.0,26.0,26.0,-0.07,-1.81,-0.12,384.4,-2.74,-2.69,-1.34,-1.36,-892.8,650.03,5.5,0.0,0.0,0.0,0.0,0.68,-7.49,-7.49,-1.17,0.19,-0.42,-0.63,39.66,0.05,-0.84,4.41,100.0,0.0,0.0,107.12,0.0,0.0,0.0,0.0,0.0,0.0,0.0,5714.0,0.0,30.0,4.0,143.0,1.0,0.0,0.0,0.0,0.0,0.0,1.0,0.0,66.081,66.081,74.679,27.738,1.0,110.0,435.8,8750.0,0.0,0.0,110.0,110.0,433.0,0.0,0.0,0.0,1.0,333.3,59.4,59.4,88.5,88.5,34.0,-8.64,0.56,-7.1,4.8,1.0,-143.34,7.8,100.0,28.5,28.8,21.3,21.6,0.0,1.0,0.0,0.0,0.0,0.0,0.0,5504.0,5126.0,2599.0,2478.0,310.0,310.6,348.7,348.9,22.89,22.28,26.77,26.35,325.0,325.0,355.0,355.0,99.81,99.75,99.95,99.9,-0.28,-0.18,-0.2,0.06,-7.3,-8.9,-4.1,-3.8,69.0,65.3,87.1,84.4,68.1,66.1,87.1,86.3,65.5,63.7,85.0,84.0,63.8,62.5,83.6,82.7,0.46,-0.45,0.11,0.1,0.0,113.06,110.39,107.11,107.11,356.7,7.7,1.8153236626012454,73.82085073459304,125.67549706720243,-7.20203455664759,-21.606103100918972,0
1323,66.1,1216.6,44.05427305243208,-78.68335045498253,-2.3,-13.1,9.8,-8.4,2787.9,2788.0,139.8,0.0,1.0,1.0,0.0,1.0,1.0,0.0,0.0,0.0,100.0,1.0,1.186,26.0,0.0,8.622,74.678,66.0,100.0,26.0,26.0,26.0,26.0,-0.11,-1.79,-0.02,384.5,-2.7,-2.73,-1.33,-1.39,-894.52,651.05,5.5,0.0,0.0,0.0,0.0,0.68,-7.49,-7.49,-1.16,-0.05,-0.45,-0.28,38.76,-0.06,-0.81,4.27,100.0,0.0,0.0,104.88,0.0,0.0,0.0,0.0,0.0,0.0,0.0,5594.0,0.0,30.0,4.0,139.8,0.0,0.0,0.0,0.0,0.0,0.0,0.0,0.0,66.131,66.131,74.679,27.738,0.0,110.0,435.8,8750.0,0.0,0.0,110.0,110.0,433.0,0.0,0.0,0.0,1.0,333.3,59.8,59.8,88.3,88.3,34.0,-8.07,0.54,-10.7,1.9,1.0,-143.39,6.7,100.0,28.4,28.1,21.8,21.2,0.0,1.0,0.0,0.0,0.0,0.0,0.0,5599.0,5037.0,2735.0,2419.0,309.7,310.9,348.4,349.1,22.89,22.28,26.77,26.35,325.0,325.0,355.0,355.0,99.81,99.75,99.95,99.9,-0.4,-0.28,-0.33,-0.11,-7.7,-6.8,-3.8,-3.7,69.0,65.3,87.1,84.4,68.2,66.2,87.1,86.2,65.6,63.8,85.0,84.0,63.9,62.6,83.5,82.7,0.42,-0.41,0.09,0.09,0.0,110.01,110.14,105.0,104.76,356.7,7.7,1.7934882213162147,70.21983359852517,118.83356455135029,-32.409154082354945,-61.21729060187377,0
1324,66.15,1218.5,44.05428141612301,-78.6833646642639,0.2,-10.7,7.7,-4.2,2789.8,2790.0,136.7,0.0,1.0,1.0,0.0,1.0,1.0,0.0,0.0,0.0,100.0,1.0,1.186,26.0,0.0,8.631,74.678,66.0,100.0,26.0,26.0,26.0,26.0,-0.15,-1.79,-0.02,384.5,-2.65,-2.75,-1.29,-1.4,-896.1,651.98,5.5,0.0,0.0,0.0,0.0,0.68,-7.49,-7.49,-1.17,-0.29,-0.46,0.08,37.91,-0.12,-0.78,3.58,100.0,0.0,0.0,102.65,0.0,0.0,0.0,0.0,0.0,0.0,0.0,5475.0,0.0,30.0,4.0,136.7,1.0,0.0,0.0,0.0,0.0,0.0,0.0,0.0,66.18,66.18,74.679,27.738,1.0,110.0,435.8,8750.0,0.0,0.0,110.0,110.0,433.0,0.0,0.0,0.0,1.0,333.3,60.0,60.0,88.1,88.1,34.0,-8.27,0.33,-12.8,0.4,1.0,-143.44,3.7,100.0,28.4,27.6,22.2,21.0,0.0,1.0,0.0,0.0,0.0,0.0,0.0,5630.0,5009.0,2785.0,2432.0,309.6,311.1,348.2,349.0,22.89,22.28,26.77,26.35,325.0,325.0,355.0,355.0,99.81,99.75,99.95,99.9,-0.36,-0.24,-0.43,-0.19,-7.6,-8.8,-3.8,-3.7,69.0,65.3,87.1,84.4,68.3,66.3,87.0,86.2,65.7,63.9,84.9,84.0,64.0,62.7,83.5,82.6,0.24,-0.25,0.1,0.09,0.0,107.76,110.29,102.77,102.53,356.7,7.7,1.7963852593472258,70.57993532635754,119.55376800701505,-7.202033987623935,-18.005084969059908,0
1325,66.2,1220.4,44.054290679135555,-78.68338031245985,0.6,-5.9,3.3,-4.0,2791.6,2792.0,133.3,0.0,1.0,1.0,0.0,1.0,1.0,0.0,0.0,0.0,100.0,1.0,1.186,26.0,0.0,8.64,74.678,66.0,100.0,26.0,26.0,26.0,26.0,-0.14,-1.79,-0.02,384.6,-2.63,-2.78,-1.29,-1.42,-897.84,653.01,5.5,0.0,0.0,0.0,0.0,0.68,-7.49,-7.49,-1.18,-0.2,-0.45,0.21,36.96,-0.15,-0.77,2.35,100.0,0.0,0.0,99.97,0.0,0.0,0.0,0.0,0.0,0.0,0.0,5332.0,0.0,30.0,4.0,133.3,0.0,0.0,0.0,0.0,0.0,0.0,0.0,0.0,66.234,66.234,74.679,27.738,0.0,110.0,435.8,8750.0,0.0,0.0,110.0,110.0,433.0,0.0,0.0,0.0,1.0,166.7,60.0,60.0,88.3,88.3,34.0,-9.68,-0.31,-12.5,0.2,1.0,-143.49,0.5,100.0,28.5,27.3,22.3,20.8,0.0,1.0,0.0,0.0,0.0,0.0,0.0,5660.0,5081.0,2669.0,2348.0,309.5,310.8,348.5,349.2,22.89,22.28,26.77,26.35,325.0,325.0,355.0,355.0,99.81,99.75,99.95,99.9,-0.26,-0.16,-0.46,-0.2,-7.0,-11.2,-3.8,-3.7,69.0,65.3,87.1,84.4,68.4,66.5,87.0,86.2,65.8,64.0,84.9,83.9,64.1,62.8,83.5,82.6,0.06,-0.06,0.1,0.09,0.0,105.69,100.25,99.97,99.97,356.7,7.7,1.795577901401106,69.49963019976278,117.0330560544443,-64.81830788019764,-122.43458120374811,0
1326,66.25,1222.2,44.054298773030006,-78.6833938922161,-3.1,-6.4,-3.8,-3.8,2793.4,2793.0,130.2,0.0,1.0,1.0,0.0,1.0,1.0,0.0,0.0,0.0,100.0,1.0,1.186,26.0,0.0,8.652,74.678,66.0,100.0,26.0,26.0,26.0,26.0,-0.1,-1.77,-0.04,385.0,-2.63,-2.79,-1.28,-1.41,-899.35,653.91,5.5,0.0,0.0,0.0,0.0,0.68,-7.49,-7.49,-1.19,-0.08,-0.44,0.55,36.12,-0.15,-0.75,0.95,100.0,0.0,0.0,97.67,0.0,0.0,0.0,0.0,0.0,0.0,0.0,5210.0,0.0,30.0,4.0,130.2,1.0,0.0,0.0,0.0,0.0,0.0,0.0,0.0,66.281,66.281,74.679,27.738,1.0,110.0,435.8,8750.0,0.0,0.0,110.0,110.0,433.0,0.0,0.0,0.0,1.0,333.3,60.7,60.7,88.4,88.4,34.0,-6.66,0.91,-11.3,0.6,1.0,-143.54,-2.4,100.0,28.3,27.0,22.1,20.6,0.0,1.0,0.0,0.0,0.0,0.0,0.0,5447.0,5004.0,2652.0,2392.0,310.1,311.0,348.6,349.1,22.88,22.28,26.77,26.35,325.0,325.0,355.0,355.0,99.82,99.75,99.95,99.9,-0.17,-0.05,-0.41,-0.18,-7.3,-9.1,-3.9,-3.8,69.0,65.3,87.0,84.4,68.5,66.6,87.0,86.1,65.9,64.1,84.9,83.9,64.2,62.9,83.5,82.6,-0.1,0.11,0.1,0.09,0.0,102.77,100.31,97.68,97.68,356.7,7.7,1.773273808524786,64.09810453833778,107.31030988664024,-50.41423933592611,-93.62644525325237,0
1327,66.3,1224.0,44.05430668706014,-78.68340711224371,-4.8,-3.1,-6.6,1.0,2795.2,2795.0,127.2,0.0,1.0,1.0,0.0,1.0,1.0,0.0,0.0,0.0,100.0,1.0,1.186,26.0,0.0,8.661,74.678,66.0,100.0,26.0,26.0,26.0,26.0,-0.02,-1.78,-0.06,385.2,-2.63,-2.77,-1.31,-1.4,-900.82,654.79,5.5,0.0,0.0,0.0,0.0,0.68,-7.49,-7.49,-1.19,-0.15,-0.41,0.91,35.29,-0.12,-0.73,-0.67,100.0,0.0,0.0,95.4,0.0,0.0,0.0,0.0,0.0,0.0,0.0,5089.0,0.0,30.0,4.0,127.2,0.0,0.0,0.0,0.0,0.0,0.0,0.0,0.0,66.33,66.33,74.679,27.738,0.0,110.0,435.8,8750.0,0.0,0.0,110.0,110.0,433.0,0.0,0.0,0.0,1.0,333.3,60.9,60.9,88.6,88.6,34.0,-2.46,5.25,-9.3,2.3,1.0,-143.59,-4.7,100.0,28.1,26.8,21.8,20.6,0.0,1.0,0.0,0.0,0.0,0.0,0.0,5335.0,5118.0,2529.0,2399.0,310.4,310.7,348.9,349.1,22.88,22.28,26.77,26.35,325.0,325.0,355.0,355.0,99.82,99.75,99.95,99.9,-0.05,0.06,-0.32,-0.08,-8.4,-7.2,-3.8,-3.9,69.0,65.3,87.0,84.4,68.6,66.7,86.9,86.1,66.0,64.2,84.9,83.8,64.3,63.0,83.4,82.5,-0.23,0.24,0.1,0.08,0.0,99.13,100.04,95.4,95.4,356.7,7.7,1.7811232411037705,64.45820626617017,107.67041152911906,3.6010169938120384,10.803050412412318,0
1328,66.35,1225.7,44.054314870886756,-78.68342078193211,-9.1,-0.5,-13.2,1.7,2796.9,2797.0,124.1,1.0,1.0,1.0,0.0,1.0,1.0,0.0,0.0,0.0,100.0,1.0,1.186,26.0,0.0,8.673,74.678,66.0,100.0,26.0,26.0,26.0,26.0,0.01,-1.75,-0.03,385.5,-2.65,-2.73,-1.33,-1.36,-902.34,655.7,5.5,0.0,0.0,0.0,0.0,0.69,-7.49,-7.49,-1.2,-0.25,-0.37,0.51,34.4,-0.07,-0.71,-1.68,100.0,0.0,0.0,93.02,0.0,0.0,0.0,0.0,0.0,0.0,0.0,4962.0,0.0,30.0,4.0,124.1,1.0,0.0,0.0,0.0,0.0,0.0,0.0,0.0,66.381,66.381,74.679,27.738,1.0,110.0,435.8,8750.0,0.0,0.0,110.0,110.0,433.0,0.0,0.0,0.0,1.0,166.7,61.2,61.2,88.8,88.8,34.0,0.57,-1.01,-7.3,4.2,1.0,-143.64,-5.3,100.0,27.6,26.8,21.1,20.7,0.0,1.0,0.0,0.0,0.0,0.0,0.0,5166.0,5171.0,2468.0,2484.0,310.9,310.6,349.0,348.9,22.88,22.28,26.76,26.34,325.0,325.0,355.0,355.0,99.82,99.75,99.95,99.9,0.06,0.14,-0.21,0.03,-11.7,-13.1,-3.8,-3.9,69.0,65.3,87.0,84.4,68.7,66.8,86.9,86.1,66.1,64.4,84.8,83.8,64.4,63.1,83.4,82.5,-0.3,0.31,0.11,0.09,0.0,92.96,96.23,93.02,93.02,356.7,7.7,1.7502856909659064,64.45820623771898,108.39061492788147,-32.40915436686677,-46.81322205760253,0
1329,66.4,1227.4,44.054322784916884,-78.68343418182404,-6.3,1.1,-7.2,3.2,2798.6,2799.0,120.9,0.0,1.0,1.0,0.0,1.0,1.0,0.0,0.0,0.0,100.0,1.0,1.186,26.0,0.0,8.685,74.678,66.0,100.0,26.0,26.0,26.0,26.0,0.03,-1.76,-0.06,385.6,-2.67,-2.7,-1.36,-1.34,-903.83,656.58,5.5,0.0,0.0,0.0,0.0,0.69,-7.49,-7.49,-1.21,-0.21,-0.34,0.35,33.53,-0.03,-0.7,-2.1,100.0,0.0,0.0,90.69,0.0,0.0,0.0,0.0,0.0,0.0,0.0,4837.0,0.0,30.0,4.0,120.9,0.0,0.0,0.0,0.0,0.0,0.0,0.0,0.0,66.431,66.431,74.679,27.738,0.0,110.0,435.8,8750.0,0.0,0.0,110.0,110.0,433.0,0.0,0.0,0.0,1.0,333.3,61.3,61.3,89.0,89.0,34.0,-1.92,0.99,-5.2,6.0,1.0,-143.69,-4.8,100.0,27.3,26.9,20.8,20.9,0.0,1.0,0.0,0.0,0.0,0.0,0.0,5130.0,5270.0,2390.0,2482.0,311.0,310.3,349.2,348.9,22.88,22.28,26.76,26.34,325.0,325.0,355.0,355.0,99.82,99.76,99.95,99.9,0.07,0.17,-0.09,0.14,-8.2,-9.5,-3.8,-3.9,69.0,65.3,87.0,84.4,68.8,66.9,86.9,86.0,66.2,64.5,84.8,83.8,64.5,63.2,83.4,82.5,-0.27,0.26,0.1,0.09,0.0,94.16,93.01,90.69,90.69,356.7,7.7,1.7612779451296152,61.21729082948349,102.98908932335881,-46.81322234211457,-82.82339256474557,0
1330,66.45,1229.0,44.05433015935405,-78.68344650253005,-7.0,-0.5,-8.9,-2.3,2800.2,2800.0,118.0,0.0,1.0,1.0,0.0,1.0,1.0,0.0,0.0,0.0,100.0,1.0,1.186,26.0,0.0,8.697,74.678,66.0,100.0,26.0,26.0,26.0,26.0,0.11,-1.71,-0.07,385.9,-2.67,-2.69,-1.36,-1.33,-905.2,657.4,5.5,0.0,0.0,0.0,0.0,0.69,-7.49,-7.49,-1.22,-0.04,-0.33,0.5,32.72,0.01,-0.68,-2.46,100.0,0.0,0.0,88.38,0.0,0.0,0.0,0.0,0.0,0.0,0.0,4714.0,0.0,30.0,4.0,118.0,1.0,0.0,0.0,0.0,0.0,0.0,0.0,0.0,66.48,66.48,74.679,27.738,1.0,110.0,435.8,8750.0,0.0,0.0,110.0,110.0,433.0,0.0,0.0,0.0,1.0,333.3,61.7,61.7,89.3,89.3,34.0,-1.53,13.28,-3.9,7.0,1.0,-143.74,-4.3,100.0,27.0,26.8,20.3,20.8,0.0,1.0,0.0,0.0,0.0,0.0,0.0,5045.0,5206.0,2363.0,2461.0,311.2,310.5,349.3,349.0,22.88,22.28,26.76,26.34,325.0,325.0,355.0,355.0,99.82,99.76,99.95,99.9,0.11,0.22,-0.02,0.22,-8.2,-5.8,-3.8,-4.1,69.0,65.3,87.0,84.4,69.0,67.0,86.8,86.0,66.3,64.6,84.7,83.8,64.6,63.3,83.3,82.4,-0.25,0.26,0.11,0.09,0.0,96.62,93.84,88.37,88.37,356.7,7.7,1.7149635564641015,59.776884003507526,100.10827567140691,-14.404068259759626,-25.20712009473087,0
1331,66.5,1230.6,44.05433771365554,-78.6834591829647,-7.2,-2.2,-4.6,2.0,2801.8,2802.0,114.9,0.0,1.0,1.0,0.0,1.0,1.0,0.0,0.0,0.0,100.0,1.0,1.186,26.0,0.0,8.712,74.678,66.0,100.0,26.0,26.0,26.0,26.0,0.08,-1.72,-0.02,386.1,-2.69,-2.66,-1.38,-1.31,-906.61,658.24,5.5,0.0,0.0,0.0,0.0,0.69,-7.49,-7.49,-1.23,-0.21,-0.31,0.11,31.85,0.04,-0.66,-1.93,100.0,0.0,0.0,86.13,0.0,0.0,0.0,0.0,0.0,0.0,0.0,4594.0,0.0,30.0,4.0,114.9,0.0,0.0,0.0,0.0,0.0,0.0,0.0,0.0,66.531,66.531,74.679,27.738,0.0,110.0,435.8,8750.0,0.0,0.0,110.0,110.0,433.0,0.0,0.0,0.0,1.0,333.3,62.0,62.0,89.3,89.3,34.0,0.29,-1.23,-3.1,8.4,1.0,-143.79,-3.2,100.0,26.6,26.7,20.1,20.9,0.0,1.0,0.0,0.0,0.0,0.0,0.0,4957.0,5235.0,2325.0,2525.0,311.5,310.4,349.3,348.8,22.88,22.28,26.76,26.34,325.0,325.0,355.0,355.0,99.82,99.76,99.95,99.9,0.13,0.22,0.02,0.28,-11.0,-11.6,-3.8,-3.9,69.0,65.3,87.0,84.4,69.0,67.2,86.8,86.0,66.4,64.7,84.7,83.7,64.7,63.4,83.3,82.4,-0.19,0.18,0.1,0.09,0.0,86.55,86.27,86.13,86.13,356.7,7.7,1.7219756095833645,59.776884003507526,100.46837731388572,-36.01017107616677,-50.41424018946202,0
1332,66.55,1232.2,44.05434508809271,-78.68347159360285,-5.9,0.9,-6.3,-2.1,2803.4,2803.0,111.8,0.0,1.0,1.0,0.0,1.0,1.0,0.0,0.0,0.0,100.0,1.0,1.186,26.0,0.0,8.727,74.678,66.0,100.0,26.0,26.0,26.0,26.0,0.08,-1.72,-0.08,386.3,-2.7,-2.64,-1.38,-1.3,-907.99,659.06,5.5,0.0,0.0,0.0,0.0,0.69,-7.49,-7.49,-1.23,-0.07,-0.3,0.09,31.0,0.05,-0.64,-1.65,100.0,0.0,0.0,83.79,0.0,0.0,0.0,0.0,0.0,0.0,0.0,4626.0,0.0,30.0,0.0,111.8,1.0,0.0,0.0,0.0,0.0,0.0,0.0,0.0,66.581,66.581,74.679,27.738,1.0,110.0,435.8,8750.0,0.0,0.0,110.0,110.0,433.0,0.0,0.0,0.0,1.0,333.3,62.3,62.3,89.5,89.5,34.0,-0.5,2.23,-2.6,8.2,1.0,-143.84,-1.7,100.0,26.3,26.8,19.8,20.7,0.0,1.0,45.0,0.0,0.0,0.0,0.0,4902.0,5161.0,2297.0,2489.0,311.6,310.6,349.4,348.9,22.88,22.28,26.76,26.34,325.0,325.0,355.0,355.0,99.82,99.76,99.95,99.9,0.09,0.17,0.04,0.28,-9.4,-8.8,-4.0,-3.9,69.0,65.3,87.0,84.4,69.1,67.3,86.8,85.9,66.5,64.7,84.7,83.7,64.7,63.5,83.2,82.4,-0.12,0.11,0.11,0.09,0.0,85.77,86.52,83.62,83.96,356.7,7.7,1.7237169141132196,56.17586689589085,95.06685165246071,-50.41423933592647,-79.22237613995748,0
1333,66.6,1233.7,44.054351743072594,-78.68348292505509,-4.1,-2.3,-1.1,-1.9,2804.9,2805.0,109.0,0.0,1.0,1.0,0.0,1.0,1.0,0.0,0.0,0.0,100.0,1.0,1.186,26.0,0.0,8.742,74.678,66.0,100.0,26.0,26.0,26.0,26.0,0.09,-1.64,-0.05,386.4,-2.71,-2.62,-1.38,-1.3,-909.25,659.8,5.5,0.0,0.0,0.0,0.0,0.69,-7.49,-7.49,-1.24,-0.07,-0.31,-0.28,30.21,0.06,-0.62,-1.09,100.0,0.0,0.0,81.65,0.0,0.0,0.0,0.0,0.0,0.0,0.0,5752.0,0.0,30.0,0.0,109.0,0.0,0.0,0.0,0.0,0.0,0.0,1.0,0.0,66.63,66.63,74.679,27.738,0.0,110.0,435.8,8750.0,0.0,0.0,110.0,110.0,433.0,0.0,0.0,0.0,1.0,333.3,62.4,62.4,89.6,89.6,34.0,-3.12,11.51,-2.6,8.2,1.0,-143.89,1.1,100.0,26.1,26.6,19.7,20.7,0.0,1.0,43.6,0.0,0.0,0.0,0.0,4961.0,5155.0,2334.0,2475.0,311.4,310.6,349.3,348.9,22.88,22.28,26.75,26.34,325.0,325.0,355.0,355.0,99.82,99.76,99.95,99.9,0.0,0.12,0.04,0.27,-7.7,-5.5,-4.0,-3.8,69.0,65.3,87.0,84.4,69.2,67.3,86.7,85.9,66.6,64.8,84.6,83.7,64.8,63.6,83.2,82.4,0.03,-0.03,0.1,0.07,0.0,84.95,86.65,81.55,81.75,356.7,7.7,1.6432285294504838,54.73546006991488,92.54613969988998,-10.80305126594773,-21.606102531895175,0
1334,66.65,1235.1,44.054358757781124,-78.68349470616812,-2.2,-3.0,0.1,-7.1,2806.4,2806.0,105.9,0.0,1.0,1.0,0.0,1.0,1.0,0.0,0.0,0.0,100.0,1.0,1.186,26.0,0.0,8.76,74.678,66.0,89.1,26.0,26.0,26.0,26.0,-0.04,-1.64,-0.03,386.6,-2.72,-2.6,-1.36,-1.31,-910.56,660.58,5.5,0.0,0.0,0.0,0.0,0.69,-7.49,-7.49,-1.25,-0.08,-0.33,-0.79,29.36,0.06,-0.61,0.19,100.0,0.0,0.0,79.71,0.0,0.0,0.0,0.0,0.0,0.0,0.0,6249.0,0.0,30.0,0.0,105.9,1.0,0.0,0.0,0.0,0.0,0.0,1.0,0.0,66.681,66.681,74.679,27.738,1.0,110.0,435.8,8750.0,0.0,0.0,110.0,110.0,433.0,0.0,0.0,0.0,1.0,333.3,62.5,62.5,89.9,89.9,34.0,-19.29,-0.39,-3.2,7.4,1.0,-143.94,6.6,100.0,26.0,26.5,19.7,20.3,0.0,1.0,0.0,0.0,0.0,0.0,0.0,5043.0,5065.0,2312.0,2373.0,311.2,310.8,349.4,349.2,22.88,22.28,26.75,26.34,325.0,325.0,355.0,355.0,99.82,99.76,99.95,99.9,-0.25,-0.13,0.01,0.24,-4.7,-11.9,-3.8,-3.8,69.0,65.3,87.0,84.4,69.3,67.5,86.7,85.9,66.6,64.9,84.6,83.6,64.9,63.7,83.2,82.3,0.34,-0.33,0.09,0.08,0.0,85.55,79.55,79.71,79.71,356.7,7.7,1.640762018087937,55.095561769296076,92.9062413992712,-21.606102816407002,-39.61118806997874,0
1335,66.7,1236.6,44.054365502693166,-78.68350612755252,1.7,-7.6,7.4,-12.8,2807.8,2808.0,103.8,0.0,1.0,1.0,0.0,1.0,1.0,0.0,0.0,0.0,100.0,1.0,1.186,26.0,0.0,8.76,74.678,66.0,24.3,26.0,26.0,26.0,26.0,-0.14,-0.13,0.05,386.9,-2.69,-2.63,-1.29,-1.38,-911.83,661.33,5.5,0.0,0.0,0.0,0.0,0.69,-7.49,-7.49,-1.2,3.01,-0.41,-1.9,28.82,0.06,-0.57,3.55,100.0,0.0,0.0,83.99,0.0,0.0,0.0,0.0,0.0,0.0,0.0,5631.0,0.0,30.0,3.0,103.8,0.0,0.0,0.0,0.0,0.0,0.0,1.0,0.0,66.731,66.731,74.679,27.738,0.0,110.0,435.8,8750.0,0.0,0.0,110.0,110.0,433.0,0.0,0.0,0.0,1.0,166.7,64.2,64.2,88.8,88.8,34.0,-45.37,-0.45,-9.1,7.1,1.0,-143.99,13.5,100.0,26.1,26.1,20.1,19.7,0.0,1.0,0.0,0.0,0.0,0.0,0.0,4820.0,4350.0,2974.0,2559.0,311.8,312.8,347.9,348.8,22.88,22.28,26.75,26.34,325.0,325.0,355.0,355.0,99.82,99.76,99.95,99.9,-0.44,-0.31,-0.13,0.12,-1.2,-1.3,2.7,3.1,69.0,65.3,86.9,84.3,69.3,67.5,86.6,85.8,66.6,65.0,84.6,83.6,64.9,63.7,83.1,82.3,0.73,-0.72,0.1,0.08,0.0,88.04,87.49,83.99,83.99,356.7,7.7,0.197484176581315,52.57484978827418,88.5850208928921,-25.20711981021897,-46.813222057602815,0
1336,66.75,1238.0,44.05437188787657,-78.68351682947963,-23.4,-57.8,94.6,37.2,2809.2,2809.0,103.5,0.0,1.0,1.0,0.0,1.0,1.0,0.0,0.0,0.0,100.0,1.0,1.186,26.0,0.0,8.778,74.678,66.0,0.4,26.0,26.0,26.0,26.0,-0.25,-0.13,-0.06,386.9,-2.59,-2.63,-1.25,-1.51,-913.02,662.04,5.5,0.0,0.0,0.0,0.0,0.69,-7.49,-7.49,-0.96,5.12,-0.51,-2.32,28.75,0.04,-0.43,6.26,100.0,0.0,0.0,80.92,0.0,0.0,0.0,0.0,0.0,0.0,0.0,5424.0,0.0,30.0,3.0,103.5,1.0,0.0,0.0,0.0,0.0,0.0,1.0,0.0,66.78,66.78,74.679,27.738,1.0,110.0,435.8,8750.0,0.0,0.0,110.0,110.0,433.0,0.0,0.0,0.0,1.0,333.3,70.2,70.2,82.9,82.9,34.0,-37.98,-7.33,-26.2,9.6,1.0,-144.04,16.9,100.0,24.9,23.2,24.8,21.5,0.0,1.0,0.0,0.0,0.0,0.0,0.0,3609.0,2800.0,3961.0,3462.0,315.1,317.1,345.4,346.5,22.88,22.28,26.75,26.33,325.0,325.0,355.0,355.0,99.82,99.76,99.95,99.9,-0.57,-0.54,-0.29,-0.04,-0.1,-0.0,-0.3,-0.1,69.0,65.3,86.9,84.3,69.3,67.5,86.6,85.8,66.6,64.9,84.5,83.5,64.9,63.7,83.1,82.2,0.95,-0.98,0.1,0.09,0.0,88.72,88.18,81.13,80.69,356.7,7.7,0.28809720581775866,52.57484978827418,88.22491919351091,18.00508553808335,14.404068544271524,0
1337,66.8,1239.5,44.05437863278861,-78.68352816093187,-42.9,-75.2,114.9,71.3,2810.7,2811.0,103.3,0.0,1.0,1.0,0.0,1.0,1.0,0.0,0.0,0.0,100.0,1.0,1.186,26.0,0.0,8.796,74.678,66.0,0.0,26.0,26.0,26.0,26.0,-0.33,-0.1,-0.05,385.7,-2.43,-2.64,-1.21,-1.68,-914.28,662.79,5.5,0.0,0.0,0.0,0.0,0.69,-7.49,-7.49,-0.77,1.89,-0.63,-1.71,28.7,0.0,-0.31,7.75,100.0,0.0,0.0,80.59,0.0,0.0,0.0,0.0,0.0,0.0,0.0,5403.0,0.0,30.0,3.0,103.3,0.0,0.0,0.0,0.0,0.0,0.0,1.0,0.0,66.831,66.831,74.679,27.738,0.0,110.0,435.8,8750.0,0.0,0.0,110.0,110.0,433.0,0.0,0.0,0.0,1.0,333.3,73.8,73.8,77.2,77.2,34.0,-40.37,-7.26,-41.2,2.4,1.0,-144.09,17.9,100.0,22.8,19.5,30.6,25.1,0.0,1.0,0.0,0.0,0.0,0.0,0.0,3644.0,2252.0,4728.0,3710.0,315.1,318.7,343.5,345.9,22.88,22.28,26.75,26.33,325.0,325.0,355.0,355.0,99.82,99.76,99.95,99.9,-0.66,-0.61,-0.43,-0.21,-0.0,0.0,-0.3,-0.1,69.0,65.3,86.9,84.3,69.3,67.4,86.6,85.7,66.6,64.9,84.5,83.5,64.9,63.6,83.1,82.2,1.03,-1.05,0.07,0.09,0.0,88.53,87.86,80.82,80.36,356.7,7.7,0.34842502780368695,54.375358342082514,90.02542774731926,25.20711981021897,10.803050981435831,0
1338,66.85,1240.9,44.05438546763282,-78.68353931251978,-7.6,-22.5,53.7,35.3,2812.1,2812.0,103.1,0.0,1.0,1.0,0.0,1.0,1.0,0.0,0.0,0.0,100.0,1.0,1.186,26.0,0.0,8.811,74.678,66.0,0.0,26.0,26.0,26.0,26.0,-0.42,-0.12,0.08,384.2,-2.38,-2.65,-1.2,-1.75,-915.52,663.55,5.5,0.0,0.0,0.0,0.0,0.69,-7.49,-7.49,-0.76,-1.0,-0.68,-0.11,28.64,-0.02,-0.32,8.64,100.0,0.0,0.0,80.34,0.0,0.0,0.0,0.0,0.0,0.0,0.0,5386.0,0.0,30.0,3.0,103.1,1.0,0.0,0.0,0.0,0.0,0.0,1.0,0.0,66.881,66.881,74.679,27.738,1.0,110.0,435.8,8750.0,0.0,0.0,110.0,110.0,433.0,0.0,0.0,0.0,1.0,333.3,72.6,72.6,75.3,75.3,34.0,-53.59,-10.43,-46.1,-3.9,1.0,-144.14,17.9,100.0,22.4,18.3,33.3,26.9,0.0,1.0,0.0,0.0,0.0,0.0,0.0,4438.0,2838.0,4757.0,3537.0,312.9,317.1,343.4,346.3,22.87,22.28,26.75,26.33,325.0,325.0,355.0,355.0,99.82,99.76,99.95,99.9,-0.71,-0.64,-0.51,-0.35,-0.0,-0.0,-0.3,-0.1,69.0,65.3,86.9,84.3,69.3,67.4,86.5,85.7,66.6,64.9,84.4,83.4,64.9,63.6,83.0,82.1,1.05,-1.06,0.06,0.08,0.0,88.31,87.55,80.59,80.08,356.7,7.7,0.4440720662234903,55.095561769296076,89.3052242916545,-3.6010169938119674,-36.010171645190354,0
1339,66.9,1242.3,44.054392392409184,-78.6835504641077,17.7,10.2,7.9,3.9,2813.5,2814.0,102.9,0.0,1.0,1.0,0.0,1.0,1.0,0.0,0.0,0.0,100.0,1.0,1.186,26.0,0.0,8.829,74.678,66.0,0.0,26.0,26.0,26.0,26.0,-0.44,-0.12,0.02,384.1,-2.39,-2.68,-1.2,-1.75,-916.76,664.32,5.5,0.0,0.0,0.0,0.0,0.7,-7.49,-7.49,-0.8,-0.57,-0.69,-0.05,28.58,-0.04,-0.36,9.52,100.0,0.0,0.0,80.18,0.0,0.0,0.0,0.0,0.0,0.0,0.0,5375.0,0.0,30.0,3.0,102.9,0.0,0.0,0.0,0.0,0.0,0.0,1.0,0.0,66.933,66.933,74.679,27.738,0.0,110.0,435.8,8750.0,0.0,0.0,110.0,110.0,433.0,0.0,0.0,0.0,1.0,166.7,71.4,71.4,76.2,76.2,34.0,-54.64,-10.93,-44.3,-6.2,1.0,-144.19,18.1,100.0,23.3,18.9,33.7,27.1,0.0,1.0,0.0,0.0,0.0,0.0,0.0,4555.0,3083.0,4253.0,3107.0,312.5,316.4,344.7,347.3,22.87,22.28,26.74,26.33,325.0,325.0,355.0,355.0,99.82,99.76,99.95,99.9,-0.69,-0.62,-0.61,-0.43,-0.0,-0.0,-0.4,-0.2,69.0,65.3,86.9,84.3,69.2,67.4,86.5,85.6,66.6,64.9,84.4,83.4,64.8,63.6,83.0,82.1,1.04,-1.05,0.08,0.08,0.0,88.17,87.31,80.48,79.88,356.7,7.7,0.4565084884205331,54.01525664270132,86.42441058280022,-3.6010172783237238,-32.4091540823548,0
1340,66.95,1243.7,44.05439895745691,-78.68356089623832,1.2,-1.6,-6.5,-10.8,2815.0,2815.0,102.7,0.0,1.0,1.0,0.0,1.0,1.0,0.0,0.0,0.0,100.0,1.0,1.186,26.0,0.0,8.847,74.678,66.0,0.0,26.0,26.0,26.0,26.0,-0.48,-0.12,0.01,384.5,-2.38,-2.68,-1.18,-1.76,-917.92,665.05,5.5,0.0,0.0,0.0,0.0,0.7,-7.49,-7.49,-0.8,0.32,-0.71,-0.47,28.52,-0.06,-0.36,9.99,100.0,0.0,0.0,80.03,0.0,0.0,0.0,0.0,0.0,0.0,0.0,5365.0,0.0,30.0,3.0,102.7,1.0,0.0,0.0,0.0,0.0,0.0,1.0,0.0,66.981,66.981,74.679,27.738,1.0,110.0,435.8,8750.0,0.0,0.0,110.0,110.0,433.0,0.0,0.0,0.0,1.0,333.3,72.0,72.0,76.5,76.5,34.0,-54.09,-11.51,-47.6,-9.5,1.0,-144.24,18.4,100.0,23.3,18.8,33.3,26.5,0.0,1.0,0.0,0.0,0.0,0.0,0.0,4410.0,2834.0,4325.0,3077.0,312.9,317.1,344.5,347.4,22.87,22.28,26.74,26.33,325.0,325.0,355.0,355.0,99.82,99.76,99.95,99.9,-0.73,-0.68,-0.67,-0.52,-0.0,-0.0,-0.4,-0.1,69.0,65.3,86.9,84.3,69.2,67.4,86.4,85.6,66.6,64.8,84.4,83.3,64.8,63.6,82.9,82.0,1.07,-1.08,0.08,0.07,0.0,88.03,87.16,80.36,79.7,356.7,7.7,0.4948737212663449,54.7354600414637,86.06430888341902,10.803050981435831,-10.803050981435831,0
1341,67.0,1245.2,44.05440606209759,-78.68357195789407,-4.2,-8.1,3.6,-4.4,2816.4,2816.0,102.5,0.0,1.0,1.0,0.0,1.0,1.0,0.0,0.0,0.0,100.0,1.0,1.186,26.0,0.0,8.847,74.678,66.0,0.0,26.0,26.0,26.0,26.0,-0.49,-0.1,-0.09,384.9,-2.36,-2.7,-1.16,-1.79,-919.15,665.84,5.5,0.0,0.0,0.0,0.0,0.7,-7.49,-7.49,-0.77,0.2,-0.73,-0.25,28.46,-0.08,-0.34,10.04,100.0,0.0,0.0,79.88,0.0,0.0,0.0,0.0,0.0,0.0,0.0,5355.0,0.0,30.0,3.0,102.5,0.0,0.0,0.0,0.0,0.0,0.0,1.0,0.0,67.031,67.031,74.679,27.738,0.0,110.0,435.8,8750.0,0.0,0.0,110.0,110.0,433.0,0.0,0.0,0.0,1.0,333.3,72.9,72.9,76.4,76.4,34.0,-53.29,-10.22,-52.0,-10.1,1.0,-144.29,18.6,100.0,23.1,18.4,33.5,26.3,0.0,1.0,0.0,0.0,0.0,0.0,0.0,4276.0,2503.0,4462.0,3078.0,313.3,318.0,344.2,347.4,22.87,22.28,26.74,26.33,325.0,325.0,355.0,355.0,99.82,99.76,99.95,99.9,-0.77,-0.7,-0.72,-0.54,-0.0,-0.0,-0.4,-0.2,68.9,65.2,86.9,84.3,69.2,67.4,86.4,85.5,66.6,64.8,84.3,83.3,64.8,63.6,82.9,82.0,1.08,-1.09,0.08,0.07,0.0,87.84,86.98,80.2,79.55,356.7,7.7,0.5081338406365,55.0955617408449,85.34410548465664,25.20712009473087,10.803051550459628,0
1342,67.05,1246.6,44.054412717077476,-78.68358221016038,-3.6,-7.0,5.3,0.5,2817.8,2818.0,102.3,0.0,1.0,1.0,0.0,1.0,1.0,0.0,0.0,0.0,100.0,1.0,1.186,26.0,0.0,8.859,74.678,66.0,0.0,26.0,26.0,26.0,26.0,-0.51,-0.14,-0.04,384.7,-2.35,-2.69,-1.15,-1.79,-920.29,666.58,5.5,0.0,0.0,0.0,0.0,0.7,-7.49,-7.49,-0.77,-0.23,-0.75,-0.05,28.41,-0.08,-0.33,10.07,100.0,0.0,0.0,79.69,0.0,0.0,0.0,0.0,0.0,0.0,0.0,5342.0,0.0,30.0,3.0,102.3,1.0,0.0,0.0,0.0,0.0,0.0,1.0,0.0,67.08,67.08,74.679,27.738,1.0,110.0,435.8,8750.0,0.0,0.0,110.0,110.0,433.0,0.0,0.0,0.0,1.0,333.3,72.8,72.8,76.2,76.2,34.0,-56.34,-11.7,-52.7,-10.7,1.0,-144.34,18.7,100.0,22.9,18.0,33.8,26.3,0.0,1.0,0.0,0.0,0.0,0.0,0.0,4429.0,2647.0,4481.0,3105.0,312.9,317.6,344.1,347.4,22.87,22.28,26.74,26.33,325.0,325.0,355.0,355.0,99.82,99.76,99.95,99.9,-0.79,-0.73,-0.73,-0.55,-0.0,-0.0,-0.4,-0.1,68.9,65.2,86.9,84.3,69.2,67.3,86.4,85.5,66.5,64.8,84.3,83.3,64.8,63.5,82.9,82.0,1.08,-1.1,0.08,0.07,0.0,87.65,86.8,80.03,79.34,356.7,7.7,0.5303772242470447,57.25617205093679,87.14461403846498,32.40915436686649,10.803050981435831,0
1343,67.1,1248.0,44.05442036131113,-78.68359372147694,3.0,-3.3,3.5,-0.5,2819.2,2819.0,102.1,0.0,1.0,1.0,0.0,1.0,1.0,0.0,0.0,0.0,100.0,1.0,1.186,26.0,0.0,8.874,74.678,66.0,0.0,26.0,26.0,26.0,26.0,-0.52,0.02,0.02,384.6,-2.34,-2.7,-1.15,-1.8,-921.57,667.43,5.5,0.0,0.0,0.0,0.0,0.7,-7.49,-7.49,-0.77,0.2,-0.76,-0.2,28.37,-0.08,-0.34,10.21,100.0,0.0,0.0,80.31,0.0,0.0,0.0,0.0,0.0,0.0,0.0,5384.0,0.0,30.0,3.0,102.1,0.0,0.0,0.0,0.0,0.0,0.0,0.0,0.0,67.134,67.134,74.679,27.738,0.0,110.0,435.8,8750.0,0.0,0.0,110.0,110.0,433.0,0.0,0.0,0.0,1.0,166.7,72.6,72.6,76.1,76.1,34.0,-57.45,-11.84,-54.7,-11.2,1.0,-144.39,18.4,100.0,23.1,17.9,34.0,26.3,0.0,1.0,12.3,0.0,0.0,0.0,0.0,4526.0,2757.0,4518.0,3122.0,312.6,317.3,344.0,347.3,22.87,22.28,26.74,26.33,325.0,325.0,355.0,355.0,99.82,99.76,99.95,99.9,-0.78,-0.71,-0.76,-0.59,-0.0,-0.0,-0.1,0.8,68.9,65.2,86.9,84.3,69.2,67.3,86.3,85.4,66.5,64.8,84.2,83.2,64.8,63.5,82.8,81.9,1.07,-1.08,0.08,0.08,0.0,87.53,86.63,80.31,80.31,356.7,7.7,0.5207686626516616,58.33647717753155,86.42441058280022,-18.005085822595106,-61.21729117089785,0
1344,67.15,1249.4,44.054427286087495,-78.68360379387892,-3.6,-7.2,5.5,-0.7,2820.7,2821.0,102.4,0.0,1.0,1.0,0.0,1.0,1.0,0.0,0.0,0.0,100.0,1.0,1.186,26.0,0.0,8.886,74.678,66.0,0.0,26.0,26.0,26.0,26.0,-0.5,0.23,0.01,384.8,-2.32,-2.71,-1.14,-1.81,-922.69,668.2,5.5,0.0,0.0,0.0,0.0,0.7,-7.49,-7.49,-0.73,1.1,-0.77,0.26,28.44,-0.08,-0.33,9.57,100.0,0.0,0.0,81.24,0.0,0.0,0.0,0.0,0.0,0.0,0.0,5446.0,0.0,30.0,3.0,102.4,1.0,0.0,0.0,0.0,0.0,0.0,0.0,0.0,67.181,67.181,74.679,27.738,1.0,110.0,435.8,8750.0,0.0,0.0,110.0,110.0,433.0,0.0,0.0,0.0,1.0,166.7,73.8,73.8,75.3,75.3,34.0,-52.85,-10.57,-55.1,-9.3,1.0,-144.44,18.2,100.0,22.9,17.5,34.2,26.3,0.0,1.0,41.3,0.0,0.0,0.0,0.0,4210.0,2437.0,4761.0,3378.0,313.4,318.2,343.4,346.7,22.87,22.28,26.74,26.33,325.0,325.0,355.0,355.0,99.82,99.76,99.95,99.9,-0.78,-0.73,-0.73,-0.54,-0.1,-0.0,0.8,1.8,68.9,65.2,86.9,84.3,69.2,67.3,86.3,85.4,66.5,64.8,84.2,83.2,64.8,63.5,82.8,81.9,1.05,-1.06,0.08,0.07,0.0,87.71,86.89,81.24,81.24,356.7,7.7,0.5504543577809153,55.45566346867728,81.0228849213752,-3.6010172783236527,-25.20711895668356,0
1345,67.2,1250.9,44.05443421086386,-78.68361395621307,-16.4,-16.7,9.7,11.1,2822.1,2822.0,102.9,0.0,1.0,1.0,0.0,1.0,1.0,0.0,0.0,0.0,100.0,1.0,1.186,26.0,0.0,8.904,74.678,66.0,0.0,26.0,26.0,26.0,26.0,-0.46,0.37,-0.0,385.1,-2.31,-2.67,-1.17,-1.81,-923.82,668.97,5.5,0.0,0.0,0.0,0.0,0.7,-7.49,-7.49,-0.67,1.0,-0.76,0.73,28.59,-0.08,-0.3,9.18,100.0,0.0,0.0,82.03,0.0,0.0,0.0,0.0,0.0,0.0,0.0,5499.0,0.0,30.0,3.0,102.9,0.0,0.0,0.0,0.0,0.0,0.0,0.0,0.0,67.23,67.23,74.679,27.738,0.0,110.0,435.8,8750.0,0.0,0.0,110.0,110.0,433.0,0.0,0.0,0.0,1.0,166.7,75.5,75.5,74.3,74.3,34.0,-46.96,-9.7,-53.1,-9.3,1.0,-144.49,17.6,100.0,22.1,16.7,34.7,26.8,0.0,1.0,65.2,0.0,0.0,0.0,0.0,3829.0,2203.0,4919.0,3675.0,314.5,318.9,343.0,346.0,22.87,22.28,26.73,26.32,325.0,325.0,355.0,355.0,99.82,99.76,99.95,99.9,-0.79,-0.75,-0.7,-0.54,-0.1,-0.1,1.4,2.4,68.9,65.2,86.8,84.3,69.2,67.3,86.3,85.4,66.5,64.7,84.2,83.1,64.8,63.5,82.8,81.8,1.02,-1.04,0.06,0.08,0.0,88.19,87.39,82.03,82.03,356.7,7.7,0.5903388857258177,57.976375449699184,83.90369868713186,57.616273892573844,54.01525718327392,0
1346,67.25,1252.3,44.05444176516535,-78.68362474807235,-22.0,-12.5,8.1,16.8,2823.5,2824.0,103.6,0.0,1.0,1.0,0.0,1.0,1.0,0.0,0.0,0.0,100.0,1.0,1.186,26.0,0.0,8.91,74.678,66.0,0.0,26.0,26.0,26.0,26.0,-0.44,0.44,-0.01,385.2,-2.3,-2.64,-1.19,-1.79,-925.02,669.81,5.5,0.0,0.0,0.0,0.0,0.7,-7.49,-7.49,-0.63,0.38,-0.73,0.29,28.8,-0.09,-0.28,8.82,100.0,0.0,0.0,83.01,0.0,0.0,0.0,0.0,0.0,0.0,0.0,5565.0,0.0,30.0,3.0,103.6,1.0,0.0,0.0,0.0,0.0,0.0,0.0,0.0,67.281,67.281,74.679,27.738,1.0,110.0,435.8,8750.0,0.0,0.0,110.0,110.0,433.0,0.0,0.0,0.0,1.0,333.3,76.6,76.6,73.6,73.6,34.0,-44.26,-8.52,-48.3,-8.6,1.0,-144.54,16.3,100.0,21.0,16.0,35.1,27.6,0.0,1.0,93.4,0.0,0.0,0.0,0.0,3770.0,2129.0,4921.0,3772.0,314.7,319.0,343.0,345.7,22.87,22.28,26.73,26.32,325.0,325.0,355.0,355.0,99.82,99.76,99.95,99.9,-0.74,-0.7,-0.66,-0.53,-0.1,-0.1,1.9,2.8,68.9,65.2,86.8,84.3,69.2,67.2,86.2,85.3,66.5,64.7,84.2,83.1,64.8,63.4,82.7,81.8,0.96,-0.98,0.08,0.07,0.0,88.76,88.01,83.01,83.01,356.7,7.7,0.6223343153000644,61.217290857934664,86.42441063970259,25.207119810219396,3.6010164247880994,0
1347,67.3,1253.8,44.05444949933116,-78.68363553993161,-9.1,-9.5,4.4,11.8,2825.0,2825.0,104.6,0.0,1.0,1.0,0.0,1.0,1.0,0.0,0.0,0.0,100.0,1.0,1.186,26.0,0.0,8.91,74.678,66.0,0.0,26.0,26.0,26.0,26.0,-0.46,0.55,-0.0,385.1,-2.3,-2.62,-1.21,-1.79,-926.22,670.67,5.5,0.0,0.0,0.0,0.0,0.7,-7.49,-7.49,-0.61,0.37,-0.72,0.41,29.06,-0.1,-0.27,8.74,100.0,0.0,0.0,84.01,0.0,0.0,0.0,0.0,0.0,0.0,0.0,5632.0,0.0,30.0,3.0,104.6,0.0,0.0,0.0,0.0,0.0,0.0,0.0,0.0,67.331,67.331,74.679,27.738,0.0,110.0,435.8,8750.0,0.0,0.0,110.0,110.0,433.0,0.0,0.0,0.0,1.0,333.3,76.9,76.9,73.1,73.1,34.0,-43.38,-8.75,-46.3,-8.5,1.0,-144.59,16.0,100.0,20.5,15.6,35.3,28.2,0.0,1.0,100.0,0.0,0.0,0.0,0.0,3727.0,2244.0,4960.0,3836.0,314.8,318.8,342.9,345.6,22.87,22.27,26.73,26.32,325.0,325.0,355.0,355.0,99.82,99.76,99.95,99.9,-0.73,-0.68,-0.67,-0.54,-0.1,-0.1,2.3,3.2,68.9,65.2,86.8,84.3,69.1,67.2,86.2,85.3,66.5,64.7,84.1,83.1,64.7,63.4,82.7,81.8,0.93,-0.93,0.07,0.07,0.0,89.58,88.8,84.01,84.01,356.7,7.7,0.717007670809734,60.49708743072112,84.26380032961067,3.6010169938120384,-18.005086107107076,0
1348,67.35,1255.2,44.05445687376833,-78.68364579219792,-7.3,-7.1,6.4,9.6,2826.4,2826.0,105.5,0.0,1.0,1.0,0.0,1.0,1.0,0.0,0.0,0.0,100.0,1.0,1.186,26.0,0.0,8.919,74.678,66.0,0.0,26.0,26.0,26.0,26.0,-0.45,0.54,0.01,385.1,-2.28,-2.61,-1.21,-1.8,-927.36,671.49,5.5,0.0,0.0,0.0,0.0,0.7,-7.49,-7.49,-0.58,0.34,-0.72,0.04,29.31,-0.11,-0.26,8.74,100.0,0.0,0.0,84.69,0.0,0.0,0.0,0.0,0.0,0.0,0.0,5677.0,0.0,30.0,3.0,105.5,1.0,0.0,0.0,0.0,0.0,0.0,0.0,0.0,67.38,67.38,74.679,27.738,1.0,110.0,435.8,8750.0,0.0,0.0,110.0,110.0,433.0,0.0,0.0,0.0,1.0,333.3,77.3,77.3,72.6,72.6,34.0,-44.1,-9.26,-48.1,-8.4,1.0,-144.64,16.3,100.0,20.2,15.2,35.7,28.7,0.0,1.0,100.0,0.0,0.0,0.0,0.0,3745.0,2223.0,5044.0,3844.0,314.7,318.8,342.7,345.5,22.86,22.27,26.73,26.32,325.0,325.0,355.0,355.0,99.82,99.76,99.95,99.9,-0.74,-0.71,-0.68,-0.54,-0.1,-0.1,2.3,3.2,68.9,65.2,86.8,84.3,69.1,67.2,86.2,85.3,66.5,64.7,84.1,83.1,64.7,63.4,82.7,81.8,0.93,-0.95,0.06,0.07,0.0,90.33,89.57,84.69,84.69,356.7,7.7,0.702993598832877,61.57739255731587,84.62390202899188,43.21220506379035,28.80813708854305,0
1349,67.4,1256.7,44.054464877730624,-78.68365667398935,-8.5,-4.0,7.4,6.5,2827.9,2828.0,106.4,0.0,1.0,1.0,0.0,1.0,1.0,0.0,0.0,0.0,100.0,1.0,1.186,26.0,0.0,8.928,74.678,66.0,0.0,26.0,26.0,26.0,26.0,-0.46,0.54,-0.0,385.1,-2.27,-2.6,-1.22,-1.8,-928.57,672.38,5.5,0.0,0.0,0.0,0.0,0.7,-7.49,-7.49,-0.56,0.19,-0.73,0.0,29.58,-0.11,-0.26,8.89,100.0,0.0,0.0,85.48,0.0,0.0,0.0,0.0,0.0,0.0,0.0,5731.0,0.0,30.0,3.0,106.4,0.0,0.0,0.0,0.0,0.0,0.0,0.0,0.0,67.431,67.431,74.679,27.738,0.0,110.0,435.8,8750.0,0.0,0.0,110.0,110.0,433.0,0.0,0.0,0.0,1.0,333.3,77.7,77.7,72.3,72.3,34.0,-47.26,-10.26,-48.7,-8.6,1.0,-144.69,17.7,100.0,19.7,15.0,36.0,29.0,0.0,1.0,100.0,0.0,0.0,0.0,0.0,3821.0,2119.0,5072.0,3810.0,314.6,319.1,342.7,345.6,22.86,22.27,26.73,26.32,325.0,325.0,355.0,355.0,99.82,99.76,99.95,99.9,-0.81,-0.79,-0.69,-0.54,-0.1,-0.1,2.3,3.2,68.9,65.2,86.8,84.2,69.1,67.1,86.2,85.3,66.5,64.6,84.1,83.0,64.7,63.4,82.7,81.8,1.01,-1.02,0.06,0.07,0.0,91.17,90.38,85.48,85.48,356.7,7.7,0.7093659140387281,64.81830793710016,87.14461403846498,25.207119810219112,3.601017562835551,0
1350,67.45,1258.2,44.05447306155723,-78.68366755578079,-3.9,-5.0,5.0,3.2,2829.4,2829.0,107.4,0.0,1.0,1.0,0.0,1.0,1.0,0.0,0.0,0.0,100.0,1.0,1.186,26.0,0.0,8.931,74.678,66.0,0.0,26.0,26.0,26.0,26.0,-0.49,0.53,0.0,385.1,-2.27,-2.61,-1.22,-1.81,-929.78,673.29,5.5,0.0,0.0,0.0,0.0,0.7,-7.49,-7.49,-0.55,0.07,-0.73,0.07,29.84,-0.12,-0.26,9.51,100.0,0.0,0.0,86.27,0.0,0.0,0.0,0.0,0.0,0.0,0.0,5783.0,0.0,30.0,3.0,107.4,1.0,0.0,0.0,0.0,0.0,0.0,0.0,0.0,67.481,67.481,74.679,27.738,1.0,110.0,435.8,8750.0,0.0,0.0,110.0,110.0,433.0,0.0,0.0,0.0,1.0,333.3,77.9,77.9,72.3,72.3,34.0,-50.37,-12.06,-49.8,-9.0,1.0,-144.74,19.9,100.0,19.5,14.7,36.3,29.2,0.0,1.0,100.0,0.0,0.0,0.0,0.0,3836.0,2131.0,5041.0,3798.0,314.5,319.1,342.7,345.6,22.86,22.27,26.73,26.32,325.0,325.0,355.0,355.0,99.82,99.76,99.95,99.9,-0.9,-0.88,-0.72,-0.56,-0.1,-0.1,2.3,3.3,68.9,65.2,86.8,84.2,69.1,67.1,86.1,85.2,66.4,64.6,84.1,83.0,64.7,63.3,82.7,81.7,1.12,-1.16,0.06,0.07,0.0,91.96,91.16,86.27,86.27,356.7,7.7,0.7218032973047436,64.09810453833778,84.98400378527543,7.20203455664759,-18.00508553808342,0
1351,67.5,1259.7,44.05448088565521,-78.68367789797925,-0.4,-5.5,4.8,0.2,2830.9,2831.0,108.3,0.0,1.0,1.0,0.0,1.0,1.0,0.0,0.0,0.0,100.0,1.0,1.186,26.0,0.0,8.937,74.678,66.0,0.0,26.0,26.0,26.0,26.0,-0.53,0.52,0.01,385.1,-2.25,-2.6,-1.19,-1.82,-930.93,674.16,5.5,0.0,0.0,0.0,0.0,0.71,-7.49,-7.49,-0.54,0.05,-0.74,-0.41,30.09,-0.12,-0.26,10.34,100.0,0.0,0.0,87.0,0.0,0.0,0.0,0.0,0.0,0.0,0.0,5832.0,0.0,30.0,3.0,108.3,0.0,0.0,0.0,0.0,0.0,0.0,0.0,0.0,67.53,67.53,74.679,27.738,0.0,110.0,435.8,8750.0,0.0,0.0,110.0,110.0,433.0,0.0,0.0,0.0,1.0,333.3,78.0,78.0,72.1,72.1,34.0,-55.02,-13.32,-53.5,-10.7,1.0,-144.79,22.0,100.0,19.5,14.5,36.5,29.2,0.0,1.0,100.0,0.0,0.0,0.0,0.0,3951.0,2069.0,5146.0,3733.0,314.2,319.2,342.5,345.8,22.86,22.27,26.73,26.32,325.0,325.0,355.0,355.0,99.82,99.76,99.95,99.9,-1.0,-0.98,-0.77,-0.63,-0.1,-0.1,2.3,3.3,68.9,65.2,86.8,84.2,69.1,67.1,86.1,85.2,66.4,64.6,84.1,83.0,64.7,63.3,82.7,81.7,1.24,-1.26,0.07,0.07,0.0,92.74,91.86,87.0,87.0,356.7,7.7,0.7425631286294789,65.53851139276492,85.34410548465664,68.41932487400953,54.01525661425026,0
1352,67.55,1261.2,44.05448942921046,-78.68368886970285,1.8,-5.7,8.5,-5.2,2832.4,2832.0,109.2,0.0,1.0,1.0,0.0,1.0,1.0,0.0,0.0,0.0,100.0,1.0,1.186,26.0,0.0,8.937,74.678,66.0,0.0,26.0,26.0,26.0,26.0,-0.61,0.49,-0.01,385.1,-2.26,-2.6,-1.17,-1.88,-932.15,675.11,5.5,0.0,0.0,0.0,0.0,0.71,-7.49,-7.49,-0.53,0.06,-0.78,-0.68,30.36,-0.13,-0.26,11.67,100.0,0.0,0.0,87.76,0.0,0.0,0.0,0.0,0.0,0.0,0.0,5883.0,0.0,30.0,3.0,109.2,1.0,0.0,0.0,0.0,0.0,0.0,0.0,0.0,67.581,67.581,74.679,27.738,1.0,110.0,435.8,8750.0,0.0,0.0,110.0,110.0,433.0,0.0,0.0,0.0,1.0,333.3,78.1,78.1,72.1,72.1,34.0,-64.27,-15.62,-57.6,-11.4,1.0,-144.84,28.1,100.0,19.6,14.2,36.9,29.0,0.0,1.0,100.0,0.0,0.0,0.0,0.0,4095.0,1915.0,5263.0,3659.0,313.8,319.6,342.2,346.0,22.86,22.27,26.73,26.32,325.0,325.0,355.0,355.0,99.82,99.76,99.95,99.9,-1.27,-1.24,-0.83,-0.68,-0.1,-0.1,2.3,3.4,68.9,65.2,86.8,84.2,69.1,67.1,86.1,85.2,66.4,64.6,84.1,83.0,64.7,63.3,82.6,81.7,1.56,-1.6,0.06,0.07,0.0,93.58,92.59,87.76,87.76,356.7,7.7,0.7824960063795853,70.94003702573873,90.38552944670046,25.20711952570707,-3.601017562835551,0
1353,67.6,1262.7,44.05449860229084,-78.68370047095156,4.7,-8.1,11.8,-12.0,2834.0,2834.0,110.2,0.0,1.0,1.0,0.0,1.0,1.0,0.0,0.0,0.0,100.0,1.0,1.186,26.0,0.0,8.937,74.678,66.0,0.0,26.0,26.0,26.0,26.0,-0.72,0.53,-0.02,385.2,-2.23,-2.57,-1.11,-1.93,-933.44,676.13,5.5,0.0,0.0,0.0,0.0,0.71,-7.49,-7.49,-0.52,-0.06,-0.83,-1.23,30.63,-0.14,-0.26,14.24,100.0,0.0,0.0,88.65,0.0,0.0,0.0,0.0,0.0,0.0,0.0,5943.0,0.0,30.0,3.0,110.2,0.0,0.0,0.0,0.0,0.0,0.0,1.0,0.0,67.636,67.636,74.679,27.738,0.0,110.0,435.8,8750.0,0.0,0.0,110.0,110.0,433.0,0.0,0.0,0.0,1.0,166.7,78.3,78.3,72.2,72.2,34.0,-75.48,-17.63,-64.1,-12.7,1.0,-144.89,38.0,100.0,19.8,13.8,37.5,28.4,0.0,1.0,100.0,0.0,0.0,0.0,0.0,4299.0,1694.0,5421.0,3503.0,313.3,320.2,341.8,346.4,22.86,22.27,26.72,26.32,325.0,325.0,355.0,355.0,99.82,99.76,99.95,99.9,-1.69,-1.71,-0.92,-0.78,-0.1,-0.1,2.2,3.6,68.9,65.2,86.8,84.2,69.1,67.0,86.1,85.2,66.4,64.5,84.0,83.0,64.7,63.3,82.6,81.7,2.12,-2.17,0.06,0.07,0.0,94.47,93.29,88.65,88.65,356.7,7.7,0.8942594701763018,68.05922334533562,84.98400372837308,-32.409153797842976,-79.22237670898113,0
1354,67.65,1264.3,44.05450642638881,-78.68371009369274,8.6,-10.3,12.5,-16.8,2835.5,2836.0,111.0,0.0,1.0,1.0,0.0,1.0,1.0,0.0,0.0,0.0,100.0,1.0,1.186,26.0,0.0,8.937,74.678,66.0,0.0,26.0,26.0,26.0,26.0,-0.84,0.48,0.03,385.3,-2.24,-2.58,-1.05,-1.99,-934.51,677.0,5.5,0.0,0.0,0.0,0.0,0.71,-7.49,-7.49,-0.52,-0.27,-0.9,-1.38,30.85,-0.17,-0.26,17.12,100.0,0.0,0.0,89.4,0.0,0.0,0.0,0.0,0.0,0.0,0.0,5993.0,0.0,30.0,3.0,111.0,1.0,0.0,0.0,0.0,0.0,0.0,1.0,0.0,67.68,67.68,74.679,27.738,1.0,110.0,435.8,8750.0,0.0,0.0,110.0,110.0,433.0,0.0,0.0,0.0,1.0,166.7,78.3,78.3,72.4,72.4,34.0,-83.09,-17.64,-73.2,-15.1,1.0,-144.94,47.7,100.0,20.3,13.3,38.2,27.5,0.0,1.0,100.0,0.0,0.0,0.0,0.0,4516.0,1537.0,5567.0,3338.0,312.7,320.7,341.5,346.8,22.86,22.27,26.72,26.31,325.0,325.0,355.0,355.0,99.82,99.76,99.95,99.9,-2.15,-2.18,-1.09,-0.96,-0.1,-0.2,2.2,3.8,68.9,65.2,86.8,84.2,69.1,67.0,86.1,85.2,66.4,64.5,84.0,83.0,64.7,63.3,82.6,81.7,2.65,-2.73,0.06,0.08,0.0,95.27,93.8,89.4,89.4,356.7,7.7,0.9679359482941007,67.69912164595443,82.46329177580235,57.61627389257413,21.606103100918972,0
1355,67.7,1265.8,44.05451550953703,-78.68372106541634,14.5,-11.0,15.7,-23.7,2837.1,2837.0,111.9,0.0,1.0,1.0,0.0,1.0,1.0,0.0,0.0,0.0,100.0,1.0,1.186,26.0,0.0,8.931,74.678,66.0,0.0,26.0,26.0,26.0,26.0,-1.0,0.48,-0.04,385.3,-2.21,-2.59,-0.94,-2.06,-935.73,678.01,5.5,0.0,0.0,0.0,0.0,0.71,-7.49,-7.49,-0.52,-0.32,-0.99,-1.61,31.1,-0.23,-0.27,20.78,100.0,0.0,0.0,90.29,0.0,0.0,0.0,0.0,0.0,0.0,0.0,6053.0,0.0,30.0,3.0,111.9,0.0,0.0,0.0,0.0,0.0,0.0,1.0,0.0,67.731,67.731,74.679,27.738,0.0,110.0,435.8,8750.0,0.0,0.0,110.0,110.0,433.0,0.0,0.0,0.0,1.0,333.3,78.1,78.1,72.7,72.7,34.0,-86.77,-14.43,-85.5,-16.7,1.0,-144.99,58.3,100.0,21.0,12.7,38.9,26.3,0.0,1.0,100.0,0.0,0.0,0.0,0.0,4828.0,1263.0,5780.0,3109.0,311.8,321.4,341.0,347.3,22.86,22.27,26.72,26.31,325.0,325.0,355.0,355.0,99.82,99.76,99.95,99.9,-2.71,-2.78,-1.33,-1.21,-0.2,-0.2,2.3,4.2,68.9,65.2,86.8,84.2,69.1,67.0,86.1,85.2,66.5,64.5,84.0,82.9,64.7,63.2,82.6,81.6,3.26,-3.37,0.06,0.08,0.0,96.11,94.32,90.29,90.29,356.7,7.7,1.1099549540409286,73.82085073459304,87.14461403846498,82.82339341828134,39.61118806997874,0
1356,67.75,1267.4,44.054524862481735,-78.6837318572756,15.3,-13.8,16.2,-24.6,2838.6,2839.0,112.8,0.0,1.0,1.0,0.0,1.0,1.0,0.0,0.0,0.0,100.0,1.0,1.186,26.0,0.0,8.928,74.678,66.0,0.0,26.0,26.0,26.0,26.0,-1.12,0.48,0.03,385.4,-2.19,-2.6,-0.84,-2.15,-936.93,679.05,5.5,0.0,0.0,0.0,0.0,0.71,-7.49,-7.49,-0.52,-0.4,-1.07,-1.15,31.33,-0.32,-0.28,24.35,100.0,0.0,0.0,91.22,0.0,0.0,0.0,0.0,0.0,0.0,0.0,6115.0,0.0,30.0,3.0,112.8,1.0,0.0,0.0,0.0,0.0,0.0,1.0,0.0,67.781,67.781,74.679,27.738,1.0,110.0,435.8,8750.0,0.0,0.0,110.0,110.0,433.0,0.0,0.0,0.0,1.0,166.7,77.9,77.9,73.0,73.0,34.0,-81.89,-11.31,-96.4,-17.8,1.0,-145.04,68.4,100.0,21.8,12.0,39.8,25.1,0.0,1.0,100.0,0.0,0.0,0.0,0.0,5102.0,1113.0,5944.0,2926.0,311.1,321.9,340.6,347.8,22.86,22.27,26.72,26.31,325.0,325.0,355.0,355.0,99.82,99.76,99.95,99.9,-3.31,-3.42,-1.65,-1.54,-0.2,-0.2,2.4,4.7,68.9,65.2,86.8,84.2,69.2,67.0,86.1,85.1,66.5,64.5,84.0,82.9,64.8,63.2,82.6,81.6,3.83,-3.98,0.06,0.07,0.0,96.93,94.8,91.22,91.22,356.7,7.7,1.2188929403356146,75.98146098778257,86.42441058280022,43.21220534830232,-14.404068544271666,0
1357,67.8,1269.0,44.054534485222916,-78.68374264913487,12.9,-12.6,14.4,-21.2,2840.2,2840.0,113.6,0.0,1.0,1.0,0.0,1.0,1.0,0.0,0.0,0.0,100.0,1.0,1.186,26.0,0.0,8.922,74.678,66.0,0.0,26.0,26.0,26.0,26.0,-1.22,0.47,-0.04,385.5,-2.17,-2.6,-0.79,-2.23,-938.13,680.12,5.5,0.0,0.0,0.0,0.0,0.71,-7.49,-7.49,-0.51,-0.29,-1.13,-0.86,31.56,-0.46,-0.29,27.3,100.0,0.0,0.0,92.15,0.0,0.0,0.0,0.0,0.0,0.0,0.0,6177.0,0.0,30.0,3.0,113.6,0.0,0.0,0.0,0.0,0.0,0.0,1.0,0.0,67.833,67.833,74.679,27.738,0.0,110.0,435.8,8750.0,0.0,0.0,110.0,110.0,433.0,0.0,0.0,0.0,1.0,166.7,77.9,77.9,73.3,73.3,34.0,-67.84,-7.22,-103.9,-18.1,1.0,-145.09,77.1,100.0,22.4,11.4,40.5,24.0,0.0,1.0,100.0,0.0,0.0,0.0,0.0,5313.0,896.0,6081.0,2787.0,310.5,322.4,340.2,348.1,22.86,22.27,26.72,26.31,325.0,325.0,355.0,355.0,99.82,99.76,99.95,99.9,-3.94,-4.08,-2.01,-1.91,-0.3,-0.3,2.5,5.1,68.8,65.2,86.7,84.2,69.2,67.0,86.1,85.1,66.6,64.5,84.0,82.9,64.8,63.2,82.6,81.6,4.33,-4.52,0.07,0.08,0.0,97.58,95.22,92.15,92.15,356.7,7.7,1.3080137613954985,78.14207126942327,85.70420718403781,18.005085822595106,-43.212205063790776,0
1358,67.85,1270.6,44.054544377760585,-78.68375326112982,10.4,-13.7,12.8,-16.2,2841.8,2842.0,114.4,0.0,1.0,1.0,0.0,1.0,1.0,0.0,0.0,0.0,100.0,1.0,1.186,26.0,0.0,8.91,74.678,66.0,0.0,26.0,26.0,26.0,26.0,-1.29,0.46,0.02,385.6,-2.15,-2.58,-0.72,-2.31,-939.31,681.22,5.5,0.0,0.0,0.0,0.0,0.71,-7.49,-7.49,-0.5,-0.33,-1.17,-0.19,31.77,-0.62,-0.29,29.48,100.0,0.0,0.0,93.06,0.0,0.0,0.0,0.0,0.0,0.0,0.0,6238.0,0.0,30.0,3.0,114.4,1.0,0.0,0.0,0.0,0.0,0.0,1.0,0.0,67.884,67.884,74.679,27.738,1.0,110.0,435.8,8750.0,0.0,0.0,110.0,110.0,433.0,0.0,0.0,0.0,1.0,166.7,78.0,78.0,73.5,73.5,34.0,-47.52,-4.47,-106.4,-17.3,1.0,-145.14,84.8,100.0,22.9,10.7,41.1,23.2,0.0,1.0,100.0,0.0,0.0,0.0,0.0,5459.0,817.0,6199.0,2678.0,310.1,322.7,339.9,348.4,22.86,22.26,26.72,26.31,325.0,325.0,355.0,355.0,99.82,99.76,99.95,99.91,-4.61,-4.78,-2.39,-2.29,-0.3,-0.3,2.7,5.5,68.8,65.2,86.7,84.2,69.3,67.0,86.1,85.1,66.6,64.5,84.1,82.9,64.9,63.2,82.7,81.6,4.78,-5.0,0.06,0.08,0.0,98.21,95.64,93.06,93.06,356.7,7.7,1.3697079980784226,77.78196957004208,82.10319007642114,-7.20203427213562,-68.41932515852136,0
1359,67.9,1272.2,44.05455391056961,-78.68376315366748,6.4,-8.9,9.8,-9.8,2843.4,2843.0,115.1,0.0,1.0,1.0,0.0,1.0,1.0,0.0,0.0,0.0,100.0,1.0,1.186,26.0,0.0,8.898,74.678,66.0,0.0,26.0,26.0,26.0,26.0,-1.36,0.44,0.03,385.6,-2.12,-2.56,-0.68,-2.32,-940.41,682.28,5.5,0.0,0.0,0.0,0.0,0.71,-7.49,-7.49,-0.48,-0.31,-1.18,0.21,31.96,-0.8,-0.29,30.76,100.0,0.0,0.0,93.89,0.0,0.0,0.0,0.0,0.0,0.0,0.0,6294.0,0.0,30.0,3.0,115.1,0.0,0.0,0.0,0.0,0.0,0.0,1.0,0.0,67.931,67.931,74.679,27.738,0.0,110.0,435.8,8750.0,0.0,0.0,110.0,110.0,433.0,0.0,0.0,0.0,1.0,333.3,78.1,78.1,73.5,73.5,34.0,-26.97,-2.29,-103.3,-15.9,1.0,-145.19,91.8,100.0,23.2,10.3,41.6,22.7,0.0,1.0,100.0,0.0,0.0,0.0,0.0,5570.0,742.0,6287.0,2606.0,309.8,323.0,339.7,348.6,22.86,22.26,26.72,26.31,325.0,325.0,355.0,355.0,99.82,99.76,99.95,99.91,-5.24,-5.46,-2.72,-2.67,-0.4,-0.4,3.0,6.0,68.8,65.1,86.7,84.2,69.4,66.9,86.2,85.1,66.7,64.4,84.1,82.9,65.0,63.2,82.7,81.6,5.16,-5.43,0.05,0.09,0.0,98.69,96.0,93.89,93.89,356.7,7.7,1.4297202523570829,77.4218678422097,78.86227466818568,46.81322205760267,-21.606102531895175,0
1360,67.95,1273.8,44.05456371317511,-78.68377295627299,5.0,-9.1,8.4,-6.0,2845.0,2845.0,115.7,0.0,1.0,1.0,0.0,1.0,1.0,0.0,0.0,0.0,100.0,1.0,1.186,26.0,0.0,8.883,74.678,66.0,0.0,26.0,26.0,26.0,26.0,-1.41,0.43,0.02,385.5,-2.12,-2.53,-0.65,-2.35,-941.5,683.37,5.5,0.0,0.0,0.0,0.0,0.71,-7.49,-7.49,-0.46,-0.23,-1.18,0.33,32.15,-0.98,-0.3,31.48,100.0,0.0,0.0,94.67,0.0,0.0,0.0,0.0,0.0,0.0,0.0,6346.0,0.0,30.0,3.0,115.7,1.0,0.0,0.0,0.0,0.0,0.0,1.0,0.0,67.98,67.98,74.679,27.738,1.0,110.0,435.8,8750.0,0.0,0.0,110.0,110.0,433.0,0.0,0.0,0.0,1.0,333.3,78.1,78.1,73.5,73.5,34.0,-8.3,-0.79,-97.7,-14.5,1.0,-145.24,97.2,100.0,23.5,9.8,42.0,22.4,0.0,1.0,100.0,0.0,0.0,0.0,0.0,5670.0,725.0,6369.0,2568.0,309.5,323.0,339.5,348.7,22.86,22.26,26.72,26.31,325.0,325.0,355.0,355.0,99.82,99.76,99.95,99.91,-5.86,-6.13,-3.07,-3.0,-0.5,-0.4,3.2,6.3,68.8,65.1,86.7,84.2,69.5,66.9,86.2,85.1,66.8,64.4,84.1,82.9,65.1,63.2,82.7,81.6,5.47,-5.78,0.06,0.09,0.0,99.12,96.33,94.67,94.67,356.7,7.7,1.474245569774588,82.46329177580235,79.94257982323163,97.22746196255272,18.00508610710679,0
1361,68.0,1275.4,44.05457450503438,-78.68378311860714,6.3,-5.6,8.8,-5.0,2846.6,2847.0,116.4,0.0,1.0,1.0,0.0,1.0,1.0,0.0,0.0,0.0,100.0,1.0,1.186,26.0,0.0,8.871,74.678,66.0,0.0,26.0,26.0,26.0,26.0,-1.44,0.4,-0.02,385.5,-2.12,-2.52,-0.64,-2.38,-942.63,684.57,5.5,0.0,0.0,0.0,0.0,0.71,-7.49,-7.49,-0.44,-0.1,-1.18,0.42,32.33,-1.17,-0.3,31.72,100.0,0.0,0.0,95.51,0.0,0.0,0.0,0.0,0.0,0.0,0.0,6403.0,0.0,30.0,3.0,116.4,0.0,0.0,0.0,0.0,0.0,0.0,1.0,0.0,68.031,68.031,74.679,27.738,0.0,110.0,435.8,8750.0,0.0,0.0,110.0,110.0,433.0,0.0,0.0,0.0,1.0,333.3,78.0,78.0,73.4,73.4,34.0,6.72,0.21,-89.8,-12.3,1.0,-145.29,101.7,100.0,23.8,9.5,42.5,22.2,0.0,1.0,100.0,0.0,0.0,0.0,0.0,5769.0,648.0,6476.0,2512.0,309.2,323.2,339.3,348.8,22.86,22.26,26.72,26.31,325.0,325.0,355.0,355.0,99.82,99.76,99.95,99.91,-6.47,-6.72,-3.38,-3.34,-0.5,-0.6,3.5,6.6,68.8,65.1,86.7,84.2,69.7,66.9,86.3,85.1,67.0,64.4,84.2,82.9,65.2,63.2,82.8,81.6,5.74,-6.07,0.06,0.08,0.0,99.54,96.71,95.51,95.51,356.7,7.7,1.4946571513226703,87.14461403846498,80.66278327889636,43.21220563281443,-28.808136519519394,0
1362,68.05,1277.0,44.05458547675798,-78.68379310107697,5.1,-6.2,8.3,-2.6,2848.2,2848.0,117.1,0.0,1.0,1.0,0.0,1.0,1.0,0.0,0.0,0.0,100.0,1.0,1.186,26.0,0.0,8.862,74.678,66.0,0.0,26.0,26.0,26.0,26.0,-1.48,0.42,0.02,385.4,-2.14,-2.53,-0.63,-2.42,-943.74,685.79,5.5,0.0,0.0,0.0,0.0,0.72,-7.49,-7.49,-0.41,-0.0,-1.16,0.9,32.51,-1.35,-0.3,31.6,100.0,0.0,0.0,96.28,0.0,0.0,0.0,0.0,0.0,0.0,0.0,6454.0,0.0,30.0,3.0,117.1,1.0,0.0,0.0,0.0,0.0,0.0,1.0,0.0,68.081,68.081,74.679,27.738,1.0,110.0,435.8,8750.0,0.0,0.0,110.0,110.0,433.0,0.0,0.0,0.0,1.0,333.3,78.0,78.0,73.3,73.3,34.0,15.38,0.82,-79.1,-10.7,1.0,-145.34,104.8,100.0,24.1,9.2,42.9,22.1,0.0,1.0,100.0,0.0,0.0,0.0,0.0,5807.0,679.0,6513.0,2515.0,309.1,323.1,339.2,348.8,22.86,22.26,26.72,26.3,325.0,325.0,355.0,355.0,99.82,99.76,99.95,99.91,-6.98,-7.29,-3.69,-3.64,-0.6,-0.6,3.8,6.8,68.8,65.1,86.7,84.2,69.8,66.9,86.3,85.1,67.1,64.4,84.3,82.9,65.4,63.1,82.9,81.6,5.92,-6.27,0.05,0.09,0.0,99.93,97.08,96.28,96.28,356.7,7.7,1.5385707653533522,86.78451233908379,77.06176617127969,18.00508525357145,-50.41424018946145,0
1363,68.1,1278.6,44.05459617868509,-78.68380236408952,3.1,-2.0,6.4,0.4,2849.9,2850.0,117.7,0.0,1.0,1.0,0.0,1.0,1.0,0.0,0.0,0.0,100.0,1.0,1.186,26.0,0.0,8.847,74.678,66.0,0.0,26.0,26.0,26.0,26.0,-1.48,0.44,0.01,385.3,-2.34,-2.51,-0.59,-2.43,-944.77,686.98,5.5,0.0,0.0,0.0,0.0,0.72,-7.49,-7.49,-0.37,0.15,-1.12,0.87,32.67,-1.51,-0.31,31.22,100.0,0.0,0.0,96.97,0.0,0.0,0.0,0.0,0.0,0.0,0.0,6501.0,0.0,30.0,3.0,117.7,0.0,0.0,0.0,0.0,0.0,0.0,0.0,0.0,68.13,68.13,74.679,27.738,0.0,110.0,435.8,8750.0,0.0,0.0,110.0,110.0,433.0,0.0,0.0,0.0,1.0,333.3,78.0,78.0,72.9,72.9,34.0,18.53,1.1,-70.4,-9.3,1.0,-145.39,106.3,100.0,24.2,9.1,43.2,22.1,0.0,1.0,100.0,0.0,0.0,0.0,0.0,5728.0,697.0,6548.0,2531.0,309.2,323.1,339.1,348.8,22.86,22.26,26.71,26.3,325.0,325.0,355.0,355.0,99.82,99.76,99.95,99.91,-7.34,-7.69,-3.94,-3.9,-0.6,-0.7,4.0,7.1,68.8,65.1,86.7,84.1,70.0,66.9,86.4,85.1,67.3,64.4,84.4,82.9,65.5,63.1,82.9,81.6,6.0,-6.38,0.06,0.08,0.0,100.31,97.46,96.97,96.97,356.7,7.7,1.5440531078949324,88.94512256382212,75.62135925995021,68.41932487400967,-10.80305211948314,0
1364,68.15,1280.3,44.05460769000164,-78.68381198683069,1.4,-0.1,9.1,-1.2,2851.5,2852.0,118.3,0.0,1.0,1.0,0.0,1.0,1.0,0.0,0.0,0.0,100.0,1.0,1.186,26.0,0.0,8.832,74.678,66.0,0.0,26.0,26.0,26.0,26.0,-1.57,0.44,0.03,384.6,-1.7,-2.56,-0.54,-2.45,-945.84,688.26,5.5,0.0,0.0,0.0,0.0,0.72,-7.49,-7.49,-0.34,-0.15,-1.11,0.12,32.84,-1.65,-0.31,30.46,100.0,0.0,0.0,97.61,0.0,0.0,0.0,0.0,0.0,0.0,0.0,6543.0,0.0,30.0,3.0,118.3,1.0,0.0,0.0,0.0,0.0,0.0,0.0,0.0,68.181,68.181,74.679,27.738,1.0,110.0,435.8,8750.0,0.0,0.0,110.0,110.0,433.0,0.0,0.0,0.0,1.0,166.7,76.9,76.9,72.9,72.9,34.0,22.07,1.29,-63.4,-7.9,1.0,-145.44,106.8,100.0,24.3,9.1,43.6,22.0,0.0,1.0,100.0,0.0,0.0,0.0,0.0,6497.0,765.0,6743.0,2450.0,307.4,322.9,338.6,349.0,22.86,22.26,26.71,26.3,325.0,325.0,355.0,355.0,99.82,99.76,99.95,99.91,-7.68,-8.02,-4.14,-4.11,-0.6,-0.7,4.3,7.2,68.8,65.1,86.7,84.1,70.2,66.9,86.5,85.2,67.5,64.4,84.4,82.9,65.7,63.1,83.0,81.6,6.05,-6.42,0.05,0.07,0.0,100.69,97.9,97.6,97.6,356.7,7.7,1.6307666908543357,93.62644482648476,75.98146095933137,43.21220563281429,-36.01017050714347,0
1365,68.2,1281.9,44.05461956104684,-78.68382133977539,76.1,0.9,-2.6,2.1,2853.2,2853.0,118.9,0.0,1.0,1.0,0.0,1.0,1.0,0.0,0.0,0.0,100.0,1.0,1.186,26.0,0.0,8.817,74.678,66.0,0.0,26.0,26.0,26.0,26.0,-1.57,0.39,0.05,383.8,-1.86,-2.5,-0.52,-2.46,-946.88,689.58,5.5,0.0,0.0,0.0,0.0,0.72,-7.49,-7.49,-0.28,1.67,-1.04,3.03,32.99,-1.77,-0.33,31.43,100.0,0.0,0.0,98.37,0.0,0.0,0.0,0.0,0.0,0.0,0.0,6594.0,0.0,30.0,3.0,118.9,0.0,0.0,0.0,0.0,0.0,0.0,0.0,0.0,68.231,68.231,74.679,27.738,0.0,110.0,435.8,8750.0,0.0,0.0,110.0,110.0,433.0,0.0,0.0,0.0,1.0,333.3,74.4,74.4,77.1,77.1,34.0,24.34,0.69,-48.7,-7.0,1.0,-145.49,106.8,100.0,28.1,9.2,43.5,22.1,0.0,1.0,100.0,0.0,0.0,0.0,0.0,6991.0,457.0,6224.0,2663.0,305.9,323.7,339.8,348.5,22.86,22.26,26.71,26.3,325.0,325.0,355.0,355.0,99.82,99.76,99.96,99.91,-7.83,-8.19,-4.38,-4.34,-0.7,-0.7,4.5,7.4,68.8,65.1,86.7,84.1,70.4,66.9,86.6,85.2,67.7,64.4,84.5,82.9,65.9,63.1,83.1,81.6,6.02,-6.41,0.06,0.08,0.0,101.21,98.3,98.37,98.37,356.7,7.7,1.6184869477385353,93.26634312710355,72.02034220923586,18.00508553808328,-61.21729060187377,0
1366,68.25,1283.6,44.054630982431235,-78.68382997326282,6.6,-6.6,13.9,24.7,2854.8,2855.0,119.5,0.0,1.0,1.0,0.0,1.0,1.0,0.0,0.0,0.0,100.0,1.0,1.186,26.0,0.0,8.805,74.678,66.0,0.0,26.0,26.0,26.0,26.0,-1.67,0.46,0.11,382.7,-2.04,-2.73,-0.35,-2.33,-947.84,690.85,5.5,0.0,0.0,0.0,0.0,0.72,-7.49,-7.49,-0.15,1.67,-0.83,4.62,33.15,-1.86,-0.31,29.39,100.0,0.0,0.0,98.24,0.0,0.0,0.0,0.0,0.0,0.0,0.0,6586.0,0.0,30.0,3.0,119.5,1.0,0.0,0.0,0.0,0.0,0.0,0.0,0.0,68.28,68.28,74.679,27.738,1.0,110.0,435.8,8750.0,0.0,0.0,110.0,110.0,433.0,0.0,0.0,0.0,1.0,333.3,75.3,75.3,72.8,72.8,34.0,21.26,1.01,-64.4,-11.0,1.0,-145.54,106.8,100.0,28.4,8.8,44.2,23.4,0.0,1.0,100.0,0.0,0.0,0.0,0.0,6263.0,646.0,7445.0,3221.0,307.8,323.3,336.9,347.1,22.86,22.26,26.71,26.3,325.0,325.0,355.0,355.0,99.83,99.76,99.96,99.91,-8.1,-8.47,-4.49,-4.46,-0.7,-0.9,4.1,6.8,68.9,65.1,86.7,84.1,70.7,66.9,86.7,85.2,67.9,64.4,84.7,83.0,66.1,63.1,83.2,81.6,6.04,-6.42,0.04,0.07,0.0,101.54,98.64,98.24,98.24,356.7,7.7,1.735684303092011,95.42695338029309,69.859731899144,104.42949595017652,-5.690235127531196e-07,0
1367,68.3,1285.3,44.0546433930694,-78.68383878661454,-31.4,10.6,37.2,7.2,2856.5,2856.0,120.1,0.0,1.0,1.0,0.0,1.0,1.0,0.0,0.0,0.0,100.0,1.0,1.186,26.0,0.0,8.805,74.678,66.0,0.0,26.0,26.0,26.0,26.0,-1.54,0.43,0.03,383.8,-2.17,-2.58,-0.55,-2.14,-948.82,692.23,5.5,0.0,0.0,0.0,0.0,0.72,-7.49,-7.49,-0.1,-0.05,-0.66,3.27,33.32,-1.87,-0.32,26.32,100.0,0.0,0.0,98.84,0.0,0.0,0.0,0.0,0.0,0.0,0.0,6626.0,0.0,30.0,3.0,120.1,0.0,0.0,0.0,0.0,0.0,0.0,0.0,0.0,68.331,68.331,74.679,27.738,0.0,110.0,435.8,8750.0,0.0,0.0,110.0,110.0,433.0,0.0,0.0,0.0,1.0,333.3,76.9,76.9,70.0,70.0,34.0,18.02,1.1,-61.0,-8.3,1.0,-145.59,106.8,100.0,26.9,9.4,46.1,23.7,0.0,1.0,100.0,0.0,0.0,0.0,0.0,5495.0,676.0,6983.0,2378.0,309.9,323.1,338.0,349.1,22.86,22.25,26.71,26.3,325.0,325.0,355.0,355.0,99.83,99.76,99.96,99.91,-8.22,-8.6,-4.35,-4.3,-0.7,-0.9,4.2,6.7,68.9,65.1,86.7,84.1,70.9,66.9,86.8,85.2,68.1,64.4,84.8,83.0,66.3,63.1,83.3,81.7,6.03,-6.42,0.05,0.09,0.0,101.81,99.23,98.84,98.84,356.7,7.7,1.5991872935963443,103.7092927221212,72.02034215233351,72.02034215233354,-14.404067975248012,0
1368,68.35,1286.9,44.05465688289348,-78.68384795969493,-38.7,0.4,-18.5,-6.1,2858.2,2858.0,120.7,0.0,1.0,1.0,0.0,1.0,1.0,0.0,0.0,0.0,100.0,1.0,1.186,26.0,0.0,8.793,74.678,66.0,0.0,26.0,26.0,26.0,26.0,-1.46,0.43,-0.02,385.1,-2.22,-2.46,-0.63,-2.46,-949.84,693.73,5.5,0.0,0.0,0.0,0.0,0.72,-7.49,-7.49,-0.13,-1.28,-0.54,0.52,33.5,-1.87,-0.33,24.13,100.0,0.0,0.0,99.44,0.0,0.0,0.0,0.0,0.0,0.0,0.0,6666.0,0.0,30.0,3.0,120.7,1.0,0.0,0.0,0.0,0.0,0.0,0.0,0.0,68.386,68.386,74.679,27.738,1.0,110.0,435.8,8750.0,0.0,0.0,110.0,110.0,433.0,0.0,0.0,0.0,1.0,166.7,78.3,78.3,70.8,70.8,34.0,16.59,1.24,-54.6,-10.0,1.0,-145.64,106.8,100.0,24.9,9.4,45.2,23.4,0.0,1.0,100.0,0.0,0.0,0.0,0.0,5160.0,740.0,6415.0,2608.0,310.9,322.9,339.4,348.5,22.86,22.25,26.71,26.3,325.0,325.0,355.0,355.0,99.83,99.76,99.96,99.91,-8.29,-8.67,-4.23,-4.17,-0.7,-0.9,4.5,6.7,68.9,65.1,86.7,84.1,71.0,66.9,86.9,85.3,68.3,64.4,84.9,83.0,66.5,63.1,83.4,81.7,6.04,-6.42,0.05,0.07,0.0,102.17,99.81,99.44,99.44,356.7,7.7,1.5221366561514769,102.62898759552644,68.4193251016192,-54.01525632973829,-97.22746167804075,0
1369,68.4,1288.6,44.054669023735165,-78.68385587372507,-16.6,-2.2,-25.2,-25.8,2859.9,2860.0,121.3,0.0,1.0,1.0,0.0,1.0,1.0,0.0,0.0,0.0,100.0,1.0,1.186,26.0,0.0,8.778,74.678,66.0,0.0,26.0,26.0,26.0,26.0,-1.44,0.42,-0.02,385.9,-2.17,-2.48,-0.57,-2.46,-950.72,695.08,5.5,0.0,0.0,0.0,0.0,0.72,-7.49,-7.49,-0.19,-1.45,-0.56,-0.27,33.65,-1.86,-0.34,23.72,100.0,0.0,0.0,100.15,0.0,0.0,0.0,0.0,0.0,0.0,0.0,6713.0,0.0,30.0,3.0,121.3,0.0,0.0,0.0,0.0,0.0,0.0,0.0,0.0,68.433,68.433,74.679,27.738,0.0,110.0,435.8,8750.0,0.0,0.0,110.0,110.0,433.0,0.0,0.0,0.0,1.0,166.7,78.3,78.3,72.4,72.4,34.0,18.22,1.19,-52.9,-7.4,1.0,-145.69,106.7,100.0,24.1,9.3,43.9,22.1,0.0,1.0,100.0,0.0,0.0,0.0,0.0,5562.0,721.0,6371.0,2205.0,309.8,323.0,339.5,349.6,22.86,22.25,26.71,26.3,325.0,325.0,355.0,355.0,99.83,99.76,99.96,99.91,-8.28,-8.63,-4.15,-4.09,-0.7,-0.9,4.8,7.0,68.9,65.1,86.7,84.1,71.2,66.9,87.0,85.3,68.4,64.4,84.9,83.0,66.6,63.1,83.5,81.7,6.05,-6.42,0.06,0.08,0.0,102.6,100.31,100.15,100.15,356.7,7.7,1.500133327407934,98.30776708914738,62.29759598452944,7.202034272135762,-61.21729117089757,0
1370,68.45,1290.3,44.05468143437333,-78.68386351795871,-3.0,-0.3,-19.8,-24.6,2861.6,2862.0,121.9,0.0,1.0,1.0,0.0,1.0,1.0,0.0,0.0,0.0,100.0,1.0,1.186,26.0,0.0,8.769,74.678,66.0,0.0,26.0,26.0,26.0,26.0,-1.46,0.42,-0.04,386.5,-2.17,-2.46,-0.55,-2.44,-951.57,696.46,5.6,0.0,0.0,0.0,0.0,0.72,-7.49,-7.49,-0.22,-0.63,-0.54,0.73,33.81,-1.87,-0.35,24.61,100.0,0.0,0.0,100.77,0.0,0.0,0.0,0.0,0.0,0.0,0.0,6755.0,0.0,30.0,3.0,121.9,1.0,0.0,0.0,0.0,0.0,0.0,0.0,0.0,68.481,68.481,74.679,27.738,1.0,110.0,435.8,8750.0,0.0,0.0,110.0,110.0,433.0,0.0,0.0,0.0,1.0,166.7,78.3,78.3,73.4,73.4,34.0,18.44,1.25,-49.7,-6.9,1.0,-145.74,105.7,100.0,23.9,9.3,42.9,20.9,0.0,1.0,100.0,0.0,0.0,0.0,0.0,5598.0,745.0,6305.0,2247.0,309.7,322.9,339.7,349.5,22.86,22.25,26.71,26.29,325.0,325.0,355.0,355.0,99.83,99.76,99.96,99.91,-8.19,-8.54,-4.17,-4.11,-0.7,-0.8,4.9,7.2,68.9,65.1,86.7,84.1,71.4,66.9,87.1,85.3,68.6,64.4,85.0,83.0,66.8,63.1,83.6,81.7,5.99,-6.36,0.06,0.09,0.0,103.16,100.81,100.77,100.77,356.7,7.7,1.5197368193210297,103.34919102274002,62.29759598452944,100.82847867185265,0.0,0
1371,68.5,1292.0,44.054694834265256,-78.68387143198885,-6.5,-0.9,-7.3,0.1,2863.3,2863.0,122.5,0.0,1.0,1.0,0.0,1.0,1.0,0.0,0.0,0.0,100.0,1.0,1.186,26.0,0.0,8.754,74.678,66.0,0.0,26.0,26.0,26.0,26.0,-1.46,0.43,-0.07,386.6,-2.16,-2.48,-0.57,-2.4,-952.45,697.95,5.6,0.0,0.0,0.0,0.0,0.72,-7.49,-7.49,-0.23,-0.23,-0.52,0.13,33.98,-1.89,-0.33,24.87,100.0,0.0,0.0,101.16,0.0,0.0,0.0,0.0,0.0,0.0,0.0,6781.0,0.0,30.0,3.0,122.5,0.0,0.0,0.0,0.0,0.0,0.0,0.0,0.0,68.531,68.531,74.679,27.738,0.0,110.0,435.8,8750.0,0.0,0.0,110.0,110.0,433.0,0.0,0.0,0.0,1.0,166.7,78.8,78.8,73.0,73.0,34.0,17.5,1.19,-51.4,-7.8,1.0,-145.79,102.8,100.0,23.6,9.2,42.5,20.9,0.0,1.0,100.0,0.0,0.0,0.0,0.0,5366.0,708.0,6451.0,2415.0,310.3,323.0,339.3,349.1,22.86,22.25,26.71,26.29,325.0,325.0,355.0,355.0,99.83,99.76,99.96,99.91,-8.08,-8.4,-4.21,-4.14,-0.8,-0.9,4.8,7.1,68.9,65.1,86.7,84.1,71.6,66.9,87.2,85.3,68.8,64.4,85.1,83.0,67.0,63.1,83.7,81.7,5.84,-6.2,0.05,0.09,0.0,103.77,101.35,101.15,101.15,356.7,7.7,1.5236141243766415,108.39061495633264,62.29759598452944,36.0101710761667,-36.01017107616684,0
1372,68.55,1293.7,44.05470850395366,-78.6838790762225,-10.4,-10.5,3.6,7.5,2865.0,2865.0,123.1,0.0,1.0,1.0,0.0,1.0,1.0,0.0,0.0,0.0,100.0,1.0,1.186,26.0,0.0,8.745,74.678,66.0,0.0,26.0,26.0,26.0,26.0,-1.42,0.45,-0.09,386.9,-2.1,-2.48,-0.57,-2.4,-953.3,699.47,5.6,0.0,0.0,0.0,0.0,0.72,-7.49,-7.49,-0.25,-1.02,-0.51,0.72,34.16,-1.91,-0.32,23.42,100.0,0.0,0.0,101.47,0.0,0.0,0.0,0.0,0.0,0.0,0.0,6802.0,0.0,30.0,3.0,123.1,1.0,0.0,0.0,0.0,0.0,0.0,0.0,0.0,68.583,68.583,74.679,27.738,1.0,110.0,435.8,8750.0,0.0,0.0,110.0,110.0,433.0,0.0,0.0,0.0,1.0,166.7,79.9,79.9,73.2,73.2,34.0,17.07,0.48,-53.9,-9.3,1.0,-145.84,98.9,100.0,23.1,8.7,42.7,21.3,0.0,1.0,100.0,0.0,0.0,0.0,0.0,5267.0,348.0,6435.0,2524.0,310.6,324.0,339.3,348.8,22.86,22.25,26.71,26.29,325.0,325.0,355.0,355.0,99.83,99.76,99.96,99.91,-7.95,-8.28,-4.18,-4.11,-0.6,-1.0,4.7,6.8,68.9,65.1,86.7,84.1,71.8,66.9,87.3,85.3,69.0,64.4,85.2,83.1,67.2,63.1,83.8,81.7,5.63,-5.96,0.06,0.1,0.0,104.26,101.8,101.47,101.47,356.7,7.7,1.492313639956427,106.95020813035669,58.69657887691275,3.601017278323866,-54.01525661425012,0
1373,68.6,1295.5,44.05472154411695,-78.68388609093103,-3.4,-6.0,-0.9,8.6,2866.7,2867.0,123.7,0.0,1.0,1.0,0.0,1.0,1.0,0.0,0.0,0.0,100.0,1.0,1.186,26.0,0.0,8.733,74.678,66.0,0.0,26.0,26.0,26.0,26.0,-1.43,0.46,-0.08,386.8,-2.1,-2.51,-0.55,-2.4,-954.08,700.92,5.6,0.0,0.0,0.0,0.0,0.73,-7.49,-7.49,-0.31,-1.65,-0.47,0.67,34.33,-1.89,-0.33,22.09,100.0,0.0,0.0,101.82,0.0,0.0,0.0,0.0,0.0,0.0,0.0,6825.0,0.0,30.0,3.0,123.7,0.0,0.0,0.0,0.0,0.0,0.0,1.0,0.0,68.631,68.631,74.679,27.738,0.0,110.0,435.8,8750.0,0.0,0.0,110.0,110.0,433.0,0.0,0.0,0.0,1.0,333.3,79.6,79.6,73.7,73.7,34.0,18.31,0.73,-57.1,-9.9,1.0,-145.89,96.1,100.0,22.9,8.4,42.7,21.7,0.0,1.0,100.0,0.0,0.0,0.0,0.0,5558.0,484.0,6355.0,2379.0,309.8,323.6,339.5,349.1,22.86,22.25,26.71,26.29,325.0,325.0,355.0,355.0,99.83,99.76,99.96,99.91,-7.8,-8.07,-4.07,-3.99,-0.6,-1.0,4.6,6.6,68.9,65.1,86.7,84.1,72.0,66.9,87.4,85.3,69.1,64.4,85.3,83.1,67.3,63.1,83.9,81.7,5.48,-5.79,0.05,0.08,0.0,104.7,102.36,101.82,101.82,356.7,7.7,1.5042938542718307,108.75071668416503,56.896070323104425,32.40915408235466,-39.61118863900232,0
