,Time,Distance,GPS Latitude,GPS Longitude,Damper Velocity (Calc) FL,Damper Velocity (Calc) FR,Damper Velocity (Calc) RL,Damper Velocity (Calc) RR,Corr Dist,Corr Dist (Unstretched),Corr Speed,ABS Active,ABS Enabled,AID Allow Tire Blankets,AID Auto Blip,AID Auto Clutch,AID Auto Shift,AID Fuel Rate,AID Ideal Line,AID Mech Damage,AID Stability,AID Tire Wear Rate,Air Density,Air Temp,Ballast,Best Lap Delta,Best Lap Time,Brake Bias,Brake Pos,Brake Temp FL,Brake Temp FR,Brake Temp RL,Brake Temp RR,CG Accel Lateral,CG Accel Longitudinal,CG Accel Vertical,CG Height,Camber FL,Camber FR,Camber RL,Camber RR,Car Coord X,Car Coord Y,Car Coord Z,Car Damage Front,Car Damage Left,Car Damage Rear,Car Damage Right,Car Pos Norm,Caster FL,Caster FR,Chassis Pitch Angle,Chassis Pitch Rate,Chassis Roll Angle,Chassis Roll Rate,Chassis Velocity X,Chassis Velocity Y,Chassis Velocity Z,Chassis Yaw Rate,Clutch Pos,DRS Active,DRS Available,Drive Train Speed,ERS Heat Charging,ERS Is Charging,ERS Max Energy,ERS Power Level,ERS Recovery Level,Engine Brake Setting,Engine Limiter,Engine RPM,Flags,Fuel Level,Gear,Ground Speed,HR Sample Clock,In Pit,KERS Charge,KERS Deployed Energy,KERS Input,KERS Max Energy,LR Sample Clock,Lap Invalidated,Lap Time,Lap Time2,Last Lap Time,Last Sector Time,MR Sample Clock,Max Fuel,Max Power,Max RPM,Max Sus Travel FL,Max Sus Travel FR,Max Sus Travel RL,Max Sus Travel RR,Max Torque,Max Turbo Boost,Num Tires Off Track,Penalties Enabled,Position,Raw Data Sample Rate,Ride Height FL,Ride Height FR,Ride Height RL,Ride Height RR,Road Temp,Self Align Torque FL,Self Align Torque FR,Self Align Torque RL,Self Align Torque RR,Session Lap Count,Session Time Left,Steering Angle,Surface Grip,Suspension Travel FL,Suspension Travel FR,Suspension Travel RL,Suspension Travel RR,TC Active,TC Enabled,Throttle Pos,Tire Dirt Level FL,Tire Dirt Level FR,Tire Dirt Level RL,Tire Dirt Level RR,Tire Load FL,Tire Load FR,Tire Load RL,Tire Load RR,Tire Loaded Radius FL,Tire Loaded Radius FR,Tire Loaded Radius RL,Tire Loaded Radius RR,Tire Pressure FL,Tire Pressure FR,Tire Pressure RL,Tire Pressure RR,Tire Radius FL,Tire Radius FR,Tire Radius RL,Tire Radius RR,Tire Rubber Grip FL,Tire Rubber Grip FR,Tire Rubber Grip RL,Tire Rubber Grip RR,Tire Slip Angle FL,Tire Slip Angle FR,Tire Slip Angle RL,Tire Slip Angle RR,Tire Slip Ratio FL,Tire Slip Ratio FR,Tire Slip Ratio RL,Tire Slip Ratio RR,Tire Temp Core FL,Tire Temp Core FR,Tire Temp Core RL,Tire Temp Core RR,Tire Temp Inner FL,Tire Temp Inner FR,Tire Temp Inner RL,Tire Temp Inner RR,Tire Temp Middle FL,Tire Temp Middle FR,Tire Temp Middle RL,Tire Temp Middle RR,Tire Temp Outer FL,Tire Temp Outer FR,Tire Temp Outer RL,Tire Temp Outer RR,Toe In FL,Toe In FR,Toe In RL,Toe In RR,Turbo Boost,Wheel Angular Speed FL,Wheel Angular Speed FR,Wheel Angular Speed RL,Wheel Angular Speed RR,Wind Direction,Wind Speed,CG Distance,Lateral Velocity,Longitudinal Velocity,Lateral Acceleration,Longitudinal Acceleration,level,curve_number
46,2.25,105.5,44.05371430391832,-78.68169039723017,18.4,-133.7,-105.1,-84.8,1676.7,1677.0,168.2,0.0,1.0,1.0,0.0,1.0,1.0,0.0,0.0,0.0,100.0,1.0,1.186,26.0,0.0,2.076,74.678,66.0,100.0,26.0,26.0,26.0,26.0,0.58,-1.67,-0.09,380.9,-2.79,-2.87,-1.96,-1.26,-709.93,588.92,5.9,0.0,0.0,0.0,0.0,0.06,-7.49,-7.49,-0.93,-6.44,-0.14,-3.18,46.64,0.96,-1.05,-9.28,100.0,0.0,0.0,124.66,0.0,0.0,0.0,0.0,0.0,0.0,0.0,6650.0,0.0,30.0,4.0,168.2,1.0,0.0,0.0,0.0,0.0,0.0,0.0,0.0,2.28,2.28,74.679,19.926,1.0,110.0,435.8,8750.0,0.0,0.0,110.0,110.0,433.0,0.0,0.0,0.0,1.0,333.3,59.1,59.1,83.8,83.8,34.0,4.87,-7.62,3.1,26.4,1.0,-79.54,-21.0,100.0,26.3,30.9,24.2,37.0,0.0,1.0,0.0,0.0,0.0,0.0,0.0,4714.0,6713.0,964.0,2729.0,312.9,306.9,352.0,347.7,24.59,23.01,25.33,24.54,325.0,325.0,355.0,355.0,99.68,99.59,99.67,99.63,2.06,2.17,1.39,1.53,-8.2,-11.8,-5.3,-3.7,79.7,69.8,78.0,73.1,82.0,68.4,80.8,74.3,79.3,66.4,79.3,72.6,77.3,65.3,78.6,71.7,-1.19,1.2,0.1,0.06,0.0,129.85,126.25,123.01,126.32,356.7,7.7,1.7701412373028318,163.48617675407993,49.333934408489874,-18.005085822595106,21.606102531895175,0,0
47,2.3,107.8,44.0536929000641,-78.68168383218244,204.3,101.7,-174.3,-313.3,1679.0,1679.0,164.7,0.0,1.0,1.0,0.0,1.0,1.0,0.0,0.0,0.0,100.0,1.0,1.186,26.0,0.0,2.109,74.678,66.0,100.0,26.0,26.0,26.0,26.0,0.66,-1.75,0.18,383.2,-3.5,-3.34,-1.52,-0.99,-709.2,586.54,5.9,0.0,0.0,0.0,0.0,0.06,-7.49,-7.49,-0.89,7.06,-0.12,8.15,45.66,1.16,-1.05,-15.38,100.0,0.0,0.0,117.72,0.0,0.0,0.0,0.0,0.0,0.0,0.0,6279.0,0.0,30.0,4.0,164.7,0.0,0.0,0.0,0.0,0.0,0.0,0.0,0.0,2.334,2.334,74.679,19.926,0.0,110.0,435.8,8750.0,0.0,0.0,110.0,110.0,433.0,0.0,0.0,0.0,1.0,166.7,52.6,52.6,92.8,92.8,34.0,16.1,-6.51,-0.0,6.4,1.0,-79.59,-20.1,100.0,36.5,36.0,15.5,21.4,0.0,1.0,0.0,0.0,0.0,0.0,0.0,4077.0,5851.0,1596.0,2941.0,313.6,308.6,350.7,347.1,24.59,23.01,25.32,24.54,325.0,325.0,355.0,355.0,99.68,99.6,99.67,99.63,2.04,2.13,1.68,1.92,-6.1,-10.4,-9.4,-7.4,79.7,69.8,78.0,73.1,82.1,68.7,80.8,74.3,79.4,66.7,79.3,72.6,77.5,65.5,78.6,71.7,-1.14,1.18,0.11,0.09,0.0,129.56,125.86,115.6,119.84,356.7,7.7,1.8789624796679683,160.60536304522563,49.694036107871064,-154.84373585512685,-21.606103100918972,0,0
48,2.35,110.0,44.0536741941747,-78.681677986592,-305.8,-103.0,200.1,245.5,1681.2,1681.0,161.7,1.0,1.0,1.0,0.0,1.0,1.0,0.0,0.0,0.0,100.0,1.0,1.186,26.0,0.0,2.178,74.678,66.0,100.0,26.0,26.0,26.0,26.0,0.81,-1.57,0.11,382.4,-3.18,-1.84,-2.89,-2.08,-708.55,584.46,5.9,0.0,0.0,0.0,0.0,0.07,-7.49,-7.49,-0.66,1.04,0.34,9.25,44.84,1.33,-0.84,-12.62,100.0,0.0,0.0,120.32,0.0,0.0,0.0,0.0,0.0,0.0,0.0,6418.0,0.0,30.0,4.0,161.7,1.0,0.0,0.0,0.0,0.0,0.0,0.0,0.0,2.381,2.381,74.679,19.926,1.0,110.0,435.8,8750.0,0.0,0.0,110.0,110.0,433.0,0.0,0.0,0.0,1.0,333.3,65.5,65.5,72.1,72.1,34.0,-1.0,23.58,14.0,40.8,1.0,-79.64,-16.4,100.0,21.2,30.8,25.5,33.6,0.0,1.0,0.0,0.0,0.0,0.0,0.0,2282.0,6852.0,2647.0,3962.0,319.2,306.3,348.0,344.8,24.59,23.01,25.32,24.54,325.0,325.0,355.0,355.0,99.68,99.6,99.67,99.63,2.21,2.28,1.87,2.08,-14.7,-7.0,-5.0,-4.2,79.7,69.8,78.0,73.1,82.2,68.9,80.8,74.4,79.5,66.8,79.3,72.6,77.5,65.6,78.6,71.7,-0.99,0.99,0.08,0.05,0.0,119.12,128.25,119.34,121.29,356.7,7.7,1.7700564962734948,148.00180316856725,47.17332409839798,-111.631530222312,-7.2020345566474475,0,0
49,2.4,112.2,44.0536559379461,-78.68167205106941,-156.9,52.1,-131.1,-61.4,1683.5,1683.0,159.4,1.0,1.0,1.0,0.0,1.0,1.0,0.0,0.0,0.0,100.0,1.0,1.186,26.0,0.0,2.214,74.678,66.0,100.0,26.0,26.0,26.0,26.0,0.78,-1.5,-0.19,385.7,-3.28,-0.97,-2.47,-0.5,-707.89,582.43,5.9,0.0,0.0,0.0,0.0,0.07,-7.49,-7.49,-0.66,-0.72,0.31,-10.71,44.2,1.32,-0.74,-6.25,100.0,0.0,0.0,114.94,0.0,0.0,0.0,0.0,0.0,0.0,0.0,6131.0,0.0,30.0,4.0,159.4,0.0,0.0,0.0,0.0,0.0,0.0,0.0,0.0,2.43,2.43,74.679,19.926,0.0,110.0,435.8,8750.0,0.0,0.0,110.0,110.0,433.0,0.0,0.0,0.0,1.0,166.7,67.7,67.7,72.9,72.9,34.0,-0.54,19.6,-0.8,69.3,1.0,-79.69,-10.9,100.0,13.4,33.4,18.9,30.6,0.0,1.0,0.0,0.0,0.0,0.0,0.0,1335.0,8131.0,1814.0,5028.0,321.7,303.2,350.8,342.0,24.59,23.01,25.32,24.54,325.0,325.0,355.0,355.0,99.68,99.6,99.67,99.63,2.25,2.34,1.89,2.11,-13.8,-7.6,-11.9,-3.1,79.7,69.8,78.0,73.1,82.2,69.1,80.8,74.4,79.5,67.0,79.3,72.7,77.5,65.8,78.6,71.8,-0.69,0.68,0.11,0.06,0.0,118.18,125.92,108.99,120.89,356.7,7.7,1.7013230145977571,149.44221002299443,48.97383265220632,28.808136804030653,32.40915465137853,0,0
50,2.45,114.4,44.05363687232805,-78.68166575581817,185.1,-36.8,-5.8,-14.3,1685.6,1686.0,156.5,0.0,1.0,1.0,0.0,1.0,1.0,0.0,0.0,0.0,100.0,1.0,1.186,26.0,0.0,2.247,74.678,66.0,100.0,26.0,26.0,26.0,26.0,0.57,-1.77,-0.07,383.9,-2.5,-2.28,-1.72,-0.6,-707.19,580.31,5.9,0.0,0.0,0.0,0.0,0.07,-7.49,-7.49,-0.75,-2.32,-0.62,-19.08,43.39,1.13,-0.75,-4.96,100.0,0.0,0.0,112.32,0.0,0.0,0.0,0.0,0.0,0.0,0.0,5991.0,0.0,30.0,4.0,156.5,1.0,0.0,0.0,0.0,0.0,0.0,0.0,0.0,2.481,2.481,74.679,19.926,1.0,110.0,435.8,8750.0,0.0,0.0,110.0,110.0,433.0,0.0,0.0,0.0,1.0,166.7,60.1,60.1,85.9,85.9,34.0,24.29,-3.0,-1.4,12.3,1.0,-79.74,-5.0,100.0,22.6,31.6,18.7,29.9,0.0,1.0,0.0,0.0,0.0,0.0,0.0,6335.0,5154.0,2904.0,1845.0,308.9,310.6,348.0,349.9,24.59,23.01,25.32,24.54,325.0,325.0,355.0,355.0,99.68,99.6,99.67,99.63,1.73,1.89,1.71,1.89,-6.4,-9.8,-10.8,-4.8,79.7,69.8,78.0,73.1,82.3,69.2,80.9,74.4,79.5,67.2,79.3,72.7,77.6,66.0,78.6,71.8,-0.32,0.34,0.1,0.07,0.0,124.63,119.36,109.16,115.49,356.7,7.7,1.86083314673831,150.88261684897032,50.41423956353583,-61.21729117089785,5.690237259159403e-07,0,0
51,2.5,116.5,44.05361825637081,-78.68165946056692,229.9,28.7,58.1,-69.7,1687.8,1688.0,152.9,0.0,1.0,1.0,0.0,1.0,1.0,0.0,0.0,0.0,100.0,1.0,1.186,26.0,0.0,2.283,74.678,66.0,100.0,26.0,26.0,26.0,26.0,0.68,-1.84,0.18,379.5,-3.15,-2.75,-1.61,-0.48,-706.49,578.24,5.9,0.0,0.0,0.0,0.0,0.07,-7.49,-7.49,-0.83,0.63,-0.96,2.79,42.39,1.04,-0.88,-8.56,100.0,0.0,0.0,112.27,0.0,0.0,0.0,0.0,0.0,0.0,0.0,5989.0,0.0,30.0,4.0,152.9,0.0,0.0,0.0,0.0,0.0,0.0,0.0,0.0,2.531,2.531,74.679,19.926,0.0,110.0,435.8,8750.0,0.0,0.0,110.0,110.0,433.0,0.0,0.0,0.0,1.0,333.3,50.7,50.7,86.3,86.3,34.0,30.32,38.29,11.8,8.2,1.0,-79.79,-2.4,100.0,34.1,33.0,21.6,26.4,0.0,1.0,0.0,0.0,0.0,0.0,0.0,6282.0,7052.0,2542.0,2454.0,308.6,305.3,348.5,349.6,24.59,23.01,25.32,24.54,325.0,325.0,355.0,355.0,99.68,99.6,99.67,99.63,1.23,1.33,1.55,1.73,-4.6,-6.2,-5.3,-6.4,79.7,69.8,78.0,73.1,82.4,69.4,80.9,74.5,79.6,67.3,79.3,72.7,77.7,66.1,78.7,71.8,-0.14,0.16,0.1,0.08,0.0,123.31,122.68,112.48,112.07,356.7,7.7,1.9698730923589978,143.32048090590465,48.97383270910869,-68.41932487400896,-5.690236548616667e-07,0,0
52,2.55,118.6,44.05360107932814,-78.68165352504433,-160.2,23.4,63.3,38.7,1689.8,1690.0,149.7,0.0,1.0,1.0,0.0,1.0,1.0,0.0,0.0,0.0,100.0,1.0,1.186,26.0,0.0,2.358,74.678,66.0,100.0,26.0,26.0,26.0,26.0,0.66,-1.65,-0.08,381.2,-2.91,-1.65,-1.81,-0.62,-705.83,576.33,6.0,0.0,0.0,0.0,0.0,0.07,-7.49,-7.49,-0.81,-0.63,-0.51,9.7,41.52,1.0,-0.9,-5.9,100.0,0.0,0.0,112.17,0.0,0.0,0.0,0.0,0.0,0.0,0.0,5983.0,0.0,30.0,4.0,149.7,1.0,0.0,0.0,0.0,0.0,0.0,0.0,0.0,2.58,2.58,74.679,19.926,1.0,110.0,435.8,8750.0,0.0,0.0,110.0,110.0,433.0,0.0,0.0,0.0,1.0,166.7,60.8,60.8,74.3,74.3,34.0,-0.56,33.39,11.4,61.9,1.0,-79.84,-1.7,100.0,26.1,34.2,24.7,28.3,0.0,1.0,0.0,0.0,0.0,0.0,0.0,2114.0,7139.0,2499.0,4833.0,319.3,305.9,348.7,342.6,24.59,23.01,25.32,24.54,325.0,325.0,355.0,355.0,99.68,99.6,99.67,99.63,1.18,1.26,1.39,1.62,-11.8,-6.3,-4.9,-3.0,79.7,69.8,78.0,73.1,82.5,69.5,80.9,74.5,79.7,67.4,79.3,72.7,77.7,66.2,78.6,71.8,-0.09,0.12,0.09,0.08,0.0,114.25,119.96,110.8,113.53,356.7,7.7,1.7789041570584965,144.04068436156942,50.414239506633464,14.404068828783352,28.80813651951918,0,0
53,2.6,120.6,44.05358228350657,-78.68164687006444,-54.6,-4.9,-171.0,46.8,1691.9,1692.0,146.7,1.0,1.0,1.0,0.0,1.0,1.0,0.0,0.0,0.0,100.0,1.0,1.186,26.0,0.0,2.394,74.678,66.0,100.0,26.0,26.0,26.0,26.0,0.58,-1.53,-0.01,384.3,-3.43,-1.67,-1.53,-1.18,-705.09,574.24,6.0,0.0,0.0,0.0,0.0,0.07,-7.49,-7.49,-0.9,-0.41,-0.41,-4.72,40.68,0.81,-0.94,-2.64,100.0,0.0,0.0,105.21,0.0,0.0,0.0,0.0,0.0,0.0,0.0,5612.0,0.0,30.0,4.0,146.7,0.0,0.0,0.0,0.0,0.0,0.0,1.0,0.0,2.634,2.634,74.679,19.926,0.0,110.0,435.8,8750.0,0.0,0.0,110.0,110.0,433.0,0.0,0.0,0.0,1.0,166.7,58.2,58.2,88.6,88.6,34.0,-1.15,52.07,-0.1,28.7,1.0,-79.89,-2.8,100.0,23.4,33.9,16.2,30.6,0.0,1.0,0.0,0.0,0.0,0.0,0.0,4782.0,7574.0,333.0,2570.0,313.1,304.7,353.8,347.7,24.59,23.01,25.32,24.54,325.0,325.0,355.0,355.0,99.68,99.6,99.67,99.63,1.15,1.33,1.19,1.37,-13.3,-5.4,-12.2,-2.8,79.7,69.8,78.0,73.1,82.5,69.6,80.8,74.5,79.8,67.6,79.3,72.7,77.8,66.3,78.6,71.8,-0.14,0.17,0.11,0.07,0.0,107.4,118.44,99.39,111.03,356.7,7.7,1.636276260293475,144.76088778878298,51.85464636106061,-144.0406845891792,-28.808137088542907,0,0
54,2.65,122.6,44.05356492659958,-78.6816405748132,-41.4,-65.7,28.0,-153.3,1693.9,1694.0,143.9,0.0,1.0,1.0,0.0,1.0,1.0,0.0,0.0,0.0,100.0,1.0,1.186,26.0,0.0,2.433,74.678,66.0,100.0,26.0,26.0,26.0,26.0,0.35,-1.58,-0.27,389.1,-2.42,-2.72,-1.37,-1.29,-704.39,572.31,6.0,0.0,0.0,0.0,0.0,0.07,-7.49,-7.49,-0.77,2.38,-0.88,-11.55,39.92,0.69,-0.73,-2.69,100.0,0.0,0.0,103.9,0.0,0.0,0.0,0.0,0.0,0.0,0.0,5542.0,0.0,30.0,4.0,143.9,1.0,0.0,0.0,0.0,0.0,0.0,1.0,0.0,2.684,2.684,74.679,19.926,1.0,110.0,435.8,8750.0,0.0,0.0,110.0,110.0,433.0,0.0,0.0,0.0,1.0,166.7,68.1,68.1,84.6,84.6,34.0,-0.44,-1.83,4.3,2.5,1.0,-79.94,-5.0,100.0,21.3,30.7,17.6,23.0,0.0,1.0,0.0,0.0,0.0,0.0,0.0,2713.0,3713.0,2445.0,2827.0,317.4,314.4,348.1,348.0,24.59,23.01,25.32,24.54,325.0,325.0,355.0,355.0,99.68,99.6,99.67,99.63,1.25,1.27,1.02,1.31,-10.1,-10.3,-6.8,-8.3,79.7,69.8,78.0,73.1,82.6,69.8,80.8,74.5,79.8,67.7,79.3,72.7,77.8,66.4,78.6,71.8,-0.25,0.26,0.11,0.09,0.0,108.12,108.53,104.37,103.44,356.7,7.7,1.6406705946045357,129.6366159026515,47.533425797779174,-176.44983867153385,-46.81322262662633,0,0
55,2.7,124.6,44.05354990792876,-78.68163499901925,-75.6,-201.3,174.2,23.0,1695.8,1696.0,141.6,1.0,1.0,1.0,0.0,1.0,1.0,0.0,0.0,0.0,100.0,1.0,1.186,26.0,0.0,2.472,74.678,66.0,100.0,26.0,26.0,26.0,26.0,0.27,-1.05,-0.39,392.3,-2.73,-2.58,-1.89,-2.02,-703.77,570.64,6.0,0.0,0.0,0.0,0.0,0.07,-7.49,-7.49,-0.84,-5.38,-1.18,-2.73,39.28,0.6,-0.66,-1.34,100.0,0.0,0.0,104.89,0.0,0.0,0.0,0.0,0.0,0.0,0.0,5595.0,0.0,30.0,4.0,141.6,0.0,0.0,0.0,0.0,0.0,0.0,1.0,0.0,2.73,2.73,74.679,19.926,0.0,110.0,435.8,8750.0,0.0,0.0,110.0,110.0,433.0,0.0,0.0,0.0,1.0,333.3,78.3,78.3,82.2,82.2,34.0,-0.47,-1.47,6.7,8.9,1.0,-79.99,-9.0,100.0,17.6,20.6,26.3,24.1,0.0,1.0,0.0,0.0,0.0,0.0,0.0,2117.0,2575.0,2125.0,1704.0,320.0,318.0,349.5,350.3,24.59,23.01,25.32,24.54,325.0,325.0,355.0,355.0,99.68,99.6,99.67,99.63,1.33,1.36,0.86,1.05,-15.7,-12.6,-4.1,-5.0,79.7,69.8,78.0,73.1,82.7,69.8,80.8,74.5,79.9,67.7,79.3,72.7,77.9,66.5,78.6,71.8,-0.49,0.49,0.1,0.09,0.0,103.56,107.58,105.24,104.54,356.7,7.7,1.1521718621802912,127.1159039216296,47.17332409839798,28.808137088542765,18.005086107107005,0,0
56,2.75,126.5,44.05353318054689,-78.68162879370017,58.8,-27.9,-120.1,-82.0,1697.8,1698.0,139.1,0.0,1.0,1.0,0.0,1.0,1.0,0.0,0.0,0.0,100.0,1.0,1.186,26.0,0.0,-15.171,74.678,66.0,100.0,26.0,26.0,26.0,26.0,0.34,-1.54,-0.22,391.2,-2.36,-3.0,-1.93,-0.71,-703.08,568.78,6.0,0.0,0.0,0.0,0.0,0.08,-7.49,-7.49,-1.22,-7.56,-1.17,5.68,38.59,0.5,-0.73,-3.61,100.0,0.0,0.0,100.62,0.0,0.0,0.0,0.0,0.0,0.0,0.0,5367.0,0.0,30.0,4.0,139.1,1.0,0.0,0.0,0.0,0.0,0.0,1.0,0.0,2.781,2.781,74.679,19.926,1.0,110.0,435.8,8750.0,0.0,0.0,110.0,110.0,433.0,0.0,0.0,0.0,1.0,333.3,69.9,69.9,93.5,93.5,34.0,2.83,-3.11,1.5,1.6,1.0,-80.04,-17.3,100.0,20.5,19.2,20.3,20.0,0.0,1.0,0.0,0.0,0.0,0.0,0.0,5015.0,4688.0,1099.0,1904.0,311.9,312.4,351.6,350.2,24.59,23.01,25.32,24.54,325.0,325.0,355.0,355.0,99.68,99.6,99.67,99.63,1.4,1.53,0.72,0.91,-8.7,-10.3,-5.5,-8.0,79.7,69.8,78.0,73.1,82.7,69.9,80.8,74.5,79.9,67.8,79.3,72.7,77.9,66.6,78.6,71.8,-0.93,0.92,0.09,0.1,0.0,107.33,105.07,101.37,99.88,356.7,7.7,1.5923567439490436,132.51742961150578,49.333934408489874,25.207120094731152,21.606103100918972,0,0
57,2.8,128.4,44.05351681289366,-78.68162267831325,85.3,202.4,-210.5,-53.8,1699.7,1700.0,136.4,0.0,1.0,1.0,0.0,1.0,1.0,0.0,0.0,0.0,100.0,1.0,1.186,26.0,0.0,-16.128,74.678,66.0,100.0,26.0,26.0,26.0,26.0,0.43,-1.6,-0.13,389.2,-3.5,-1.96,-0.86,-0.31,-702.4,566.96,6.0,0.0,0.0,0.0,0.0,0.08,-7.49,-7.49,-1.4,-0.43,-0.8,4.82,37.82,0.47,-0.75,-6.22,100.0,0.0,0.0,95.28,0.0,0.0,0.0,0.0,0.0,0.0,0.0,5082.0,0.0,30.0,4.0,136.4,0.0,0.0,0.0,0.0,0.0,0.0,1.0,0.0,2.831,2.831,74.679,19.926,0.0,110.0,435.8,8750.0,0.0,0.0,110.0,110.0,433.0,0.0,0.0,0.0,1.0,333.3,61.4,61.4,96.2,96.2,34.0,-1.36,4.87,-0.1,-0.5,1.0,-80.09,-29.2,100.0,24.8,29.3,9.8,17.3,0.0,1.0,0.0,0.0,0.0,0.0,0.0,3835.0,6947.0,755.0,3727.0,315.6,306.3,353.1,345.9,24.59,23.01,25.32,24.54,325.0,325.0,355.0,355.0,99.68,99.6,99.67,99.63,1.91,2.03,0.74,1.02,-10.2,-8.6,-10.8,-9.9,79.7,69.8,78.0,73.1,82.8,70.1,80.8,74.5,80.0,67.9,79.2,72.7,78.0,66.7,78.6,71.8,-1.58,1.56,0.12,0.09,0.0,102.62,106.4,93.53,97.03,356.7,7.7,1.6618664206247145,129.6366159311027,49.333934408489874,-97.22746196255216,-14.404068544271453,0,0
58,2.85,130.3,44.053500804969076,-78.68161647299416,128.4,147.7,120.5,135.7,1701.5,1702.0,132.8,0.0,1.0,1.0,0.0,1.0,1.0,0.0,0.0,0.0,100.0,1.0,1.186,26.0,0.0,-16.524,74.678,66.0,100.0,26.0,26.0,26.0,26.0,0.84,-2.0,0.42,379.3,-3.67,-1.65,-1.1,-0.64,-701.71,565.18,6.0,0.0,0.0,0.0,0.0,0.08,-7.49,-7.49,-1.34,3.38,-0.59,6.77,36.82,0.41,-0.81,-12.43,100.0,0.0,0.0,98.27,0.0,0.0,0.0,0.0,0.0,0.0,0.0,5242.0,0.0,30.0,4.0,132.8,1.0,0.0,0.0,0.0,0.0,0.0,1.0,0.0,2.883,2.883,74.679,19.926,1.0,110.0,435.8,8750.0,0.0,0.0,110.0,110.0,433.0,0.0,0.0,0.0,1.0,166.7,50.8,50.8,86.1,86.1,34.0,9.07,50.13,2.6,37.1,1.0,-80.14,-39.5,100.0,31.2,36.7,15.8,24.1,0.0,1.0,0.0,0.0,0.0,0.0,0.0,5193.0,8245.0,1979.0,4397.0,311.4,302.6,349.3,343.7,24.59,23.01,25.32,24.54,325.0,325.0,355.0,355.0,99.68,99.6,99.67,99.63,2.28,2.38,0.87,1.15,-7.7,-6.1,-7.0,-3.9,79.7,69.8,78.0,73.1,82.9,70.2,80.8,74.5,80.1,68.1,79.2,72.8,78.1,66.8,78.5,71.9,-2.2,2.2,0.11,0.07,0.0,103.31,106.83,95.76,100.78,356.7,7.7,2.2095248357961492,122.79468341525056,47.89352755406273,-104.42949623468863,-18.00508553808328,0,0
59,2.9,132.1,44.0534861460269,-78.68161071733589,-165.3,-60.5,-18.1,111.4,1703.3,1703.0,130.2,1.0,1.0,1.0,0.0,1.0,1.0,0.0,0.0,0.0,100.0,1.0,1.186,26.0,0.0,-16.896,74.678,66.0,100.0,26.0,26.0,26.0,26.0,0.68,-1.73,-0.1,382.4,-3.03,-1.92,-0.89,0.66,-701.07,563.55,6.0,0.0,0.0,0.0,0.0,0.08,-7.49,-7.49,-1.15,2.78,-0.57,-6.01,36.1,0.47,-0.69,-12.24,100.0,0.0,0.0,96.86,0.0,0.0,0.0,0.0,0.0,0.0,0.0,5166.0,0.0,30.0,4.0,130.2,0.0,0.0,0.0,0.0,0.0,0.0,1.0,0.0,2.931,2.931,74.679,19.926,0.0,110.0,435.8,8750.0,0.0,0.0,110.0,110.0,433.0,0.0,0.0,0.0,1.0,333.3,63.3,63.3,82.0,82.0,34.0,3.67,-7.75,4.3,72.1,1.0,-80.19,-48.1,100.0,22.9,33.7,14.9,29.7,0.0,1.0,0.0,0.0,0.0,0.0,0.0,3073.0,5750.0,3349.0,6277.0,317.4,309.6,346.5,339.3,24.59,23.01,25.32,24.54,325.0,325.0,355.0,355.0,99.68,99.6,99.67,99.63,3.03,3.03,1.1,1.36,-7.6,-11.8,-7.7,-2.8,79.7,69.8,78.0,73.1,83.0,70.4,80.8,74.5,80.2,68.2,79.2,72.8,78.2,67.0,78.5,71.9,-2.75,2.69,0.11,0.07,0.0,99.75,97.35,93.85,99.87,356.7,7.7,1.861531627450901,119.19366630763385,47.533425854681546,-64.81830816470989,0.0,0,0
60,2.95,133.9,44.05347103742392,-78.68160460194896,24.5,-43.5,127.1,36.2,1705.1,1705.0,127.3,1.0,1.0,1.0,0.0,1.0,1.0,0.0,0.0,0.0,100.0,1.0,1.186,26.0,0.0,-17.256,74.678,66.0,100.0,26.0,26.0,26.0,26.0,0.89,-1.46,-0.03,382.3,-4.03,-2.86,-2.27,-1.14,-700.39,561.87,6.0,0.0,0.0,0.0,0.0,0.08,-7.49,-7.49,-1.17,-0.41,-0.78,-2.45,35.3,0.5,-0.74,-14.59,100.0,0.0,0.0,94.26,0.0,0.0,0.0,0.0,0.0,0.0,0.0,5028.0,0.0,30.0,4.0,127.3,1.0,0.0,0.0,0.0,0.0,0.0,1.0,0.0,2.981,2.981,74.679,19.926,1.0,110.0,435.8,8750.0,0.0,0.0,110.0,110.0,433.0,0.0,0.0,0.0,1.0,333.3,60.6,60.6,83.7,83.7,34.0,-4.53,4.09,3.2,29.0,1.0,-80.24,-61.1,100.0,24.1,31.5,21.2,31.5,0.0,1.0,0.0,0.0,0.0,0.0,0.0,5334.0,5927.0,1672.0,2715.0,312.4,308.3,350.7,347.5,24.59,23.01,25.32,24.54,325.0,325.0,355.0,355.0,99.68,99.6,99.67,99.63,3.54,3.66,1.3,1.44,-14.0,-6.9,-6.5,-3.1,79.7,69.8,78.0,73.1,83.1,70.6,80.7,74.5,80.3,68.4,79.2,72.8,78.3,67.1,78.5,71.9,-3.45,3.36,0.11,0.07,0.0,91.86,99.58,92.3,96.22,356.7,7.7,1.7101461925812074,116.31285259877957,47.89352755406273,-54.01525689876195,7.202033987623722,0,0
61,3.0,135.6,44.05345709793903,-78.68159875635853,-12.3,-52.3,-115.2,-105.0,1706.8,1707.0,124.9,1.0,1.0,1.0,0.0,1.0,1.0,0.0,0.0,0.0,100.0,1.0,1.186,26.0,0.0,-17.571,74.678,66.0,100.0,26.0,26.0,26.0,26.0,0.9,-1.45,-0.09,386.1,-2.36,-1.87,-1.05,-0.13,-699.74,560.32,6.0,0.0,0.0,0.0,0.0,0.08,-7.49,-7.49,-1.12,1.34,-0.7,2.26,34.65,0.66,-0.63,-17.61,100.0,0.0,0.0,90.64,0.0,0.0,0.0,0.0,0.0,0.0,0.0,4835.0,0.0,30.0,4.0,124.9,0.0,0.0,0.0,0.0,0.0,0.0,1.0,0.0,3.03,3.03,74.679,19.926,0.0,110.0,435.8,8750.0,0.0,0.0,110.0,110.0,433.0,0.0,0.0,0.0,1.0,166.7,63.9,63.9,87.0,87.0,34.0,-3.44,-14.11,-0.2,31.2,1.0,-80.29,-75.0,100.0,23.5,28.9,15.5,26.3,0.0,1.0,0.0,0.0,0.0,0.0,0.0,2895.0,6549.0,1805.0,3769.0,317.0,307.5,350.5,345.5,24.59,23.01,25.32,24.54,325.0,325.0,355.0,355.0,99.68,99.6,99.67,99.63,4.58,4.52,1.63,1.82,-13.0,-9.3,-9.6,-4.6,79.7,69.8,78.0,73.1,83.2,70.7,80.7,74.5,80.4,68.5,79.2,72.8,78.3,67.3,78.5,71.9,-4.28,4.13,0.11,0.08,0.0,89.41,95.89,87.23,94.06,356.7,7.7,1.7089763017666455,113.79214061775765,48.25362925344392,-21.606102531895175,21.606102531895388,0,0
62,3.05,137.3,44.053442618861176,-78.68159255103944,-34.7,47.5,108.7,45.6,1708.5,1709.0,122.2,1.0,1.0,1.0,0.0,1.0,1.0,0.0,0.0,0.0,100.0,1.0,1.186,26.0,0.0,-17.781,74.678,66.0,100.0,26.0,26.0,26.0,26.0,0.97,-1.37,0.09,383.7,-2.06,-1.36,-2.15,-0.71,-699.05,558.71,6.0,0.0,0.0,0.0,0.0,0.08,-7.49,-7.49,-1.16,-1.43,-0.61,3.06,33.9,0.75,-0.66,-19.49,100.0,0.0,0.0,89.74,0.0,0.0,0.0,0.0,0.0,0.0,0.0,4787.0,0.0,30.0,4.0,122.2,1.0,0.0,0.0,0.0,0.0,0.0,1.0,0.0,3.081,3.081,74.679,19.926,1.0,110.0,435.8,8750.0,0.0,0.0,110.0,110.0,433.0,0.0,0.0,0.0,1.0,333.3,61.9,61.9,79.3,79.3,34.0,-3.7,-18.84,3.6,23.2,1.0,-80.34,-89.6,100.0,21.8,31.3,20.9,28.5,0.0,1.0,0.0,0.0,0.0,0.0,0.0,3136.0,7869.0,1291.0,3039.0,316.5,304.3,351.3,347.0,24.59,23.01,25.32,24.54,325.0,325.0,355.0,355.0,99.68,99.6,99.67,99.63,5.61,5.46,1.88,2.05,-16.4,-9.4,-6.4,-4.8,79.7,69.8,78.0,73.1,83.3,70.9,80.7,74.5,80.4,68.7,79.2,72.8,78.4,67.5,78.5,71.9,-5.17,4.96,0.1,0.08,0.0,88.44,93.64,87.86,91.62,356.7,7.7,1.681041343929411,114.15224234559005,50.05413780725227,-28.80813651951911,25.207119525707355,0,0
63,3.1,139.0,44.053428589444124,-78.6815862557882,40.6,46.6,-113.1,-8.5,1710.2,1710.0,119.7,1.0,1.0,1.0,0.0,1.0,1.0,0.0,0.0,0.0,100.0,1.0,1.186,26.0,0.0,-17.967,74.678,66.0,100.0,26.0,26.0,26.0,26.0,1.02,-1.29,0.02,384.2,-2.7,-3.37,-1.83,-0.65,-698.35,557.15,6.0,0.0,0.0,0.0,0.0,0.08,-7.49,-7.49,-1.16,1.35,-0.62,-0.53,33.21,0.88,-0.65,-21.77,100.0,0.0,0.0,85.39,0.0,0.0,0.0,0.0,0.0,0.0,0.0,4555.0,0.0,30.0,4.0,119.7,0.0,0.0,0.0,0.0,0.0,0.0,0.0,0.0,3.131,3.131,74.679,19.926,0.0,110.0,435.8,8750.0,0.0,0.0,110.0,110.0,433.0,0.0,0.0,0.0,1.0,333.3,60.2,60.2,87.4,87.4,34.0,-5.78,-16.0,-0.4,47.0,1.0,-80.39,-105.3,100.0,23.8,33.6,15.3,28.1,0.0,1.0,0.0,0.0,0.0,0.0,0.0,3915.0,6351.0,847.0,4157.0,315.2,307.1,352.6,344.4,24.59,23.01,25.32,24.54,325.0,325.0,355.0,355.0,99.68,99.61,99.67,99.63,6.62,6.42,2.3,2.45,-14.0,-9.9,-13.2,-3.7,79.7,69.8,78.0,73.1,83.4,71.2,80.7,74.6,80.5,69.0,79.2,72.8,78.5,67.7,78.5,71.9,-6.1,5.8,0.12,0.08,0.0,89.11,90.44,79.57,91.2,356.7,7.7,1.6446580191638627,110.91132696580574,50.774341206014654,-90.02542769041696,-3.6010169938120384,0,0
64,3.15,140.6,44.05341491975571,-78.6815798706048,-30.1,-86.6,-42.6,144.7,1711.8,1712.0,117.5,1.0,1.0,1.0,0.0,1.0,1.0,0.0,0.0,0.0,100.0,1.0,1.186,26.0,0.0,-18.135,74.678,66.0,100.0,26.0,26.0,26.0,26.0,0.89,-0.98,-0.02,386.1,-1.91,-2.13,-2.4,-0.23,-697.64,555.63,6.0,0.0,0.0,0.0,0.0,0.08,-7.49,-7.49,-1.13,-0.32,-0.48,1.13,32.58,1.0,-0.62,-21.48,100.0,0.0,0.0,84.16,0.0,0.0,0.0,0.0,0.0,0.0,0.0,4489.0,0.0,30.0,4.0,117.5,1.0,0.0,0.0,0.0,0.0,0.0,0.0,0.0,3.183,3.183,74.679,19.926,1.0,110.0,435.8,8750.0,0.0,0.0,110.0,110.0,433.0,0.0,0.0,0.0,1.0,166.7,66.3,66.3,89.3,89.3,34.0,-1.9,-14.28,-0.3,50.0,1.0,-80.44,-121.9,100.0,22.3,29.3,13.1,35.3,0.0,1.0,0.0,0.0,0.0,0.0,0.0,1474.0,6693.0,666.0,4025.0,321.0,307.4,353.5,344.4,24.59,23.01,25.32,24.54,325.0,325.0,355.0,355.0,99.68,99.61,99.67,99.63,7.96,7.6,2.52,2.67,-15.5,-14.7,-13.0,-3.2,79.7,69.8,78.0,73.1,83.5,71.4,80.7,74.6,80.6,69.2,79.2,72.8,78.6,67.9,78.5,72.0,-7.14,6.72,0.11,0.06,0.0,84.14,88.92,79.77,88.54,356.7,7.7,1.323971298782568,105.14969957654836,49.694036107871064,-86.42441069660492,-3.6010164247882415,0,0
65,3.2,142.2,44.05340232925323,-78.68157384515004,-70.4,48.1,77.8,-96.7,1713.4,1713.0,115.3,1.0,1.0,1.0,0.0,1.0,1.0,0.0,0.0,0.0,100.0,1.0,1.186,26.0,0.0,-18.324,74.678,66.0,100.0,26.0,26.0,26.0,26.0,0.96,-1.28,-0.12,385.7,-1.72,-2.66,-2.13,-1.22,-696.97,554.23,6.0,0.0,0.0,0.0,0.0,0.09,-7.49,-7.49,-1.18,-0.89,-0.59,-2.75,31.96,1.1,-0.62,-22.93,100.0,0.0,0.0,82.95,0.0,0.0,0.0,0.0,0.0,0.0,0.0,4425.0,0.0,30.0,4.0,115.3,0.0,0.0,0.0,0.0,0.0,0.0,0.0,0.0,3.231,3.231,74.679,19.926,0.0,110.0,435.8,8750.0,0.0,0.0,110.0,110.0,433.0,0.0,0.0,0.0,1.0,333.3,65.8,65.8,77.9,77.9,34.0,-2.85,-16.91,-1.0,10.3,1.0,-80.49,-140.2,100.0,18.8,31.7,17.0,30.5,0.0,1.0,0.0,0.0,0.0,0.0,0.0,2245.0,6907.0,2406.0,2716.0,319.2,306.4,348.6,348.0,24.59,23.01,25.32,24.54,325.0,325.0,355.0,355.0,99.68,99.61,99.67,99.63,9.23,8.78,2.85,2.96,-20.9,-13.4,-9.3,-5.9,79.7,69.8,78.0,73.1,83.6,71.7,80.7,74.6,80.7,69.4,79.2,72.9,78.6,68.1,78.5,72.0,-8.26,7.7,0.11,0.07,0.0,77.72,83.25,80.81,85.1,356.7,7.7,1.6044936896105264,102.26888589614525,50.41423956353583,-28.80813680403108,28.808136519519252,0,0
66,3.25,143.8,44.0533893790221,-78.68156728010231,42.3,2.1,-73.8,-46.1,1715.0,1715.0,113.1,1.0,1.0,1.0,0.0,1.0,1.0,0.0,0.0,0.0,100.0,1.0,1.186,26.0,0.0,-18.48,74.678,66.0,100.0,26.0,26.0,26.0,26.0,1.23,-1.2,-0.03,384.9,-2.35,-2.7,-2.99,0.21,-696.24,552.79,6.0,0.0,0.0,0.0,0.0,0.09,-7.49,-7.49,-1.18,1.68,-0.56,0.64,31.34,1.27,-0.59,-26.85,100.0,0.0,0.0,82.45,0.0,0.0,0.0,0.0,0.0,0.0,0.0,5472.0,0.0,30.0,0.0,113.1,1.0,0.0,0.0,0.0,0.0,0.0,0.0,0.0,3.281,3.281,74.679,19.926,1.0,110.0,435.8,8750.0,0.0,0.0,110.0,110.0,433.0,0.0,0.0,0.0,1.0,333.3,63.4,63.4,86.2,86.2,34.0,-6.34,-17.22,-1.0,51.0,1.0,-80.54,-163.3,100.0,20.9,31.8,13.3,28.2,0.0,1.0,50.0,0.0,0.0,0.0,0.0,3135.0,6787.0,1273.0,5478.0,316.9,306.3,351.7,341.1,24.59,23.01,25.32,24.54,325.0,325.0,355.0,355.0,99.68,99.61,99.67,99.63,10.71,10.08,3.42,3.52,-9.8,-13.9,-11.5,-3.8,79.7,69.8,78.0,73.1,83.7,72.0,80.7,74.7,80.8,69.7,79.2,72.9,78.8,68.4,78.5,72.0,-9.65,8.92,0.12,0.07,0.0,85.85,80.8,78.7,86.2,356.7,7.7,1.7186622704883003,102.26888589614525,52.57484975982299,-28.808137088542907,28.80813651951911,0,0
67,3.3,145.3,44.05337678851962,-78.6815607150546,27.1,-4.5,-28.8,96.9,1716.5,1717.0,110.9,1.0,1.0,1.0,0.0,1.0,1.0,0.0,0.0,0.0,100.0,1.0,1.186,26.0,0.0,-18.618,74.678,66.0,100.0,26.0,26.0,26.0,26.0,1.32,-1.26,0.14,383.3,-2.27,-3.78,-2.01,-0.79,-695.51,551.39,6.0,0.0,0.0,0.0,0.0,0.09,-7.49,-7.49,-1.09,2.7,-0.56,-0.45,30.74,1.41,-0.55,-28.07,100.0,0.0,0.0,80.79,0.0,0.0,0.0,0.0,0.0,0.0,0.0,6211.0,0.0,30.0,0.0,110.9,0.0,0.0,0.0,0.0,0.0,0.0,0.0,0.0,3.333,3.333,74.679,19.926,0.0,110.0,435.8,8750.0,0.0,0.0,110.0,110.0,433.0,0.0,0.0,0.0,1.0,166.7,61.5,61.5,88.0,88.0,34.0,-9.06,-16.54,-1.2,32.6,1.0,-80.59,-188.2,100.0,22.3,31.5,11.9,33.0,0.0,1.0,5.5,0.0,0.0,0.0,0.0,4075.0,6729.0,1720.0,5136.0,314.6,306.0,350.8,341.6,24.59,23.02,25.32,24.54,325.0,325.0,355.0,355.0,99.68,99.61,99.67,99.63,12.51,11.65,3.78,3.9,-9.5,-17.3,-8.7,-4.2,79.7,69.8,78.0,73.1,83.8,72.3,80.7,74.7,81.0,70.0,79.1,73.0,78.9,68.7,78.4,72.1,-11.22,10.26,0.11,0.07,0.0,79.36,80.44,77.5,84.08,356.7,7.7,1.8301912468373354,99.38807218729096,53.29505321548774,-82.8233934182812,3.6010175628356222,0,0
68,3.35,146.8,44.05336455774578,-78.68155397014255,-51.0,-23.0,68.0,22.7,1718.0,1718.0,108.8,1.0,1.0,1.0,0.0,1.0,1.0,0.0,0.0,0.0,100.0,1.0,1.186,26.0,0.0,-18.618,74.678,66.0,100.0,26.0,26.0,26.0,26.0,1.16,-0.98,-0.07,385.0,-1.93,-2.85,-2.8,-0.35,-694.76,550.03,6.0,0.0,0.0,0.0,0.0,0.09,-7.49,-7.49,-0.98,0.86,-0.4,2.04,30.15,1.57,-0.52,-27.71,100.0,0.0,0.0,77.38,0.0,0.0,0.0,0.0,0.0,0.0,0.0,5970.0,0.0,30.0,0.0,108.8,1.0,0.0,0.0,0.0,0.0,0.0,0.0,0.0,3.384,3.384,74.679,19.926,1.0,110.0,435.8,8750.0,0.0,0.0,110.0,110.0,433.0,0.0,0.0,0.0,1.0,166.7,67.3,67.3,81.0,81.0,34.0,-2.36,-20.18,-1.6,24.7,1.0,-80.64,-212.7,100.0,19.7,30.4,15.3,34.2,0.0,1.0,0.0,0.0,0.0,0.0,0.0,1559.0,6813.0,1811.0,4982.0,321.1,306.7,350.8,342.0,24.59,23.02,25.32,24.54,325.0,325.0,355.0,355.0,99.69,99.61,99.67,99.63,14.55,13.39,4.07,4.19,-17.5,-8.5,-12.5,-4.3,79.7,69.8,78.0,73.1,84.0,72.7,80.7,74.8,81.1,70.4,79.2,73.0,79.0,69.0,78.5,72.1,-12.89,11.64,0.11,0.07,0.0,74.11,85.17,72.66,82.1,356.7,7.7,1.520164464786623,93.98654655431713,52.93495151610655,-108.03051322850038,-10.803051550459486,0,0
69,3.4,148.3,44.0533533162257,-78.68154749502699,-77.3,86.9,56.7,16.6,1719.5,1720.0,107.1,1.0,1.0,1.0,0.0,1.0,1.0,0.0,0.0,0.0,100.0,1.0,1.186,26.0,0.0,-18.738,74.678,66.0,70.3,26.0,26.0,26.0,26.0,1.42,-1.05,0.22,382.2,-1.29,-1.72,-2.51,-0.02,-694.04,548.78,6.0,0.0,0.0,0.0,0.0,0.09,-7.49,-7.49,-0.97,-0.41,-0.51,-6.47,29.66,1.57,-0.53,-23.53,100.0,0.0,0.0,79.69,0.0,0.0,0.0,0.0,0.0,0.0,0.0,5342.0,0.0,30.0,3.0,107.1,0.0,0.0,0.0,0.0,0.0,0.0,0.0,0.0,3.431,3.431,74.679,19.926,0.0,110.0,435.8,8750.0,0.0,0.0,110.0,110.0,433.0,0.0,0.0,0.0,1.0,333.3,66.5,66.5,70.4,70.4,34.0,-3.33,-22.01,8.0,39.9,1.0,-80.69,-236.8,100.0,15.8,34.7,18.1,35.0,0.0,1.0,0.0,0.0,0.0,0.0,0.0,1890.0,7317.0,2887.0,5975.0,320.5,305.3,347.7,339.5,24.58,23.02,25.32,24.54,325.0,325.0,355.0,355.0,99.69,99.61,99.67,99.63,16.45,15.01,4.1,4.27,-13.7,-8.2,-5.7,-3.6,79.7,69.9,78.0,73.1,84.0,73.1,80.7,74.8,81.1,70.8,79.2,73.1,79.1,69.4,78.4,72.2,-14.48,12.85,0.1,0.07,0.0,75.6,83.33,77.89,81.49,356.7,7.7,1.7796909844127435,88.58502086444092,52.21474806044179,-28.808137088542765,36.01017107616684,0,0
70,3.45,149.8,44.05334243443428,-78.68154092997926,129.5,0.2,-25.8,-86.7,1721.0,1721.0,105.3,1.0,1.0,1.0,0.0,1.0,1.0,0.0,0.0,0.0,100.0,1.0,1.186,26.0,0.0,-18.843,74.678,66.0,36.4,26.0,26.0,26.0,26.0,1.43,-1.0,0.09,382.5,-1.62,-2.91,-1.92,0.87,-693.31,547.57,6.0,0.0,0.0,0.0,0.0,0.09,-7.49,-7.49,-0.95,3.2,-0.76,-2.2,29.18,1.54,-0.55,-27.11,100.0,0.0,0.0,78.55,0.0,0.0,0.0,0.0,0.0,0.0,0.0,5265.0,0.0,30.0,3.0,105.3,1.0,0.0,0.0,0.0,0.0,0.0,0.0,0.0,3.48,3.48,74.679,19.926,1.0,110.0,435.8,8750.0,0.0,0.0,110.0,110.0,433.0,0.0,0.0,0.0,1.0,333.3,61.0,61.0,81.6,81.6,34.0,-8.76,-19.19,0.5,41.1,1.0,-80.74,-255.9,100.0,22.3,34.7,16.8,30.7,0.0,1.0,0.0,0.0,0.0,0.0,0.0,3914.0,6612.0,1400.0,5085.0,314.9,306.8,351.4,341.9,24.58,23.02,25.31,24.54,325.0,325.0,355.0,355.0,99.69,99.61,99.67,99.63,17.48,15.86,4.28,4.34,-12.3,-10.9,-6.8,-2.6,79.7,69.9,78.0,73.1,84.2,73.6,80.7,74.9,81.3,71.2,79.1,73.1,79.2,69.8,78.4,72.2,-15.76,13.93,0.11,0.06,0.0,75.66,77.79,75.75,81.34,356.7,7.7,1.7472836060582724,91.10573284546285,56.535968623723235,2.8451182743083336e-07,54.01525661425026,0,0
71,3.5,151.2,44.053330563389075,-78.68153337567777,-28.9,-48.8,-81.1,117.9,1722.4,1722.0,103.7,0.0,1.0,1.0,0.0,1.0,1.0,0.0,0.0,0.0,100.0,1.0,1.186,26.0,0.0,-18.942,74.678,66.0,11.1,26.0,26.0,26.0,26.0,1.43,-0.62,-0.0,384.2,-1.75,-3.51,-1.31,0.37,-692.47,546.25,6.0,0.0,0.0,0.0,0.0,0.09,-7.49,-7.49,-0.72,4.68,-0.74,-1.55,28.74,1.54,-0.45,-26.35,100.0,0.0,0.0,78.99,0.0,0.0,0.0,0.0,0.0,0.0,0.0,5295.0,0.0,30.0,3.0,103.7,0.0,0.0,0.0,0.0,0.0,0.0,0.0,0.0,3.534,3.534,74.679,19.926,0.0,110.0,435.8,8750.0,0.0,0.0,110.0,110.0,433.0,0.0,0.0,0.0,1.0,166.7,68.5,68.5,84.5,84.5,34.0,-2.75,-13.88,5.3,81.2,1.0,-80.79,-270.0,100.0,20.9,32.3,12.8,36.6,0.0,1.0,0.0,0.0,0.0,0.0,0.0,1610.0,4890.0,1460.0,7518.0,321.2,311.3,351.2,335.7,24.58,23.02,25.31,24.54,325.0,325.0,355.0,355.0,99.69,99.62,99.67,99.64,18.64,16.68,4.3,4.41,-11.0,-6.7,-4.2,-1.3,79.7,69.9,78.0,73.1,84.4,74.0,80.7,75.0,81.5,71.5,79.1,73.2,79.4,70.1,78.4,72.3,-16.84,14.77,0.1,0.07,0.0,73.56,80.38,76.93,81.04,356.7,7.7,1.5586211855354717,88.5850208928921,57.61627372186682,-75.62135914614558,10.803050981435831,0,0
72,3.55,152.6,44.05332031112277,-78.68152654083357,-82.9,-185.0,138.7,70.0,1723.8,1724.0,102.7,0.0,1.0,1.0,0.0,1.0,1.0,0.0,0.0,0.0,100.0,1.0,1.186,26.0,0.0,-19.035,74.678,66.0,2.0,26.0,26.0,26.0,26.0,1.48,-0.42,0.03,384.9,-2.02,-2.31,-2.41,0.15,-691.71,545.11,6.0,0.0,0.0,0.0,0.0,0.09,-7.49,-7.49,-0.66,-0.9,-0.65,7.5,28.48,1.43,-0.4,-21.19,100.0,0.0,0.0,79.65,0.0,0.0,0.0,0.0,0.0,0.0,0.0,5339.0,0.0,30.0,3.0,102.7,1.0,0.0,0.0,0.0,0.0,0.0,0.0,0.0,3.581,3.581,74.679,19.926,1.0,110.0,435.8,8750.0,0.0,0.0,110.0,110.0,433.0,0.0,0.0,0.0,1.0,333.3,74.6,74.6,78.0,78.0,34.0,-3.53,-16.39,30.3,75.0,1.0,-80.84,-279.7,100.0,16.7,23.1,19.7,40.1,0.0,1.0,0.0,0.0,0.0,0.0,0.0,1861.0,5639.0,2594.0,5688.0,320.3,310.1,348.4,340.2,24.58,23.02,25.31,24.54,325.0,325.0,355.0,355.0,99.69,99.62,99.67,99.64,19.32,17.33,3.73,3.91,-7.2,-2.9,-0.4,-0.8,79.6,69.9,78.0,73.1,84.5,74.3,80.6,75.0,81.5,71.8,79.1,73.3,79.5,70.4,78.4,72.4,-17.56,15.38,0.11,0.05,0.0,76.27,82.27,78.87,80.43,356.7,7.7,1.5387332452377833,83.5435969308483,57.61627372186682,-68.41932515852136,14.404068544271524,0,0
73,3.6,154.0,44.053309699127816,-78.68151898653208,-73.9,72.3,-103.2,17.4,1725.3,1725.0,101.9,0.0,1.0,1.0,0.0,1.0,1.0,0.0,0.0,0.0,100.0,1.0,1.186,26.0,0.0,-19.035,74.678,66.0,0.3,26.0,26.0,26.0,26.0,1.31,-0.39,-0.11,387.6,-0.85,-2.79,-2.87,-0.51,-690.87,543.93,6.0,0.0,0.0,0.0,0.0,0.09,-7.49,-7.49,-0.76,-1.88,-0.36,-1.34,28.27,1.22,-0.45,-19.25,100.0,0.0,0.0,79.05,0.0,0.0,0.0,0.0,0.0,0.0,0.0,5299.0,0.0,30.0,3.0,101.9,0.0,0.0,0.0,0.0,0.0,0.0,1.0,0.0,3.633,3.633,74.679,19.926,0.0,110.0,435.8,8750.0,0.0,0.0,110.0,110.0,433.0,0.0,0.0,0.0,1.0,166.7,74.1,74.1,82.5,82.5,34.0,-2.61,-18.74,7.1,73.1,1.0,-80.89,-287.8,100.0,13.0,26.7,14.5,40.9,0.0,1.0,0.0,0.0,0.0,0.0,0.0,1378.0,6146.0,814.0,4883.0,321.4,308.1,353.1,341.9,24.58,23.02,25.31,24.54,325.0,325.0,355.0,355.0,99.69,99.62,99.67,99.64,19.72,17.56,3.08,3.46,-4.0,-1.3,-0.5,-0.7,79.6,69.9,78.0,73.1,84.5,74.7,80.6,75.1,81.6,72.2,79.1,73.3,79.5,70.7,78.3,72.4,-18.2,15.8,0.12,0.05,0.0,78.01,82.5,78.38,79.72,356.7,7.7,1.371240314459869,81.74308837703997,59.05668057629397,-36.01017136067853,28.80813708854305,0,0
74,3.65,155.4,44.05329989652231,-78.68151179195924,6.3,-6.7,-11.5,-147.8,1726.7,1727.0,101.3,0.0,1.0,1.0,0.0,1.0,1.0,0.0,0.0,0.0,100.0,1.0,1.186,26.0,0.0,-19.131,74.678,66.0,0.0,26.0,26.0,26.0,26.0,1.38,-0.35,-0.1,388.9,-0.49,-3.06,-2.19,0.22,-690.07,542.84,6.0,0.0,0.0,0.0,0.0,0.09,-7.49,-7.49,-0.79,0.12,-0.44,-1.41,28.09,1.09,-0.39,-19.98,100.0,0.0,0.0,78.71,0.0,0.0,0.0,0.0,0.0,0.0,0.0,5276.0,0.0,30.0,3.0,101.3,1.0,0.0,0.0,0.0,0.0,0.0,1.0,0.0,3.681,3.681,74.679,19.926,1.0,110.0,435.8,8750.0,0.0,0.0,110.0,110.0,433.0,0.0,0.0,0.0,1.0,333.3,75.3,75.3,80.6,80.6,34.0,-1.81,-16.9,19.9,98.6,1.0,-80.94,-291.4,100.0,13.4,26.3,14.0,33.6,0.0,1.0,0.0,0.0,0.0,0.0,0.0,1073.0,5625.0,1712.0,5946.0,322.5,309.4,350.7,339.8,24.58,23.02,25.31,24.54,325.0,325.0,355.0,355.0,99.69,99.62,99.67,99.64,19.73,17.5,3.16,3.32,-1.9,-1.2,-0.3,-0.5,79.6,69.9,78.0,73.1,84.6,75.0,80.6,75.1,81.6,72.5,79.0,73.3,79.6,71.0,78.3,72.5,-18.52,16.03,0.12,0.06,0.0,78.98,82.19,77.99,79.43,356.7,7.7,1.4272000560538103,79.94257979478044,60.49708743072112,-39.61118835449071,28.808137088542622,0,0
75,3.7,156.8,44.05328973418817,-78.6815038779291,41.1,64.7,-1.2,50.2,1728.1,1728.0,100.5,0.0,1.0,1.0,0.0,1.0,1.0,0.0,0.0,0.0,100.0,1.0,1.186,26.0,0.0,-19.227,74.678,66.0,0.0,26.0,26.0,26.0,26.0,1.45,-0.4,0.08,385.7,-0.49,-1.54,-2.4,-0.38,-689.19,541.71,6.0,0.0,0.0,0.0,0.0,0.09,-7.49,-7.49,-0.77,1.66,-0.5,-3.31,27.88,0.86,-0.4,-21.48,100.0,0.0,0.0,78.21,0.0,0.0,0.0,0.0,0.0,0.0,0.0,5243.0,0.0,30.0,3.0,100.5,0.0,0.0,0.0,0.0,0.0,0.0,1.0,0.0,3.731,3.731,74.679,19.926,0.0,110.0,435.8,8750.0,0.0,0.0,110.0,110.0,433.0,0.0,0.0,0.0,1.0,333.3,69.8,69.8,75.3,75.3,34.0,-0.66,-27.56,23.4,85.7,1.0,-80.99,-294.3,100.0,15.4,29.6,13.9,36.1,0.0,1.0,0.0,0.0,0.0,0.0,0.0,404.0,8504.0,1884.0,4985.0,323.5,302.2,350.2,341.9,24.58,23.02,25.31,24.54,325.0,325.0,355.0,355.0,99.69,99.62,99.67,99.64,19.42,17.18,2.79,2.95,-0.9,-1.4,-0.2,-0.6,79.6,69.9,77.9,73.1,84.6,75.4,80.5,75.1,81.7,72.9,79.0,73.4,79.7,71.4,78.3,72.5,-18.67,16.13,0.11,0.06,0.0,79.27,81.75,77.47,78.95,356.7,7.7,1.5062868252759831,77.7819695415909,61.93749428514823,-43.212205063790634,28.80813708854255,0,0
76,3.75,158.2,44.053280471175626,-78.68149632362761,-51.7,29.6,52.6,-30.2,1729.5,1729.0,99.8,0.0,1.0,1.0,0.0,1.0,1.0,0.0,0.0,0.0,100.0,1.0,1.186,26.0,0.0,-19.314,74.678,66.0,0.0,26.0,26.0,26.0,26.0,1.26,-0.29,-0.11,387.9,-0.58,-3.06,-1.71,-0.78,-688.35,540.68,6.0,0.0,0.0,0.0,0.0,0.09,-7.49,-7.49,-0.66,2.41,-0.81,-9.03,27.71,0.74,-0.33,-20.83,100.0,0.0,0.0,77.75,0.0,0.0,0.0,0.0,0.0,0.0,0.0,5212.0,0.0,30.0,3.0,99.8,1.0,0.0,0.0,0.0,0.0,0.0,1.0,0.0,3.78,3.78,74.679,19.926,1.0,110.0,435.8,8750.0,0.0,0.0,110.0,110.0,433.0,0.0,0.0,0.0,1.0,333.3,74.4,74.4,73.5,73.5,34.0,-1.01,-15.3,29.4,74.8,1.0,-81.04,-300.8,100.0,12.8,31.1,16.5,34.6,0.0,1.0,0.0,0.0,0.0,0.0,0.0,681.0,5141.0,2184.0,4332.0,323.5,310.3,349.4,343.3,24.58,23.03,25.31,24.54,325.0,325.0,355.0,355.0,99.69,99.62,99.67,99.64,19.67,17.2,2.62,2.75,-0.2,-1.1,-0.2,-0.5,79.6,69.9,77.9,73.1,84.6,75.8,80.5,75.1,81.7,73.2,79.0,73.4,79.7,71.7,78.2,72.5,-19.12,16.43,0.1,0.07,0.0,79.18,81.32,77.04,78.46,356.7,7.7,1.2976131935210893,75.62135928840138,63.37790113957538,-18.00508553808328,50.414239620438224,0,0
77,3.8,159.6,44.053270848434444,-78.68148804986883,45.1,-86.1,128.7,66.3,1730.8,1731.0,99.2,0.0,1.0,1.0,0.0,1.0,1.0,0.0,0.0,0.0,100.0,1.0,1.186,26.0,0.0,-19.314,74.678,66.0,0.0,26.0,26.0,26.0,26.0,1.39,-0.35,0.11,383.9,0.34,-3.87,-1.56,0.34,-687.43,539.61,6.0,0.0,0.0,0.0,0.0,0.09,-7.49,-7.49,-0.64,-0.49,-0.96,0.79,27.53,0.53,-0.34,-19.89,100.0,0.0,0.0,77.21,0.0,0.0,0.0,0.0,0.0,0.0,0.0,5176.0,0.0,30.0,3.0,99.2,0.0,0.0,0.0,0.0,0.0,0.0,1.0,0.0,3.831,3.831,74.679,19.926,0.0,110.0,435.8,8750.0,0.0,0.0,110.0,110.0,433.0,0.0,0.0,0.0,1.0,166.7,73.8,73.8,73.0,73.0,34.0,-2.76,-16.54,18.1,147.8,1.0,-81.09,-312.2,100.0,15.1,26.7,23.0,37.9,0.0,1.0,0.0,0.0,0.0,0.0,0.0,1382.0,5488.0,1517.0,7379.0,321.3,309.5,350.9,336.1,24.58,23.03,25.31,24.54,325.0,325.0,355.0,355.0,99.69,99.62,99.67,99.64,19.93,17.36,2.07,2.24,-0.2,-1.2,-0.2,-0.3,79.6,69.9,77.9,73.1,84.7,76.1,80.5,75.2,81.8,73.5,78.9,73.4,79.8,72.0,78.2,72.5,-19.87,17.07,0.09,0.05,0.0,78.55,80.65,76.48,77.94,356.7,7.7,1.4376021702821682,75.98146098778257,66.97891824719206,-18.00508553808342,46.81322205760246,0,0
78,3.85,161.0,44.05326149548974,-78.68147959624574,48.2,-24.9,-126.9,69.2,1732.2,1732.0,98.5,0.0,1.0,1.0,0.0,1.0,1.0,0.0,0.0,0.0,100.0,1.0,1.186,26.0,0.0,-19.395,74.678,66.0,0.0,26.0,26.0,26.0,26.0,1.34,-0.43,-0.11,385.3,0.54,-3.33,-2.22,-0.48,-686.49,538.57,6.0,0.0,0.0,0.0,0.0,0.1,-7.49,-7.49,-0.73,-0.98,-1.01,-1.55,27.34,0.4,-0.37,-23.29,100.0,0.0,0.0,76.67,0.0,0.0,0.0,0.0,0.0,0.0,0.0,5140.0,0.0,30.0,3.0,98.5,1.0,0.0,0.0,0.0,0.0,0.0,1.0,0.0,3.881,3.881,74.679,19.926,1.0,110.0,435.8,8750.0,0.0,0.0,110.0,110.0,433.0,0.0,0.0,0.0,1.0,166.7,70.8,70.8,85.2,85.2,34.0,-8.33,-15.56,14.6,75.8,1.0,-81.14,-320.0,100.0,17.5,25.5,16.6,41.3,0.0,1.0,0.0,0.0,0.0,0.0,0.0,3271.0,5306.0,1427.0,4258.0,316.0,310.6,351.6,343.4,24.58,23.03,25.31,24.54,325.0,325.0,355.0,355.0,99.69,99.63,99.67,99.64,20.1,17.54,1.93,2.04,-0.5,-1.3,-0.2,-0.5,79.6,69.9,77.9,73.1,84.9,76.5,80.4,75.2,81.9,73.8,78.9,73.4,79.9,72.3,78.2,72.5,-20.5,17.56,0.11,0.05,0.0,77.58,80.08,75.94,77.41,356.7,7.7,1.4115948427222311,73.82085073459304,68.05922334533562,-43.212205063790634,25.207119525707213,0,0
79,3.9,162.3,44.05325241234152,-78.68147105269048,-9.4,12.9,3.8,-67.3,1733.6,1734.0,97.9,0.0,1.0,1.0,0.0,1.0,1.0,0.0,0.0,0.0,100.0,1.0,1.186,26.0,0.0,-19.482,74.678,66.0,0.0,26.0,26.0,26.0,26.0,1.36,-0.29,0.08,385.6,0.55,-3.15,-1.67,-1.12,-685.54,537.56,6.0,0.0,0.0,0.0,0.0,0.1,-7.49,-7.49,-0.77,-0.23,-0.97,1.07,27.18,0.36,-0.37,-26.2,100.0,0.0,0.0,77.34,0.0,0.0,0.0,0.0,0.0,0.0,0.0,5185.0,0.0,30.0,3.0,97.9,0.0,0.0,0.0,0.0,0.0,0.0,1.0,0.0,3.933,3.933,74.679,19.926,0.0,110.0,435.8,8750.0,0.0,0.0,110.0,110.0,433.0,0.0,0.0,0.0,1.0,166.7,71.3,71.3,81.1,81.1,34.0,-5.65,-18.16,16.5,92.9,1.0,-81.19,-320.0,100.0,17.0,26.1,16.8,38.0,0.0,1.0,13.9,0.0,0.0,0.0,0.0,2496.0,5971.0,1574.0,4870.0,318.8,308.6,350.8,341.7,24.58,23.03,25.31,24.54,325.0,325.0,355.0,355.0,99.69,99.63,99.67,99.64,19.9,17.27,1.97,2.11,-0.6,-1.4,1.8,-0.1,79.6,69.9,77.9,73.1,84.9,76.8,80.4,75.2,82.0,74.2,78.9,73.4,80.0,72.6,78.1,72.5,-20.53,17.57,0.11,0.05,0.0,77.01,79.85,77.19,77.49,356.7,7.7,1.392874725163753,71.6602404814035,69.49963019976278,-57.61627389257413,10.803051550459628,0,0
80,3.95,163.7,44.05324359898978,-78.68146223933874,38.7,83.9,8.4,-12.4,1734.9,1735.0,97.6,0.0,1.0,1.0,0.0,1.0,1.0,0.0,0.0,0.0,100.0,1.0,1.186,26.0,0.0,-19.482,74.678,66.0,0.0,26.0,26.0,26.0,26.0,1.36,0.08,0.12,383.1,0.34,-3.11,-1.78,-0.75,-684.56,536.58,6.0,0.0,0.0,0.0,0.0,0.1,-7.49,-7.49,-0.7,3.84,-0.84,3.49,27.1,0.35,-0.39,-30.4,100.0,0.0,0.0,78.44,0.0,0.0,0.0,0.0,0.0,0.0,0.0,5259.0,0.0,30.0,3.0,97.6,1.0,0.0,0.0,0.0,0.0,0.0,1.0,0.0,3.984,3.984,74.679,19.926,1.0,110.0,435.8,8750.0,0.0,0.0,110.0,110.0,433.0,0.0,0.0,0.0,1.0,166.7,68.9,68.9,74.3,74.3,34.0,-4.36,-18.37,26.7,97.1,1.0,-81.24,-320.0,100.0,18.9,30.3,17.2,37.3,0.0,1.0,45.2,0.0,0.0,0.0,0.0,1951.0,5992.0,3252.0,5286.0,319.6,308.4,346.3,341.2,24.58,23.03,25.31,24.54,325.0,325.0,355.0,355.0,99.69,99.63,99.67,99.64,19.55,16.94,2.07,2.23,-1.0,-1.6,4.6,1.1,79.6,70.0,77.9,73.1,85.1,77.2,80.4,75.2,82.2,74.5,78.8,73.4,80.1,72.9,78.1,72.6,-20.51,17.53,0.11,0.04,0.0,76.61,79.94,78.44,78.44,356.7,7.7,1.3676256797823008,68.05922334533562,69.13952850038159,-68.41932544303347,-14.404068544271524,0,0
81,4.0,165.0,44.05323541516317,-78.68145378571565,-89.9,-225.5,-31.6,43.2,1736.3,1736.0,97.8,0.0,1.0,1.0,0.0,1.0,1.0,0.0,0.0,0.0,100.0,1.0,1.186,26.0,0.0,-19.569,74.678,66.0,0.0,26.0,26.0,26.0,26.0,1.05,0.35,-0.14,389.8,-0.42,-3.43,-2.2,-0.36,-683.62,535.67,6.0,0.0,0.0,0.0,0.0,0.1,-7.49,-7.49,-0.57,1.86,-0.75,-0.84,27.17,0.52,-0.27,-29.81,100.0,0.0,0.0,79.6,0.0,0.0,0.0,0.0,0.0,0.0,0.0,5336.0,0.0,30.0,3.0,97.8,0.0,0.0,0.0,0.0,0.0,0.0,1.0,0.0,4.031,4.031,74.679,19.926,0.0,110.0,435.8,8750.0,0.0,0.0,110.0,110.0,433.0,0.0,0.0,0.0,1.0,333.3,82.6,82.6,84.8,84.8,34.0,-1.27,-8.05,11.9,104.7,1.0,-81.29,-320.0,100.0,14.5,19.1,15.7,39.5,0.0,1.0,71.1,0.0,0.0,0.0,0.0,786.0,3141.0,2315.0,6334.0,323.1,316.5,349.3,338.2,24.58,23.03,25.31,24.54,325.0,325.0,355.0,355.0,99.69,99.63,99.67,99.64,20.06,17.36,2.49,2.59,-0.9,-1.2,6.0,2.6,79.6,70.0,77.9,73.1,85.1,77.5,80.4,75.2,82.2,74.7,78.8,73.4,80.2,73.1,78.1,72.6,-20.58,17.66,0.11,0.04,0.0,76.55,80.02,79.6,79.6,356.7,7.7,1.1156164215356459,64.81830793710016,68.05922334533562,-25.20711952570707,28.808136519519252,0,0
82,4.05,166.4,44.05322741120088,-78.6814452421604,-104.4,-130.9,59.4,131.7,1737.6,1738.0,98.4,0.0,1.0,1.0,0.0,1.0,1.0,0.0,0.0,0.0,100.0,1.0,1.186,26.0,0.0,-19.647,74.678,66.0,0.0,26.0,26.0,26.0,26.0,1.06,0.45,-0.03,389.8,1.48,-2.67,-2.79,-0.33,-682.67,534.78,6.0,0.0,0.0,0.0,0.0,0.1,-7.49,-7.49,-0.67,-5.2,-0.69,-0.28,27.33,0.62,-0.25,-23.3,100.0,0.0,0.0,79.18,0.0,0.0,0.0,0.0,0.0,0.0,0.0,5308.0,0.0,30.0,3.0,98.4,1.0,0.0,0.0,0.0,0.0,0.0,1.0,0.0,4.08,4.08,74.679,19.926,1.0,110.0,435.8,8750.0,0.0,0.0,110.0,110.0,433.0,0.0,0.0,0.0,1.0,333.3,89.8,89.8,77.9,77.9,34.0,0.0,-8.96,28.4,114.7,1.0,-81.34,-320.0,100.0,9.2,12.5,18.6,46.1,0.0,1.0,90.6,0.0,0.0,0.0,0.0,0.0,3454.0,3751.0,6522.0,325.0,315.8,345.6,337.6,24.58,23.04,25.31,24.54,325.0,325.0,355.0,355.0,99.69,99.63,99.67,99.64,0.0,18.05,2.35,2.58,0.0,-1.0,4.9,2.2,79.6,70.0,77.9,73.1,85.1,77.6,80.3,75.2,82.2,74.9,78.8,73.5,80.2,73.3,78.1,72.6,-20.65,17.73,0.11,0.04,0.0,76.55,79.88,79.18,79.18,356.7,7.7,1.1519548602267367,65.53851139276492,72.02034215233351,18.005085822595248,79.22237613995748,0,0
83,4.1,167.8,44.05321904750994,-78.68143579928353,8.5,68.6,6.4,-235.7,1739.0,1739.0,98.8,0.0,1.0,1.0,0.0,1.0,1.0,0.0,0.0,0.0,100.0,1.0,1.186,26.0,0.0,-19.647,74.678,66.0,0.0,26.0,26.0,26.0,26.0,1.02,0.26,-0.18,392.4,0.14,-3.28,-2.16,-0.86,-681.62,533.85,6.0,0.0,0.0,0.0,0.0,0.1,-7.49,-7.49,-1.02,-5.65,-0.71,0.51,27.44,0.69,-0.31,-25.07,100.0,0.0,0.0,82.24,0.0,0.0,0.0,0.0,0.0,0.0,0.0,5513.0,0.0,30.0,3.0,98.8,0.0,0.0,0.0,0.0,0.0,0.0,0.0,0.0,4.131,4.131,74.679,19.926,0.0,110.0,435.8,8750.0,0.0,0.0,110.0,110.0,433.0,0.0,0.0,0.0,1.0,333.3,83.3,83.3,80.3,80.3,34.0,-2.97,-13.62,5.0,31.8,1.0,-81.39,-320.0,100.0,9.7,16.0,18.9,34.3,0.0,1.0,100.0,0.0,0.0,0.0,0.0,1511.0,4781.0,2019.0,3683.0,321.2,312.0,349.6,345.5,24.58,23.04,25.31,24.54,325.0,325.0,355.0,355.0,99.69,99.63,99.67,99.64,20.74,18.12,2.58,2.64,-1.4,-1.6,8.0,5.0,79.6,70.0,77.9,73.1,85.1,77.9,80.3,75.3,82.2,75.1,78.8,73.5,80.2,73.5,78.1,72.7,-20.64,17.69,0.1,0.07,0.0,76.61,79.76,82.24,82.24,356.7,7.7,1.0678951259369995,66.61881651935968,75.98146095933137,-21.606102816407216,28.808137088542765,0,0
84,4.15,169.2,44.05321077375117,-78.68142626647452,61.5,34.1,-79.9,-111.3,1740.4,1740.0,99.2,0.0,1.0,1.0,0.0,1.0,1.0,0.0,0.0,0.0,100.0,1.0,1.186,26.0,0.0,-19.734,74.678,66.0,0.0,26.0,26.0,26.0,26.0,0.79,0.3,-0.29,395.1,0.33,-4.24,-1.86,-0.11,-680.56,532.93,6.0,0.0,0.0,0.0,0.0,0.1,-7.49,-7.49,-1.2,-2.11,-0.44,4.92,27.56,0.9,-0.29,-30.91,100.0,0.0,0.0,82.66,0.0,0.0,0.0,0.0,0.0,0.0,0.0,5541.0,0.0,30.0,3.0,99.2,1.0,0.0,0.0,0.0,0.0,0.0,0.0,0.0,4.181,4.181,74.679,19.926,1.0,110.0,435.8,8750.0,0.0,0.0,110.0,110.0,433.0,0.0,0.0,0.0,1.0,333.3,84.3,84.3,92.2,92.2,34.0,-1.6,-6.22,-0.0,49.1,1.0,-81.44,-320.0,100.0,12.7,17.7,14.9,28.7,1.0,1.0,100.0,0.0,0.0,0.0,0.0,912.0,2541.0,216.0,5714.0,322.6,317.8,354.9,340.3,24.58,23.04,25.31,24.54,325.0,325.0,355.0,355.0,99.69,99.63,99.67,99.64,20.76,18.04,3.23,3.29,-1.3,-1.7,11.2,5.2,79.6,70.0,77.9,73.1,85.2,78.2,80.3,75.3,82.3,75.4,78.8,73.5,80.3,73.7,78.0,72.7,-20.58,17.68,0.11,0.07,0.0,76.85,80.48,85.55,79.77,356.7,7.7,0.893420393767682,63.377901111124196,74.90115586118779,-50.41423962043815,3.6010175628356933,0,0
85,4.2,170.5,44.05320321944968,-78.68141709339413,67.8,35.8,-63.0,151.6,1741.8,1742.0,99.2,0.0,1.0,1.0,0.0,1.0,1.0,0.0,0.0,0.0,100.0,1.0,1.186,26.0,0.0,-19.809,74.678,66.0,0.0,26.0,26.0,26.0,26.0,1.38,0.09,0.13,388.2,-0.78,-3.75,-2.63,-2.33,-679.54,532.09,6.0,0.0,0.0,0.0,0.0,0.1,-7.49,-7.49,-1.34,-2.07,-0.11,8.01,27.54,1.0,-0.31,-31.43,100.0,0.0,0.0,82.77,0.0,0.0,0.0,0.0,0.0,0.0,0.0,5548.0,0.0,30.0,3.0,99.2,0.0,0.0,0.0,0.0,0.0,0.0,0.0,0.0,4.23,4.23,74.679,19.926,0.0,110.0,435.8,8750.0,0.0,0.0,110.0,110.0,433.0,0.0,0.0,0.0,1.0,333.3,74.0,74.0,90.2,90.2,34.0,-6.02,-19.8,1.9,47.1,1.0,-81.49,-320.0,100.0,16.1,19.4,11.8,36.3,0.0,1.0,100.0,0.0,0.0,0.0,0.0,2659.0,6497.0,1198.0,5472.0,318.0,307.6,351.9,340.6,24.58,23.04,25.3,24.54,325.0,325.0,355.0,355.0,99.69,99.63,99.67,99.64,20.86,18.39,3.4,3.5,-1.4,-1.6,8.2,4.6,79.6,70.0,77.9,73.1,85.3,78.4,80.3,75.4,82.5,75.6,78.7,73.6,80.4,73.9,78.0,72.7,-20.54,17.63,0.11,0.07,0.0,76.86,80.48,82.77,82.77,356.7,7.7,1.3890284374338775,61.57739255731587,76.34156271561494,-14.404068544271524,54.01525661425026,0,0
86,4.25,171.9,44.05319539535171,-78.68140720085647,35.7,138.7,7.0,36.7,1743.1,1743.0,99.5,0.0,1.0,1.0,0.0,1.0,1.0,0.0,0.0,0.0,100.0,1.0,1.186,26.0,0.0,-19.809,74.678,66.0,0.0,26.0,26.0,26.0,26.0,1.24,0.15,-0.06,386.7,-1.36,-3.19,-2.55,-1.01,-678.44,531.22,6.0,0.0,0.0,0.0,0.0,0.1,-7.49,-7.49,-1.29,2.9,0.32,5.0,27.61,1.19,-0.36,-38.32,100.0,0.0,0.0,82.92,0.0,0.0,0.0,0.0,0.0,0.0,0.0,5558.0,0.0,30.0,3.0,99.5,1.0,0.0,0.0,0.0,0.0,0.0,0.0,0.0,4.281,4.281,74.679,19.926,1.0,110.0,435.8,8750.0,0.0,0.0,110.0,110.0,433.0,0.0,0.0,0.0,1.0,333.3,71.2,71.2,86.8,86.8,34.0,-3.67,-19.01,-0.3,30.0,1.0,-81.54,-320.0,100.0,17.9,26.4,12.1,38.2,1.0,1.0,100.0,0.0,0.0,0.0,0.0,1849.0,6237.0,822.0,4870.0,320.3,308.0,352.9,342.0,24.58,23.04,25.3,24.54,325.0,325.0,355.0,355.0,99.69,99.63,99.67,99.64,20.94,18.23,4.16,4.15,-1.2,-1.7,10.8,4.8,79.6,70.0,77.9,73.1,85.5,78.8,80.3,75.4,82.6,76.0,78.7,73.7,80.6,74.3,78.0,72.8,-20.53,17.56,0.11,0.05,0.0,76.96,81.04,84.42,81.41,356.7,7.7,1.2504799078753726,61.93749425669704,80.30268152261282,-28.80813680403115,32.4091540823548,0,0
87,4.3,173.3,44.05318775111806,-78.68139703852232,-116.0,-121.8,81.3,36.4,1744.5,1745.0,99.7,0.0,1.0,1.0,0.0,1.0,1.0,0.0,0.0,0.0,100.0,1.0,1.186,26.0,0.0,-19.881,74.678,66.0,0.0,26.0,26.0,26.0,26.0,1.29,0.46,-0.05,387.5,-0.99,-3.85,-3.58,-1.21,-677.31,530.37,5.9,0.0,0.0,0.0,0.0,0.1,-7.49,-7.49,-1.08,1.95,0.62,5.39,27.68,1.48,-0.24,-34.33,100.0,0.0,0.0,82.92,0.0,0.0,0.0,0.0,0.0,0.0,0.0,5558.0,0.0,30.0,3.0,99.7,0.0,0.0,0.0,0.0,0.0,0.0,0.0,0.0,4.331,4.331,74.679,19.926,0.0,110.0,435.8,8750.0,0.0,0.0,110.0,110.0,433.0,0.0,0.0,0.0,1.0,333.3,83.0,83.0,79.5,79.5,34.0,-0.57,-9.65,1.5,40.6,1.0,-81.59,-320.0,100.0,12.1,20.3,16.2,40.0,0.0,1.0,100.0,0.0,0.0,0.0,0.0,478.0,3611.0,2753.0,8151.0,324.1,314.9,347.8,333.4,24.58,23.05,25.3,24.54,325.0,325.0,355.0,355.0,99.69,99.63,99.67,99.64,21.82,18.95,4.61,4.7,-0.8,-1.2,8.7,4.8,79.6,70.0,77.9,73.1,85.5,79.1,80.3,75.5,82.6,76.2,78.7,73.8,80.6,74.5,78.0,72.9,-20.61,17.64,0.12,0.04,0.0,76.92,81.03,82.91,82.91,356.7,7.7,1.3704743704279916,58.69657887691275,79.58247812385042,-118.83356420993586,25.20712009473087,0,0
88,4.35,174.7,44.05318073640953,-78.68138732584897,-61.2,-110.8,75.5,134.0,1745.9,1746.0,100.3,0.0,1.0,1.0,0.0,1.0,1.0,0.0,0.0,0.0,100.0,1.0,1.186,26.0,0.0,-19.959,74.678,66.0,0.0,26.0,26.0,26.0,26.0,1.48,0.3,-0.22,385.3,-0.1,-2.89,-3.98,-0.73,-676.23,529.59,5.9,0.0,0.0,0.0,0.0,0.1,-7.49,-7.49,-1.19,-5.99,0.89,3.02,27.83,1.63,-0.26,-27.61,100.0,0.0,0.0,83.71,0.0,0.0,0.0,0.0,0.0,0.0,0.0,5612.0,0.0,30.0,3.0,100.3,1.0,0.0,0.0,0.0,0.0,0.0,0.0,0.0,4.38,4.38,74.679,19.926,1.0,110.0,435.8,8750.0,0.0,0.0,110.0,110.0,433.0,0.0,0.0,0.0,1.0,333.3,81.5,81.5,74.8,74.8,34.0,-0.93,-25.15,1.0,29.3,1.0,-81.64,-320.0,100.0,9.1,14.8,20.0,46.7,0.0,1.0,100.0,0.0,0.0,0.0,0.0,668.0,7472.0,2059.0,7701.0,323.6,304.3,350.0,335.1,24.58,23.05,25.3,24.54,325.0,325.0,355.0,355.0,99.69,99.64,99.67,99.64,22.36,19.91,4.6,4.66,-1.0,-1.2,8.7,5.7,79.6,70.0,77.9,73.1,85.5,79.4,80.3,75.6,82.6,76.4,78.8,73.9,80.6,74.7,78.0,73.0,-20.63,17.68,0.09,0.03,0.0,76.93,80.54,83.71,83.71,356.7,7.7,1.5260406285548231,50.05413783570346,82.8233935320859,-234.06611199508382,50.41423905141457,0,0
89,4.4,175.9,44.05317525054773,-78.68137635412538,-101.2,-35.4,-204.4,-229.5,1747.1,1747.0,85.9,0.0,1.0,1.0,0.0,1.0,1.0,0.0,0.0,0.0,100.0,1.0,1.186,26.0,0.0,-19.959,74.678,66.0,0.0,26.0,26.0,26.0,26.0,3.42,-1.12,-0.68,412.3,0.32,-2.15,-4.69,-0.21,-675.01,528.98,5.9,0.0,0.0,0.0,0.0,0.1,-7.49,-7.49,-1.1,-1.0,1.81,19.31,23.8,-1.58,-0.71,-219.25,100.0,0.0,0.0,80.49,0.0,0.0,0.0,0.0,0.0,0.0,0.0,5396.0,0.0,30.0,3.0,85.9,0.0,0.0,0.0,0.0,0.0,0.0,0.0,0.0,4.434,4.434,74.679,19.926,0.0,110.0,435.8,8750.0,0.0,0.0,110.0,110.0,433.0,0.0,0.0,0.0,1.0,166.7,112.0,112.0,91.3,91.3,34.0,0.0,38.96,0.0,-12.1,1.0,-81.69,-320.0,100.0,4.0,13.0,9.8,35.2,0.0,1.0,100.0,0.0,0.0,0.0,0.0,0.0,2388.0,0.0,4795.0,325.0,317.9,355.0,342.3,24.58,23.05,25.3,24.54,325.0,325.0,355.0,355.0,99.69,99.64,99.67,99.64,0.0,2.22,0.0,6.87,0.0,0.2,0.0,5.1,79.6,70.1,77.9,73.1,85.5,79.5,80.3,75.7,82.6,76.6,78.8,73.9,80.6,74.8,78.0,73.1,-20.69,17.74,0.13,0.06,0.0,76.56,86.17,82.36,78.62,356.7,7.7,3.6624035823486194,35.28996767740437,84.62390202899188,-291.6823861721697,-57.61627417708567,0,0
90,4.45,177.1,44.05317192305779,-78.68136619179124,12.0,-23.3,-150.1,26.1,1748.3,1748.0,83.9,0.0,1.0,1.0,0.0,1.0,1.0,0.0,0.0,0.0,100.0,1.0,1.186,26.0,0.0,-20.019,74.678,66.0,0.0,26.0,26.0,26.0,26.0,0.96,0.14,-0.27,438.2,-2.45,-0.59,-5.05,2.43,-673.88,528.61,5.9,0.0,0.0,0.0,0.0,0.1,-7.49,-7.49,-1.19,-19.63,4.26,38.08,23.18,2.23,-0.71,-233.73,100.0,0.0,0.0,83.87,0.0,0.0,0.0,0.0,0.0,0.0,0.0,5622.0,0.0,30.0,3.0,83.9,1.0,0.0,0.0,0.0,0.0,0.0,0.0,0.0,4.484,4.484,74.679,19.926,1.0,110.0,435.8,8750.0,0.0,0.0,110.0,110.0,433.0,0.0,0.0,0.0,1.0,166.7,138.4,138.4,123.3,123.3,34.0,0.0,-8.76,0.0,-24.3,1.0,-81.74,-320.0,100.0,4.6,11.8,2.3,36.5,0.0,1.0,100.0,0.0,0.0,0.0,0.0,0.0,3424.0,0.0,7620.0,325.0,316.5,355.0,334.5,24.58,23.05,25.3,24.54,325.0,325.0,355.0,355.0,99.69,99.64,99.67,99.64,0.0,8.77,0.0,15.54,0.0,1.0,0.0,6.6,79.6,70.1,77.9,73.1,85.4,79.5,80.3,75.9,82.5,76.6,78.7,74.2,80.5,74.9,78.0,73.3,-20.69,17.75,0.15,0.05,0.0,76.56,82.05,87.53,80.21,356.7,7.7,1.0070253224224304,20.885899218486486,77.06176611437733,-212.46000974770047,-68.41932458949799,0,0
91,4.5,178.2,44.05317003448242,-78.68135710864301,21.3,-284.3,749.6,-195.3,1749.4,1749.0,81.8,0.0,1.0,1.0,0.0,1.0,1.0,0.0,0.0,0.0,100.0,1.0,1.186,26.0,0.0,-20.073,74.678,66.0,0.0,26.0,26.0,26.0,26.0,0.05,0.03,-0.7,431.5,2.17,-3.77,-1.52,-1.69,-672.87,528.4,5.9,0.0,0.0,0.0,0.0,0.1,-7.49,-7.49,0.21,39.98,-0.5,-146.06,22.7,0.58,0.8,-32.28,100.0,0.0,0.0,82.28,0.0,0.0,0.0,0.0,0.0,0.0,0.0,5515.0,0.0,30.0,3.0,81.8,0.0,0.0,0.0,0.0,0.0,0.0,0.0,0.0,4.53,4.53,74.679,19.926,0.0,110.0,435.8,8750.0,0.0,0.0,110.0,110.0,433.0,0.0,0.0,0.0,1.0,333.3,166.1,166.1,80.4,80.4,34.0,0.0,0.0,0.0,-0.3,1.0,-81.79,-320.0,100.0,5.7,-2.4,39.7,26.7,1.0,1.0,100.0,0.0,0.0,0.0,0.0,0.0,0.0,0.0,263.0,325.0,325.0,355.0,354.0,24.58,23.05,25.3,24.54,325.0,325.0,355.0,355.0,99.69,99.64,99.67,99.64,0.0,0.0,0.0,5.68,0.0,0.0,0.0,10.8,79.6,70.1,77.9,73.1,85.4,79.6,80.2,76.1,82.5,76.6,78.6,74.3,80.5,74.9,77.9,73.5,-20.68,17.95,0.07,0.07,0.0,76.56,78.44,90.79,73.76,356.7,7.7,0.7024243731534378,14.043966702634323,77.78196957004208,-90.02542769041693,64.8183081647096,0,0
92,4.55,179.3,44.05316841570353,-78.68134676644455,-94.1,186.3,1235.6,-271.8,1750.6,1751.0,82.6,0.0,1.0,1.0,0.0,1.0,1.0,0.0,0.0,0.0,100.0,1.0,1.186,26.0,0.0,-20.073,74.678,66.0,0.0,26.0,26.0,26.0,26.0,1.41,0.58,2.94,417.0,7.61,-10.02,3.04,-6.58,-671.72,528.22,5.9,0.0,0.0,0.0,0.0,0.1,-7.49,-7.49,1.57,-4.39,-5.21,2.85,22.92,0.21,0.94,2.45,100.0,0.0,0.0,76.31,0.0,0.0,0.0,0.0,0.0,0.0,0.0,5115.0,0.0,30.0,3.0,82.6,1.0,0.0,0.0,0.0,0.0,0.0,0.0,0.0,4.581,4.581,74.679,19.926,1.0,110.0,435.8,8750.0,0.0,0.0,110.0,110.0,433.0,0.0,0.0,0.0,1.0,333.3,188.6,188.6,34.2,34.2,34.0,0.0,0.0,657.1,0.0,1.0,-81.84,-320.0,100.0,1.0,6.9,101.5,13.2,0.0,1.0,100.0,0.0,0.0,0.0,0.0,0.0,0.0,24313.0,0.0,325.0,325.0,294.2,355.0,24.58,23.05,25.3,24.54,325.0,325.0,355.0,355.0,99.69,99.64,99.68,99.64,0.0,0.0,2.63,0.0,0.0,0.0,1.8,0.0,79.6,70.1,77.9,73.1,85.3,79.5,80.5,76.0,82.4,76.6,78.9,74.3,80.4,74.8,78.2,73.5,-20.72,17.8,-0.07,0.11,0.0,76.56,78.44,62.24,90.37,356.7,7.7,3.3118121927428192,11.883356449444792,83.5435969308483,-32.409153797842954,39.61118806997888,0,0
93,4.6,180.5,44.05316706672112,-78.68133624438175,37.1,-46.0,-773.7,-8.6,1751.7,1752.0,83.2,0.0,1.0,1.0,0.0,1.0,1.0,0.0,0.0,0.0,100.0,1.0,1.186,26.0,0.0,-20.118,74.678,66.0,0.0,26.0,26.0,26.0,26.0,-0.38,0.31,-0.51,433.0,2.07,-5.97,0.42,-3.88,-670.55,528.07,5.9,0.0,0.0,0.0,0.0,0.11,-7.49,-7.49,0.35,-33.24,-1.84,91.17,23.12,-0.13,0.26,13.12,100.0,0.0,0.0,82.34,0.0,0.0,0.0,0.0,0.0,0.0,0.0,5519.0,0.0,30.0,3.0,83.2,0.0,0.0,0.0,0.0,0.0,0.0,1.0,0.0,4.631,4.631,74.679,19.926,0.0,110.0,435.8,8750.0,0.0,0.0,110.0,110.0,433.0,0.0,0.0,0.0,1.0,333.3,172.5,172.5,70.8,70.8,34.0,0.0,0.0,-83.0,0.0,1.0,-81.89,-320.0,100.0,2.8,4.6,62.8,12.7,0.0,1.0,100.0,0.0,0.0,0.0,0.0,0.0,0.0,5826.0,0.0,325.0,325.0,339.1,355.0,24.58,23.06,25.31,24.54,325.0,325.0,355.0,355.0,99.69,99.64,99.68,99.64,0.0,0.0,-2.11,0.0,0.0,0.0,3.3,0.0,79.6,70.1,77.9,73.1,85.2,79.4,80.6,76.0,82.4,76.5,79.0,74.2,80.4,74.8,78.3,73.4,-20.7,17.86,0.03,0.1,0.0,76.56,78.44,68.65,96.02,356.7,7.7,0.7075309180523491,10.803051322850028,81.74308837703997,-10.803050981435813,-14.404068544271524,0,0
94,4.65,181.7,44.053165717738715,-78.68132635184409,8.1,-57.6,-1081.6,152.4,1752.9,1753.0,83.7,0.0,1.0,1.0,0.0,1.0,1.0,0.0,0.0,0.0,100.0,1.0,1.186,26.0,0.0,-20.118,74.678,66.0,0.0,26.0,26.0,26.0,26.0,-0.14,0.5,-0.78,432.4,0.21,-1.12,-4.77,0.84,-669.45,527.92,5.9,0.0,0.0,0.0,0.0,0.11,-7.49,-7.49,-1.24,-32.64,2.42,78.72,23.27,-0.31,0.05,10.25,100.0,0.0,0.0,79.78,0.0,0.0,0.0,0.0,0.0,0.0,0.0,5348.0,0.0,30.0,3.0,83.7,1.0,0.0,0.0,0.0,0.0,0.0,1.0,0.0,4.68,4.68,74.679,19.926,1.0,110.0,435.8,8750.0,0.0,0.0,110.0,110.0,433.0,0.0,0.0,0.0,1.0,333.3,132.3,132.3,112.3,112.3,34.0,0.0,0.0,0.0,4.5,1.0,-81.94,-320.0,100.0,3.2,1.7,8.8,20.3,1.0,1.0,100.0,0.0,0.0,0.0,0.0,0.0,0.0,0.0,4760.0,325.0,325.0,355.0,342.5,24.58,23.06,25.3,24.54,325.0,325.0,355.0,355.0,99.69,99.64,99.68,99.64,0.0,0.0,0.0,-2.66,0.0,0.0,0.0,15.4,79.6,70.1,77.9,73.1,85.2,79.4,80.5,76.1,82.3,76.5,79.0,74.3,80.3,74.7,78.3,73.5,-20.69,17.9,0.13,0.08,0.0,76.56,78.44,89.91,69.65,356.7,7.7,0.9370165420097983,10.80305135130121,82.10319007642114,-7.202033987623899,32.40915408235466,0,0
95,4.7,182.8,44.0531643687563,-78.68131573984914,89.5,920.2,-48.8,193.0,1754.1,1754.0,84.1,0.0,1.0,1.0,0.0,1.0,1.0,0.0,0.0,0.0,100.0,1.0,1.186,26.0,0.0,-20.157,74.678,66.0,0.0,26.0,26.0,26.0,26.0,0.72,0.11,0.37,425.8,-4.23,1.0,-6.67,3.57,-668.27,527.77,5.8,0.0,0.0,0.0,0.0,0.11,-7.49,-7.49,-2.68,-22.12,5.12,22.41,23.34,-0.54,-0.54,-14.98,100.0,0.0,0.0,82.71,0.0,0.0,0.0,0.0,0.0,0.0,0.0,5545.0,0.0,30.0,3.0,84.1,0.0,0.0,0.0,0.0,0.0,0.0,1.0,0.0,4.731,4.731,74.679,19.926,0.0,110.0,435.8,8750.0,0.0,0.0,110.0,110.0,433.0,0.0,0.0,0.0,1.0,333.3,86.1,86.1,148.6,148.6,34.0,0.0,-47.72,0.0,-42.7,1.0,-81.99,-320.0,100.0,7.7,47.8,6.3,30.0,0.0,1.0,100.0,0.0,0.0,0.0,0.0,0.0,13775.0,0.0,5602.0,325.0,288.1,355.0,340.4,24.58,23.06,25.3,24.54,325.0,325.0,355.0,355.0,99.69,99.64,99.68,99.64,0.0,15.16,0.0,-1.1,0.0,-1.9,0.0,5.7,79.6,70.1,77.9,73.1,85.1,79.8,80.5,76.1,82.2,76.9,78.9,74.4,80.2,75.1,78.2,73.5,-20.64,17.34,0.13,0.07,0.0,76.56,68.27,97.01,68.41,356.7,7.7,0.8169455306200041,10.082847924087638,84.98400378527543,-21.60610310091899,3.6010169938120384,0,0
96,4.75,184.0,44.05316319963821,-78.68130512785419,89.7,57.0,44.6,-194.3,1755.2,1755.0,83.9,0.0,1.0,1.0,0.0,1.0,1.0,0.0,0.0,0.0,100.0,1.0,1.186,26.0,0.0,-20.157,74.678,66.0,0.0,26.0,26.0,26.0,26.0,0.75,-0.1,-0.17,428.4,-3.04,-0.46,-6.19,2.95,-667.09,527.64,5.8,0.0,0.0,0.0,0.0,0.11,-7.49,-7.49,-2.73,7.92,3.89,-50.88,23.28,-0.4,-0.92,-37.99,100.0,0.0,0.0,89.35,0.0,0.0,0.0,0.0,0.0,0.0,0.0,5990.0,0.0,30.0,3.0,83.9,1.0,0.0,0.0,0.0,0.0,0.0,1.0,0.0,4.781,4.781,74.679,19.926,1.0,110.0,435.8,8750.0,0.0,0.0,110.0,110.0,433.0,0.0,0.0,0.0,1.0,333.3,85.1,85.1,153.7,153.7,34.0,0.0,-28.36,0.0,-0.4,1.0,-82.04,-320.0,100.0,12.2,50.6,8.5,20.3,1.0,1.0,100.0,0.0,0.0,0.0,0.0,0.0,8573.0,0.0,1350.0,325.0,300.8,355.0,351.3,24.58,23.07,25.3,24.54,325.0,325.0,355.0,355.0,99.69,99.64,99.68,99.64,0.0,15.25,0.0,1.93,0.0,-1.4,0.0,16.5,79.6,70.2,77.9,73.1,85.1,80.3,80.4,76.1,82.2,77.3,78.8,74.4,80.2,75.6,78.1,73.5,-20.59,17.36,0.12,0.1,0.0,76.56,69.61,100.4,78.31,356.7,7.7,0.7754998388136519,8.642441041209311,82.46329177580235,-18.005085822595195,-5.690235127531196e-07,0,0
97,4.8,185.2,44.05316221038445,-78.68129514538437,-39.2,-734.3,-75.1,-304.7,1756.4,1756.0,83.7,0.0,1.0,1.0,0.0,1.0,1.0,0.0,0.0,0.0,100.0,1.0,1.186,26.0,0.0,-20.184,74.678,66.0,0.0,26.0,26.0,26.0,26.0,0.12,-0.04,-0.99,427.3,-1.18,-2.34,-3.6,-0.05,-665.98,527.53,5.8,0.0,0.0,0.0,0.0,0.11,-7.49,-7.49,-1.99,16.77,1.27,-57.31,23.24,0.27,-0.32,-44.77,100.0,0.0,0.0,91.72,0.0,0.0,0.0,0.0,0.0,0.0,0.0,6148.0,0.0,30.0,3.0,83.7,0.0,0.0,0.0,0.0,0.0,0.0,1.0,0.0,4.83,4.83,74.679,19.926,0.0,110.0,435.8,8750.0,0.0,0.0,110.0,110.0,433.0,0.0,0.0,0.0,1.0,333.3,102.3,102.3,137.3,137.3,34.0,0.0,-1.02,0.0,0.0,1.0,-82.09,-320.0,100.0,10.2,13.9,4.8,5.0,0.0,1.0,100.0,0.0,0.0,0.0,0.0,0.0,503.0,0.0,0.0,325.0,322.7,355.0,355.0,24.58,23.07,25.3,24.54,325.0,325.0,355.0,355.0,99.69,99.64,99.68,99.64,0.0,16.55,0.0,0.0,0.0,-1.1,0.0,0.0,79.6,70.2,77.9,73.1,85.0,80.5,80.3,76.1,82.1,77.5,78.8,74.3,80.1,75.8,78.1,73.5,-20.61,17.75,0.13,0.11,0.0,76.56,69.83,95.85,87.59,356.7,7.7,0.9980480950335009,8.282339341828118,84.98400372837308,-10.803050981435822,32.40915408235466,0,0
98,4.85,186.3,44.05316113119852,-78.6812839038643,78.8,-234.1,330.9,-29.8,1757.5,1758.0,84.2,0.0,1.0,1.0,0.0,1.0,1.0,0.0,0.0,0.0,100.0,1.0,1.186,26.0,0.0,-20.211,74.678,66.0,0.0,26.0,26.0,26.0,26.0,0.67,0.89,-0.13,403.4,1.06,-4.91,0.16,-3.31,-664.73,527.41,5.8,0.0,0.0,0.0,0.0,0.11,-7.49,-7.49,-1.03,18.99,-1.42,-31.83,23.37,1.11,0.55,-42.95,100.0,0.0,0.0,91.3,0.0,0.0,0.0,0.0,0.0,0.0,0.0,6120.0,0.0,30.0,3.0,84.2,1.0,0.0,0.0,0.0,0.0,0.0,1.0,0.0,4.884,4.884,74.679,19.926,1.0,110.0,435.8,8750.0,0.0,0.0,110.0,110.0,433.0,0.0,0.0,0.0,1.0,166.7,101.8,101.8,87.6,87.6,34.0,-10.79,0.0,-12.0,-0.8,1.0,-82.14,-320.0,100.0,14.2,2.2,21.3,3.6,1.0,1.0,100.0,0.0,0.0,0.0,0.0,4120.0,0.0,9113.0,2042.0,314.5,325.0,331.9,350.4,24.58,23.07,25.3,24.54,325.0,325.0,355.0,355.0,99.69,99.64,99.68,99.64,21.03,0.0,5.54,5.6,6.4,0.0,24.9,55.4,79.6,70.2,77.9,73.1,85.0,80.4,80.5,76.0,82.2,77.5,79.0,74.3,80.2,75.7,78.3,73.5,-20.55,17.88,0.08,0.11,0.0,69.18,69.83,74.59,108.01,356.7,7.7,1.1215614116043757,7.562135943065729,85.70420718403781,-36.01017107616677,-36.01017050714319,0,0
