,Time,Distance,GPS Latitude,GPS Longitude,Damper Velocity (Calc) FL,Damper Velocity (Calc) FR,Damper Velocity (Calc) RL,Damper Velocity (Calc) RR,Corr Dist,Corr Dist (Unstretched),Corr Speed,ABS Active,ABS Enabled,AID Allow Tire Blankets,AID Auto Blip,AID Auto Clutch,AID Auto Shift,AID Fuel Rate,AID Ideal Line,AID Mech Damage,AID Stability,AID Tire Wear Rate,Air Density,Air Temp,Ballast,Best Lap Delta,Best Lap Time,Brake Bias,Brake Pos,Brake Temp FL,Brake Temp FR,Brake Temp RL,Brake Temp RR,CG Accel Lateral,CG Accel Longitudinal,CG Accel Vertical,CG Height,Camber FL,Camber FR,Camber RL,Camber RR,Car Coord X,Car Coord Y,Car Coord Z,Car Damage Front,Car Damage Left,Car Damage Rear,Car Damage Right,Car Pos Norm,Caster FL,Caster FR,Chassis Pitch Angle,Chassis Pitch Rate,Chassis Roll Angle,Chassis Roll Rate,Chassis Velocity X,Chassis Velocity Y,Chassis Velocity Z,Chassis Yaw Rate,Clutch Pos,DRS Active,DRS Available,Drive Train Speed,ERS Heat Charging,ERS Is Charging,ERS Max Energy,ERS Power Level,ERS Recovery Level,Engine Brake Setting,Engine Limiter,Engine RPM,Flags,Fuel Level,Gear,Ground Speed,HR Sample Clock,In Pit,KERS Charge,KERS Deployed Energy,KERS Input,KERS Max Energy,LR Sample Clock,Lap Invalidated,Lap Time,Lap Time2,Last Lap Time,Last Sector Time,MR Sample Clock,Max Fuel,Max Power,Max RPM,Max Sus Travel FL,Max Sus Travel FR,Max Sus Travel RL,Max Sus Travel RR,Max Torque,Max Turbo Boost,Num Tires Off Track,Penalties Enabled,Position,Raw Data Sample Rate,Ride Height FL,Ride Height FR,Ride Height RL,Ride Height RR,Road Temp,Self Align Torque FL,Self Align Torque FR,Self Align Torque RL,Self Align Torque RR,Session Lap Count,Session Time Left,Steering Angle,Surface Grip,Suspension Travel FL,Suspension Travel FR,Suspension Travel RL,Suspension Travel RR,TC Active,TC Enabled,Throttle Pos,Tire Dirt Level FL,Tire Dirt Level FR,Tire Dirt Level RL,Tire Dirt Level RR,Tire Load FL,Tire Load FR,Tire Load RL,Tire Load RR,Tire Loaded Radius FL,Tire Loaded Radius FR,Tire Loaded Radius RL,Tire Loaded Radius RR,Tire Pressure FL,Tire Pressure FR,Tire Pressure RL,Tire Pressure RR,Tire Radius FL,Tire Radius FR,Tire Radius RL,Tire Radius RR,Tire Rubber Grip FL,Tire Rubber Grip FR,Tire Rubber Grip RL,Tire Rubber Grip RR,Tire Slip Angle FL,Tire Slip Angle FR,Tire Slip Angle RL,Tire Slip Angle RR,Tire Slip Ratio FL,Tire Slip Ratio FR,Tire Slip Ratio RL,Tire Slip Ratio RR,Tire Temp Core FL,Tire Temp Core FR,Tire Temp Core RL,Tire Temp Core RR,Tire Temp Inner FL,Tire Temp Inner FR,Tire Temp Inner RL,Tire Temp Inner RR,Tire Temp Middle FL,Tire Temp Middle FR,Tire Temp Middle RL,Tire Temp Middle RR,Tire Temp Outer FL,Tire Temp Outer FR,Tire Temp Outer RL,Tire Temp Outer RR,Toe In FL,Toe In FR,Toe In RL,Toe In RR,Turbo Boost,Wheel Angular Speed FL,Wheel Angular Speed FR,Wheel Angular Speed RL,Wheel Angular Speed RR,Wind Direction,Wind Speed,CG Distance,Lateral Velocity,Longitudinal Velocity,Lateral Acceleration,Longitudinal Acceleration,level,curve_number
1249,62.4,1050.4,44.05314062666591,-78.68242658189678,36.4,22.6,-11.7,-29.6,2621.6,2622.0,159.1,0.0,1.0,1.0,0.0,1.0,1.0,0.0,0.0,0.0,100.0,1.0,1.186,26.0,0.0,8.61,74.678,66.0,0.0,26.0,26.0,26.0,26.0,0.32,-0.1,0.0,378.8,-2.9,-2.2,-1.94,-1.36,-791.79,525.13,5.4,0.0,0.0,0.0,0.0,0.58,-7.49,-7.49,-0.92,-1.59,0.37,-2.56,44.19,0.31,-0.43,-2.49,100.0,0.0,0.0,124.12,0.0,0.0,0.0,0.0,0.0,0.0,0.0,7848.0,0.0,30.0,0.0,159.1,0.0,0.0,0.0,0.0,0.0,0.0,0.0,0.0,62.43,62.43,74.679,35.607,0.0,110.0,435.8,8750.0,0.0,0.0,110.0,110.0,433.0,0.0,0.0,0.0,1.0,333.3,70.1,70.1,67.5,67.5,34.0,-5.32,35.97,7.1,51.8,1.0,-139.69,1.9,100.0,19.2,24.2,34.2,39.9,0.0,1.0,0.0,0.0,0.0,0.0,0.0,3445.0,4758.0,3961.0,4804.0,315.7,311.7,345.4,343.2,23.01,22.27,26.82,26.31,325.0,325.0,355.0,355.0,99.81,99.74,99.94,99.89,0.22,0.29,0.43,0.57,0.0,-0.0,-0.0,-0.0,69.8,65.2,87.4,84.2,68.6,62.9,90.0,86.9,66.1,60.7,87.9,84.6,64.5,59.6,86.5,83.2,0.09,-0.09,0.07,0.06,0.0,135.4,135.6,124.03,124.2,356.7,7.7,0.3352610922848042,141.51997238054747,57.61627372186682,39.61118806997888,28.808137088542622,0,4
1250,62.45,1052.6,44.05315942248747,-78.68243422613043,35.5,10.2,1.2,-37.6,2623.8,2624.0,159.4,0.0,1.0,1.0,0.0,1.0,1.0,0.0,0.0,0.0,100.0,1.0,1.186,26.0,0.0,8.607,74.678,66.0,0.0,26.0,26.0,26.0,26.0,0.21,-0.21,0.04,378.4,-2.81,-2.36,-1.78,-1.34,-792.64,527.22,5.4,0.0,0.0,0.0,0.0,0.58,-7.49,-7.49,-0.93,0.65,0.21,-3.17,44.26,0.24,-0.46,-0.33,100.0,0.0,0.0,123.86,0.0,0.0,0.0,0.0,0.0,0.0,0.0,6607.0,0.0,30.0,4.0,159.4,1.0,0.0,0.0,0.0,0.0,0.0,0.0,0.0,62.481,62.481,74.679,35.607,1.0,110.0,435.8,8750.0,0.0,0.0,110.0,110.0,433.0,0.0,0.0,0.0,1.0,166.7,69.3,69.3,67.3,67.3,34.0,-12.01,26.03,0.8,43.5,1.0,-139.74,3.8,100.0,21.0,24.8,34.3,38.1,0.0,1.0,0.0,0.0,0.0,0.0,0.0,3625.0,4400.0,4569.0,4800.0,315.1,312.7,344.0,343.2,23.01,22.27,26.82,26.31,325.0,325.0,355.0,355.0,99.81,99.74,99.94,99.89,0.08,0.15,0.28,0.44,0.0,0.0,-0.4,-0.5,69.8,65.2,87.4,84.2,68.6,62.8,90.0,86.9,66.1,60.7,87.8,84.5,64.4,59.6,86.4,83.2,0.22,-0.21,0.07,0.05,0.0,135.79,135.87,123.86,123.86,356.7,7.7,0.29966648127543394,150.16241342175678,61.93749428514823,39.61118806997945,28.80813708854305,0,4
1251,62.5,1054.8,44.05317812837687,-78.6824420502284,11.5,-7.1,24.5,-10.9,2626.0,2626.0,159.0,0.0,1.0,1.0,0.0,1.0,1.0,0.0,0.0,0.0,100.0,1.0,1.186,26.0,0.0,8.604,74.678,66.0,0.0,26.0,26.0,26.0,26.0,0.08,-0.2,-0.03,378.5,-2.85,-2.48,-1.67,-1.46,-793.51,529.3,5.4,0.0,0.0,0.0,0.0,0.59,-7.49,-7.49,-0.93,-0.43,0.08,-2.22,44.17,0.15,-0.47,1.65,100.0,0.0,0.0,123.83,0.0,0.0,0.0,0.0,0.0,0.0,0.0,6605.0,0.0,30.0,4.0,159.0,0.0,0.0,0.0,0.0,0.0,0.0,0.0,0.0,62.531,62.531,74.679,35.607,0.0,110.0,435.8,8750.0,0.0,0.0,110.0,110.0,433.0,0.0,0.0,0.0,1.0,333.3,69.3,69.3,67.6,67.6,34.0,-18.03,18.29,-10.7,30.4,1.0,-139.79,4.5,100.0,21.6,24.4,35.5,37.5,0.0,1.0,0.0,0.0,0.0,0.0,0.0,3801.0,4115.0,4456.0,4495.0,314.7,313.5,344.2,343.9,23.0,22.27,26.82,26.31,325.0,325.0,355.0,355.0,99.81,99.74,99.94,99.89,-0.02,0.03,0.1,0.24,-0.0,-0.0,-0.3,-0.2,69.8,65.2,87.4,84.2,68.6,62.8,89.9,86.8,66.1,60.7,87.8,84.5,64.4,59.6,86.4,83.1,0.25,-0.26,0.08,0.04,0.0,135.55,135.44,123.83,123.83,356.7,7.7,0.21748563170931548,145.48109118754542,60.49708743072112,-50.414239335926254,-21.60610310091883,0,4
1252,62.55,1057.0,44.053195755080345,-78.6824493347334,19.0,-5.6,5.4,-23.6,2628.2,2628.0,158.8,0.0,1.0,1.0,0.0,1.0,1.0,0.0,0.0,0.0,100.0,1.0,1.186,26.0,0.0,8.601,74.678,66.0,0.0,26.0,26.0,26.0,26.0,-0.0,-0.18,-0.02,378.6,-2.77,-2.58,-1.56,-1.56,-794.32,531.26,5.4,0.0,0.0,0.0,0.0,0.59,-7.49,-7.49,-0.95,-0.35,-0.03,-2.55,44.09,0.06,-0.48,2.47,100.0,0.0,0.0,123.59,0.0,0.0,0.0,0.0,0.0,0.0,0.0,6593.0,0.0,30.0,4.0,158.8,1.0,0.0,0.0,0.0,0.0,0.0,0.0,0.0,62.58,62.58,74.679,35.607,1.0,110.0,435.8,8750.0,0.0,0.0,110.0,110.0,433.0,0.0,0.0,0.0,1.0,333.3,68.6,68.6,68.5,68.5,34.0,-22.4,16.26,-18.5,21.7,1.0,-139.84,3.6,100.0,22.5,24.1,35.8,36.3,0.0,1.0,0.0,0.0,0.0,0.0,0.0,4070.0,4110.0,4370.0,4292.0,313.9,313.5,344.4,344.4,23.0,22.27,26.82,26.31,325.0,325.0,355.0,355.0,99.81,99.74,99.94,99.89,-0.08,-0.02,-0.05,0.11,-0.0,0.0,-0.3,-0.2,69.8,65.2,87.4,84.2,68.5,62.8,89.8,86.8,66.0,60.7,87.7,84.4,64.4,59.6,86.3,83.1,0.23,-0.23,0.08,0.05,0.0,135.38,135.13,123.59,123.59,356.7,7.7,0.18110770276274832,145.12098948816416,59.77688397505635,39.61118835449014,10.803050981435547,0,4
1253,62.6,1059.2,44.05321437103759,-78.68245697896705,19.8,-5.2,9.1,-20.1,2630.4,2630.0,158.4,0.0,1.0,1.0,0.0,1.0,1.0,0.0,0.0,0.0,100.0,1.0,1.186,26.0,0.0,8.598,74.678,66.0,0.0,26.0,26.0,26.0,26.0,-0.08,-0.17,0.03,378.4,-2.65,-2.56,-1.6,-1.66,-795.17,533.33,5.4,0.0,0.0,0.0,0.0,0.59,-7.49,-7.49,-0.96,0.04,-0.15,-1.91,44.0,-0.02,-0.49,2.24,100.0,0.0,0.0,123.36,0.0,0.0,0.0,0.0,0.0,0.0,0.0,6580.0,0.0,30.0,4.0,158.4,0.0,0.0,0.0,0.0,0.0,0.0,1.0,0.0,62.631,62.631,74.679,35.607,0.0,110.0,435.8,8750.0,0.0,0.0,110.0,110.0,433.0,0.0,0.0,0.0,1.0,333.3,68.1,68.1,68.5,68.5,34.0,-22.5,16.34,-26.9,15.2,1.0,-139.89,1.1,100.0,23.5,23.9,36.2,35.3,0.0,1.0,0.0,0.0,0.0,0.0,0.0,4238.0,4048.0,4631.0,4189.0,313.5,313.7,343.8,344.7,23.0,22.27,26.82,26.31,325.0,325.0,355.0,355.0,99.81,99.74,99.94,99.89,-0.07,-0.01,-0.15,-0.01,-0.0,-0.0,-0.3,-0.2,69.8,65.2,87.4,84.2,68.5,62.8,89.8,86.7,66.0,60.7,87.7,84.4,64.4,59.5,86.3,83.0,0.1,-0.1,0.08,0.06,0.0,135.13,134.9,123.36,123.36,356.7,7.7,0.1902629759044045,149.44221002299443,61.57739252886468,-3.601016993811754,5.690235127531196e-07,0,4
1254,62.65,1061.4,44.05323307692699,-78.68246471313286,4.2,-3.6,8.6,-6.0,2632.6,2633.0,158.1,0.0,1.0,1.0,0.0,1.0,1.0,0.0,0.0,0.0,100.0,1.0,1.186,26.0,0.0,8.595,74.678,66.0,0.0,26.0,26.0,26.0,26.0,-0.03,-0.17,-0.0,378.4,-2.57,-2.64,-1.55,-1.57,-796.03,535.41,5.4,0.0,0.0,0.0,0.0,0.59,-7.49,-7.49,-0.95,0.28,-0.21,-0.59,43.92,-0.06,-0.49,0.95,100.0,0.0,0.0,123.11,0.0,0.0,0.0,0.0,0.0,0.0,0.0,6567.0,0.0,30.0,4.0,158.1,1.0,0.0,0.0,0.0,0.0,0.0,1.0,0.0,62.681,62.681,74.679,35.607,1.0,110.0,435.8,8750.0,0.0,0.0,110.0,110.0,433.0,0.0,0.0,0.0,1.0,333.3,68.2,68.2,68.2,68.2,34.0,-16.43,21.91,-28.3,14.0,1.0,-139.94,-2.4,100.0,23.7,23.7,36.6,35.0,0.0,1.0,0.0,0.0,0.0,0.0,0.0,4134.0,4074.0,4565.0,4285.0,313.7,313.6,343.9,344.5,23.0,22.27,26.82,26.31,325.0,325.0,355.0,355.0,99.81,99.74,99.94,99.89,0.02,0.09,-0.19,-0.02,-0.0,-0.0,-0.3,-0.2,69.8,65.2,87.4,84.2,68.5,62.8,89.7,86.7,66.0,60.6,87.6,84.3,64.3,59.5,86.2,83.0,-0.1,0.11,0.07,0.07,0.0,134.79,134.67,123.11,123.11,356.7,7.7,0.1726267650163207,144.76088778878298,59.7768840319587,-50.414239620438366,-18.005084969059766,0,4
1255,62.7,1063.6,44.05325052376615,-78.68247190770572,-2.4,-1.7,-2.9,6.2,2634.8,2635.0,157.8,0.0,1.0,1.0,0.0,1.0,1.0,0.0,0.0,0.0,100.0,1.0,1.186,26.0,0.0,8.592,74.678,66.0,0.0,26.0,26.0,26.0,26.0,0.07,-0.16,0.01,378.4,-2.68,-2.68,-1.52,-1.59,-796.83,537.35,5.4,0.0,0.0,0.0,0.0,0.59,-7.49,-7.49,-0.93,0.43,-0.23,0.0,43.84,-0.06,-0.48,-0.92,100.0,0.0,0.0,122.91,0.0,0.0,0.0,0.0,0.0,0.0,0.0,6556.0,0.0,30.0,4.0,157.8,0.0,0.0,0.0,0.0,0.0,0.0,1.0,0.0,62.73,62.73,74.679,35.607,0.0,110.0,435.8,8750.0,0.0,0.0,110.0,110.0,433.0,0.0,0.0,0.0,1.0,333.3,68.3,68.3,68.3,68.3,34.0,-7.68,30.55,-24.9,17.0,1.0,-139.99,-6.6,100.0,23.6,23.6,36.5,35.3,0.0,1.0,0.0,0.0,0.0,0.0,0.0,3997.0,4175.0,4426.0,4421.0,314.1,313.3,344.3,344.1,23.0,22.27,26.82,26.31,325.0,325.0,355.0,355.0,99.81,99.74,99.94,99.89,0.18,0.24,-0.15,0.02,0.0,-0.0,-0.2,-0.3,69.8,65.2,87.4,84.2,68.5,62.8,89.7,86.6,66.0,60.6,87.5,84.3,64.3,59.5,86.1,82.9,-0.33,0.33,0.07,0.06,0.0,134.49,134.51,122.91,122.91,356.7,7.7,0.17492855684535902,144.4007860609506,59.7768840319587,36.010170791655014,18.005084969059766,0,4
1256,62.75,1065.8,44.05326913972339,-78.68247964187152,-7.1,1.7,-10.9,14.0,2637.0,2637.0,157.5,0.0,1.0,1.0,0.0,1.0,1.0,0.0,0.0,0.0,100.0,1.0,1.186,26.0,0.0,8.589,74.678,66.0,0.0,26.0,26.0,26.0,26.0,0.2,-0.16,0.04,378.5,-2.66,-2.54,-1.69,-1.58,-797.69,539.42,5.4,0.0,0.0,0.0,0.0,0.59,-7.49,-7.49,-0.92,0.11,-0.21,0.53,43.75,-0.04,-0.47,-3.67,100.0,0.0,0.0,122.65,0.0,0.0,0.0,0.0,0.0,0.0,0.0,6542.0,0.0,30.0,4.0,157.5,1.0,0.0,0.0,0.0,0.0,0.0,1.0,0.0,62.781,62.781,74.679,35.607,1.0,110.0,435.8,8750.0,0.0,0.0,110.0,110.0,433.0,0.0,0.0,0.0,1.0,166.7,68.7,68.7,68.0,68.0,34.0,4.7,43.3,-19.0,24.4,1.0,-140.04,-11.6,100.0,23.3,23.7,35.9,36.0,0.0,1.0,0.0,0.0,0.0,0.0,0.0,3680.0,4346.0,4335.0,4626.0,315.0,312.9,344.5,343.6,23.0,22.26,26.82,26.31,325.0,325.0,355.0,355.0,99.81,99.74,99.94,99.89,0.41,0.48,-0.04,0.11,0.0,-0.0,-0.1,-0.3,69.8,65.2,87.4,84.2,68.4,62.7,89.6,86.5,65.9,60.6,87.5,84.2,64.3,59.5,86.1,82.9,-0.63,0.62,0.06,0.06,0.0,134.09,134.36,122.65,122.65,356.7,7.7,0.25922962793631443,148.36190486794848,61.57739252886468,-10.803051265947943,3.6010169938121805,0,4
1257,62.8,1068.0,44.05328757581631,-78.68248728610517,-10.1,17.2,-19.8,15.3,2639.2,2639.0,157.2,0.0,1.0,1.0,0.0,1.0,1.0,0.0,0.0,0.0,100.0,1.0,1.186,26.0,0.0,8.589,74.678,66.0,0.0,26.0,26.0,26.0,26.0,0.36,-0.17,-0.03,378.5,-2.66,-2.54,-1.73,-1.38,-798.54,541.47,5.3,0.0,0.0,0.0,0.0,0.59,-7.49,-7.49,-0.92,-0.19,-0.15,1.31,43.67,0.03,-0.48,-6.8,100.0,0.0,0.0,122.41,0.0,0.0,0.0,0.0,0.0,0.0,0.0,6530.0,0.0,30.0,4.0,157.2,0.0,0.0,0.0,0.0,0.0,0.0,1.0,0.0,62.831,62.831,74.679,35.607,0.0,110.0,435.8,8750.0,0.0,0.0,110.0,110.0,433.0,0.0,0.0,0.0,1.0,333.3,68.4,68.4,68.0,68.0,34.0,12.96,58.0,-7.2,35.5,1.0,-140.09,-15.4,100.0,22.8,24.5,35.0,36.8,0.0,1.0,0.0,0.0,0.0,0.0,0.0,3352.0,4708.0,4039.0,4809.0,315.8,311.9,345.2,343.2,23.0,22.26,26.82,26.31,325.0,325.0,355.0,355.0,99.81,99.74,99.94,99.89,0.64,0.7,0.14,0.29,-0.0,-0.0,-0.1,-0.4,69.7,65.2,87.4,84.2,68.4,62.7,89.5,86.5,65.9,60.6,87.4,84.2,64.3,59.5,86.0,82.8,-0.86,0.87,0.07,0.06,0.0,133.67,134.22,122.21,122.62,356.7,7.7,0.3992492955535426,143.3204809343558,60.13698573133992,-50.41423933592682,-7.202033987623935,0,4
1258,62.85,1070.2,44.05330493272331,-78.68249466054235,-9.5,24.6,-29.0,17.2,2641.4,2641.0,156.9,0.0,1.0,1.0,0.0,1.0,1.0,0.0,0.0,0.0,100.0,1.0,1.186,26.0,0.0,8.589,74.678,66.0,0.0,26.0,26.0,26.0,26.0,0.48,-0.17,-0.02,378.4,-2.87,-2.52,-1.77,-1.33,-799.36,543.4,5.3,0.0,0.0,0.0,0.0,0.59,-7.49,-7.49,-0.94,-0.1,-0.1,1.0,43.58,0.12,-0.49,-9.28,100.0,0.0,0.0,122.18,0.0,0.0,0.0,0.0,0.0,0.0,0.0,6517.0,0.0,30.0,4.0,156.9,1.0,0.0,0.0,0.0,0.0,0.0,1.0,0.0,62.88,62.88,74.679,35.607,1.0,110.0,435.8,8750.0,0.0,0.0,110.0,110.0,433.0,0.0,0.0,0.0,1.0,166.7,67.7,67.7,68.5,68.5,34.0,14.69,67.54,3.2,49.2,1.0,-140.14,-16.3,100.0,22.3,25.8,33.5,37.7,0.0,1.0,0.0,0.0,0.0,0.0,0.0,3219.0,5020.0,3779.0,5004.0,316.2,311.0,345.8,342.7,23.0,22.26,26.82,26.31,325.0,325.0,355.0,355.0,99.81,99.74,99.94,99.89,0.74,0.81,0.33,0.49,-0.0,-0.0,-0.1,-0.4,69.7,65.1,87.4,84.2,68.4,62.8,89.5,86.4,65.9,60.6,87.4,84.1,64.2,59.5,86.0,82.8,-0.93,0.93,0.07,0.06,0.0,133.3,134.06,121.97,122.38,356.7,7.7,0.5096076922496363,143.3204809343558,60.857189130102284,36.010171076167126,32.409153513331006,0,4
1259,62.9,1072.3,44.05332336881623,-78.68250248464031,-14.1,17.8,-25.1,19.3,2643.6,2644.0,156.6,0.0,1.0,1.0,0.0,1.0,1.0,0.0,0.0,0.0,100.0,1.0,1.186,26.0,0.0,8.589,74.678,66.0,0.0,26.0,26.0,26.0,26.0,0.58,-0.19,0.05,378.4,-2.89,-2.33,-1.96,-1.31,-800.23,545.45,5.3,0.0,0.0,0.0,0.0,0.6,-7.49,-7.49,-0.94,-0.01,-0.05,0.3,43.49,0.24,-0.5,-10.78,100.0,0.0,0.0,121.93,0.0,0.0,0.0,0.0,0.0,0.0,0.0,6504.0,0.0,30.0,4.0,156.6,0.0,0.0,0.0,0.0,0.0,0.0,1.0,0.0,62.931,62.931,74.679,35.607,0.0,110.0,435.8,8750.0,0.0,0.0,110.0,110.0,433.0,0.0,0.0,0.0,1.0,333.3,67.7,67.7,68.7,68.7,34.0,16.69,73.52,11.8,62.9,1.0,-140.19,-15.8,100.0,21.6,26.7,32.3,38.6,0.0,1.0,0.0,0.0,0.0,0.0,0.0,3040.0,5205.0,3662.0,5184.0,316.7,310.5,346.1,342.2,23.0,22.26,26.82,26.31,325.0,325.0,355.0,355.0,99.81,99.74,99.94,99.89,0.85,0.9,0.55,0.69,-0.0,-0.1,-0.1,-0.4,69.7,65.1,87.4,84.2,68.4,62.8,89.4,86.4,65.9,60.6,87.3,84.1,64.2,59.5,85.9,82.7,-0.92,0.91,0.07,0.05,0.0,132.94,133.87,121.62,122.23,356.7,7.7,0.6123724356957945,146.9214980419725,63.37790108267302,25.207119810219183,36.01017164519064,0,4
1260,62.95,1074.5,44.05334162504483,-78.6825104886026,-12.0,13.6,-15.5,13.4,2645.7,2646.0,156.3,0.0,1.0,1.0,0.0,1.0,1.0,0.0,0.0,0.0,100.0,1.0,1.186,26.0,0.0,8.589,74.678,66.0,0.0,26.0,26.0,26.0,26.0,0.71,-0.2,-0.03,378.5,-2.89,-2.33,-1.95,-1.14,-801.12,547.48,5.3,0.0,0.0,0.0,0.0,0.6,-7.49,-7.49,-0.93,0.16,-0.04,-0.03,43.4,0.34,-0.5,-11.38,100.0,0.0,0.0,121.67,0.0,0.0,0.0,0.0,0.0,0.0,0.0,6490.0,0.0,30.0,4.0,156.3,1.0,0.0,0.0,0.0,0.0,0.0,1.0,0.0,62.981,62.981,74.679,35.607,1.0,110.0,435.8,8750.0,0.0,0.0,110.0,110.0,433.0,0.0,0.0,0.0,1.0,333.3,67.7,67.7,68.5,68.5,34.0,17.69,80.98,17.6,70.7,1.0,-140.24,-15.6,100.0,21.0,27.3,31.5,39.3,0.0,1.0,0.0,0.0,0.0,0.0,0.0,2811.0,5378.0,3528.0,5213.0,317.3,310.0,346.4,342.2,22.99,22.26,26.82,26.31,325.0,325.0,355.0,355.0,99.81,99.74,99.94,99.89,0.94,1.0,0.7,0.86,-0.0,-0.0,-0.2,-0.4,69.7,65.1,87.4,84.2,68.3,62.8,89.4,86.4,65.9,60.7,87.2,84.0,64.2,59.5,85.8,82.7,-0.91,0.9,0.08,0.06,0.0,132.64,133.6,121.38,121.95,356.7,7.7,0.73824115301167,145.84119291537772,64.45820629462135,-61.217290886386024,5.690235838073932e-07,0,4
1261,63.0,1076.7,44.05335979134127,-78.68251858249707,-14.7,7.7,-13.1,11.5,2647.9,2648.0,155.9,0.0,1.0,1.0,0.0,1.0,1.0,0.0,0.0,0.0,100.0,1.0,1.186,26.0,0.0,8.589,74.678,66.0,0.0,26.0,26.0,26.0,26.0,0.76,-0.21,0.04,378.6,-3.03,-2.36,-1.94,-1.15,-802.02,549.5,5.3,0.0,0.0,0.0,0.0,0.6,-7.49,-7.49,-0.92,0.21,-0.05,-0.65,43.31,0.42,-0.5,-11.63,100.0,0.0,0.0,121.4,0.0,0.0,0.0,0.0,0.0,0.0,0.0,6475.0,0.0,30.0,4.0,155.9,0.0,0.0,0.0,0.0,0.0,0.0,1.0,0.0,63.033,63.033,74.679,35.607,0.0,110.0,435.8,8750.0,0.0,0.0,110.0,110.0,433.0,0.0,0.0,0.0,1.0,166.7,67.9,67.9,68.5,68.5,34.0,18.74,86.13,22.1,79.6,1.0,-140.29,-15.6,100.0,20.2,27.7,30.8,39.9,0.0,1.0,0.0,0.0,0.0,0.0,0.0,2743.0,5445.0,3471.0,5350.0,317.6,309.8,346.6,341.8,22.99,22.26,26.82,26.31,325.0,325.0,355.0,355.0,99.81,99.74,99.94,99.89,1.04,1.1,0.83,0.99,0.0,-0.1,-0.1,-0.4,69.7,65.1,87.4,84.2,68.3,62.8,89.3,86.3,65.8,60.7,87.2,84.0,64.2,59.6,85.8,82.7,-0.9,0.9,0.08,0.05,0.0,132.34,133.35,121.1,121.69,356.7,7.7,0.7894935085230277,140.7997689533339,63.37790113957538,-61.21729117089757,-5.690236548616667e-07,0,4
1262,63.05,1078.8,44.05337678851962,-78.68252631666287,-8.8,0.1,-7.3,11.8,2650.1,2650.0,155.6,0.0,1.0,1.0,0.0,1.0,1.0,0.0,0.0,0.0,100.0,1.0,1.186,26.0,0.0,8.589,74.678,66.0,0.0,26.0,26.0,26.0,26.0,0.82,-0.19,0.04,378.7,-2.99,-2.21,-2.08,-1.19,-802.88,551.39,5.3,0.0,0.0,0.0,0.0,0.6,-7.49,-7.49,-0.92,0.05,-0.07,-0.79,43.22,0.47,-0.49,-11.57,100.0,0.0,0.0,121.15,0.0,0.0,0.0,0.0,0.0,0.0,0.0,6462.0,0.0,30.0,4.0,155.6,1.0,0.0,0.0,0.0,0.0,0.0,1.0,0.0,63.081,63.081,74.679,35.607,1.0,110.0,435.8,8750.0,0.0,0.0,110.0,110.0,433.0,0.0,0.0,0.0,1.0,333.3,68.3,68.3,68.7,68.7,34.0,19.62,87.43,23.3,82.8,1.0,-140.34,-15.5,100.0,19.8,27.7,30.5,40.5,0.0,1.0,0.0,0.0,0.0,0.0,0.0,2624.0,5423.0,3406.0,5405.0,317.9,309.8,346.8,341.7,22.99,22.26,26.82,26.31,325.0,325.0,355.0,355.0,99.81,99.74,99.94,99.89,1.12,1.17,0.9,1.03,-0.0,-0.1,-0.2,-0.4,69.7,65.1,87.4,84.2,68.3,62.8,89.2,86.3,65.8,60.7,87.1,84.0,64.2,59.6,85.7,82.7,-0.91,0.9,0.08,0.04,0.0,132.08,133.07,120.82,121.48,356.7,7.7,0.8426743143112884,139.71946379828796,64.45820623771898,-18.005085538083563,21.606102531895388,0,4
1263,63.1,1081.0,44.053394685019576,-78.68253468035381,-7.5,2.0,-6.9,7.3,2652.2,2652.0,155.3,0.0,1.0,1.0,0.0,1.0,1.0,0.0,0.0,0.0,100.0,1.0,1.186,26.0,0.0,8.592,74.678,66.0,0.0,26.0,26.0,26.0,26.0,0.83,-0.17,-0.01,378.8,-2.96,-2.08,-2.04,-1.22,-803.81,553.38,5.3,0.0,0.0,0.0,0.0,0.6,-7.49,-7.49,-0.92,0.06,-0.09,-0.6,43.12,0.5,-0.49,-11.47,100.0,0.0,0.0,120.88,0.0,0.0,0.0,0.0,0.0,0.0,0.0,6448.0,0.0,30.0,4.0,155.3,0.0,0.0,0.0,0.0,0.0,0.0,0.0,0.0,63.131,63.131,74.679,35.607,0.0,110.0,435.8,8750.0,0.0,0.0,110.0,110.0,433.0,0.0,0.0,0.0,1.0,333.3,68.2,68.2,68.7,68.7,34.0,19.93,90.86,24.1,84.8,1.0,-140.39,-14.9,100.0,19.4,27.8,30.1,40.8,0.0,1.0,0.0,0.0,0.0,0.0,0.0,2618.0,5586.0,3330.0,5376.0,317.9,309.4,346.9,341.8,22.99,22.26,26.82,26.32,325.0,325.0,355.0,355.0,99.81,99.74,99.94,99.89,1.13,1.2,0.94,1.08,-0.0,-0.0,-0.2,-0.4,69.7,65.1,87.4,84.2,68.3,62.9,89.2,86.3,65.8,60.7,87.1,84.0,64.2,59.6,85.7,82.6,-0.87,0.87,0.07,0.05,0.0,131.78,132.75,120.56,121.2,356.7,7.7,0.8472897969408105,138.99926039952555,65.53851139276492,-14.404068259759413,25.20711952570707,0,4
1264,63.15,1083.1,44.05341150233361,-78.6825426843161,-7.0,4.4,-5.9,3.2,2654.4,2654.0,155.0,0.0,1.0,1.0,0.0,1.0,1.0,0.0,0.0,0.0,100.0,1.0,1.186,26.0,0.0,8.592,74.678,66.0,0.0,26.0,26.0,26.0,26.0,0.84,-0.08,-0.02,378.8,-2.92,-2.11,-2.0,-0.93,-804.7,555.25,5.3,0.0,0.0,0.0,0.0,0.6,-7.49,-7.49,-0.91,0.46,-0.13,-1.11,43.06,0.52,-0.49,-11.38,100.0,0.0,0.0,121.47,0.0,0.0,0.0,0.0,0.0,0.0,0.0,6479.0,0.0,30.0,4.0,155.0,1.0,0.0,0.0,0.0,0.0,0.0,0.0,0.0,63.18,63.18,74.679,35.607,1.0,110.0,435.8,8750.0,0.0,0.0,110.0,110.0,433.0,0.0,0.0,0.0,1.0,166.7,68.5,68.5,68.4,68.4,34.0,18.87,89.95,26.1,87.4,1.0,-140.44,-13.8,100.0,19.1,28.1,29.8,41.0,0.0,1.0,12.3,0.0,0.0,0.0,0.0,2507.0,5556.0,3396.0,5512.0,318.1,309.5,346.8,341.4,22.99,22.26,26.82,26.32,325.0,325.0,355.0,355.0,99.81,99.74,99.94,99.89,1.12,1.18,0.99,1.13,-0.0,-0.1,0.5,-0.0,69.7,65.1,87.4,84.2,68.3,62.9,89.1,86.3,65.8,60.8,87.0,84.0,64.1,59.6,85.6,82.6,-0.81,0.81,0.08,0.04,0.0,131.57,132.58,121.42,121.52,356.7,7.7,0.8440379138403676,138.27905697231202,66.97891819028969,28.80813680403122,50.41423905141443,0,4
1265,63.2,1085.3,44.05342921896924,-78.68255140773567,-12.0,-4.1,2.8,7.2,2656.5,2657.0,155.1,0.0,1.0,1.0,0.0,1.0,1.0,0.0,0.0,0.0,100.0,1.0,1.186,26.0,0.0,8.592,74.678,66.0,0.0,26.0,26.0,26.0,26.0,0.79,0.14,0.01,379.0,-3.17,-2.16,-1.93,-1.01,-805.67,557.22,5.3,0.0,0.0,0.0,0.0,0.6,-7.49,-7.49,-0.87,0.84,-0.2,-2.07,43.08,0.53,-0.46,-10.14,100.0,0.0,0.0,122.42,0.0,0.0,0.0,0.0,0.0,0.0,0.0,6530.0,0.0,30.0,4.0,155.1,0.0,0.0,0.0,0.0,0.0,0.0,0.0,0.0,63.231,63.231,74.679,35.607,0.0,110.0,435.8,8750.0,0.0,0.0,110.0,110.0,433.0,0.0,0.0,0.0,1.0,333.3,69.6,69.6,67.7,67.7,34.0,15.91,81.57,25.8,86.6,1.0,-140.49,-11.9,100.0,18.5,27.8,30.0,41.3,0.0,1.0,42.9,0.0,0.0,0.0,0.0,2391.0,5245.0,3649.0,5605.0,318.5,310.3,346.2,341.2,22.99,22.26,26.82,26.32,325.0,325.0,355.0,355.0,99.81,99.74,99.94,99.89,1.07,1.11,0.96,1.09,-0.0,-0.1,1.4,0.6,69.7,65.1,87.4,84.2,68.3,62.9,89.1,86.3,65.8,60.8,87.0,83.9,64.1,59.7,85.6,82.6,-0.71,0.69,0.08,0.04,0.0,131.66,132.58,122.42,122.42,356.7,7.7,0.8023714850367004,141.88007407992868,70.57993529790636,-10.803051265947659,25.20712009473087,0,4
1266,63.25,1087.5,44.05344693560488,-78.68256031101957,-9.1,-14.4,12.6,2.7,2658.7,2659.0,155.4,0.0,1.0,1.0,0.0,1.0,1.0,0.0,0.0,0.0,100.0,1.0,1.186,26.0,0.0,8.595,74.678,66.0,0.0,26.0,26.0,26.0,26.0,0.75,0.26,0.01,379.2,-3.08,-2.23,-2.0,-1.12,-806.66,559.19,5.3,0.0,0.0,0.0,0.0,0.6,-7.49,-7.49,-0.82,1.08,-0.3,-1.98,43.18,0.51,-0.43,-8.8,100.0,0.0,0.0,123.25,0.0,0.0,0.0,0.0,0.0,0.0,0.0,6574.0,0.0,30.0,4.0,155.4,1.0,0.0,0.0,0.0,0.0,0.0,0.0,0.0,63.281,63.281,74.679,35.607,1.0,110.0,435.8,8750.0,0.0,0.0,110.0,110.0,433.0,0.0,0.0,0.0,1.0,333.3,70.8,70.8,66.9,66.9,34.0,13.25,73.16,23.8,82.4,1.0,-140.54,-9.9,100.0,18.0,27.1,30.6,41.5,0.0,1.0,76.2,0.0,0.0,0.0,0.0,2264.0,4955.0,3902.0,5652.0,318.8,311.2,345.6,341.1,22.98,22.26,26.82,26.32,325.0,325.0,355.0,355.0,99.81,99.74,99.94,99.89,0.96,1.02,0.89,1.03,-0.1,-0.1,1.8,1.2,69.6,65.1,87.4,84.2,68.2,63.0,89.1,86.2,65.8,60.8,87.0,83.9,64.1,59.7,85.6,82.6,-0.57,0.58,0.07,0.04,0.0,132.04,132.79,123.25,123.25,356.7,7.7,0.7938513714795736,137.19875184571725,69.49963019976278,-46.813222342114216,3.6010175628356933,0,4
1267,63.3,1089.6,44.05346348312243,-78.68256876464267,-9.4,-21.9,19.4,5.9,2660.8,2661.0,155.9,0.0,1.0,1.0,0.0,1.0,1.0,0.0,0.0,0.0,100.0,1.0,1.186,26.0,0.0,8.595,74.678,66.0,0.0,26.0,26.0,26.0,26.0,0.7,0.35,0.01,379.2,-2.96,-2.14,-2.08,-1.21,-807.6,561.03,5.2,0.0,0.0,0.0,0.0,0.61,-7.49,-7.49,-0.78,0.6,-0.4,-1.95,43.33,0.47,-0.4,-7.62,100.0,0.0,0.0,123.96,0.0,0.0,0.0,0.0,0.0,0.0,0.0,6612.0,0.0,30.0,4.0,155.9,0.0,0.0,0.0,0.0,0.0,0.0,0.0,0.0,63.33,63.33,74.679,35.607,0.0,110.0,435.8,8750.0,0.0,0.0,110.0,110.0,433.0,0.0,0.0,0.0,1.0,333.3,72.0,72.0,65.8,65.8,34.0,12.33,67.44,20.8,78.0,1.0,-140.59,-9.8,100.0,17.6,26.0,31.5,41.8,0.0,1.0,98.0,0.0,0.0,0.0,0.0,2182.0,4760.0,4166.0,5728.0,319.0,311.7,344.9,340.9,22.98,22.26,26.82,26.32,325.0,325.0,355.0,355.0,99.81,99.74,99.94,99.89,0.93,0.97,0.8,0.95,-0.1,-0.1,2.0,1.5,69.6,65.1,87.4,84.2,68.2,63.0,89.0,86.2,65.7,60.8,86.9,83.9,64.1,59.7,85.5,82.6,-0.56,0.57,0.07,0.05,0.0,132.5,133.14,123.96,123.96,356.7,7.7,0.7826876771739797,137.19875184571725,70.94003705418993,86.42441069660464,72.02034215233382,0,4
1268,63.35,1091.8,44.05348119975807,-78.68257802765521,-7.5,-11.4,16.0,1.2,2663.0,2663.0,156.6,0.0,1.0,1.0,0.0,1.0,1.0,0.0,0.0,0.0,100.0,1.0,1.186,26.0,0.0,8.598,74.678,66.0,0.0,26.0,26.0,26.0,26.0,0.67,0.35,-0.0,379.2,-2.84,-2.08,-1.99,-1.15,-808.63,563.0,5.2,0.0,0.0,0.0,0.0,0.61,-7.49,-7.49,-0.76,0.53,-0.5,-2.06,43.51,0.42,-0.39,-7.23,100.0,0.0,0.0,124.57,0.0,0.0,0.0,0.0,0.0,0.0,0.0,6644.0,0.0,30.0,4.0,156.6,1.0,0.0,0.0,0.0,0.0,0.0,0.0,0.0,63.381,63.381,74.679,27.738,1.0,110.0,435.8,8750.0,0.0,0.0,110.0,110.0,433.0,0.0,0.0,0.0,1.0,333.3,72.2,72.2,65.5,65.5,34.0,15.04,68.05,18.2,69.5,1.0,-140.64,-11.7,100.0,17.2,25.5,32.3,41.8,0.0,1.0,100.0,0.0,0.0,0.0,0.0,2432.0,4737.0,4150.0,5609.0,318.4,311.7,344.9,341.2,22.98,22.26,26.82,26.32,325.0,325.0,355.0,355.0,99.81,99.74,99.94,99.89,0.95,1.0,0.73,0.86,-0.1,-0.1,2.1,1.6,69.6,65.1,87.4,84.2,68.2,63.0,89.0,86.2,65.7,60.8,86.9,83.9,64.0,59.7,85.5,82.6,-0.65,0.66,0.07,0.05,0.0,133.05,133.66,124.57,124.57,356.7,7.7,0.7559100475585703,145.84119291537772,76.70166441499616,0.0,25.207119525707213,0,4
1269,63.4,1094.0,44.05349990564747,-78.68258792019287,-4.2,-8.7,10.9,4.9,2665.2,2665.0,157.3,0.0,1.0,1.0,0.0,1.0,1.0,0.0,0.0,0.0,100.0,1.0,1.186,26.0,0.0,8.598,74.678,66.0,0.0,26.0,26.0,26.0,26.0,0.65,0.38,-0.01,379.2,-2.72,-2.18,-1.91,-1.08,-809.73,565.08,5.2,0.0,0.0,0.0,0.0,0.61,-7.49,-7.49,-0.74,0.37,-0.58,-1.58,43.7,0.37,-0.37,-7.81,100.0,0.0,0.0,125.07,0.0,0.0,0.0,0.0,0.0,0.0,0.0,6672.0,0.0,30.0,4.0,157.3,0.0,0.0,0.0,0.0,0.0,0.0,0.0,0.0,63.436,63.436,74.679,27.738,0.0,110.0,435.8,8750.0,0.0,0.0,110.0,110.0,433.0,0.0,0.0,0.0,1.0,166.7,72.8,72.8,65.0,65.0,34.0,16.49,68.44,17.1,70.1,1.0,-140.69,-14.4,100.0,17.0,25.0,32.9,42.1,0.0,1.0,100.0,0.0,0.0,0.0,0.0,2346.0,4595.0,4218.0,5778.0,318.6,312.1,344.8,340.8,22.98,22.26,26.82,26.32,325.0,325.0,355.0,355.0,99.81,99.74,99.94,99.89,1.05,1.08,0.68,0.82,-0.1,-0.1,2.1,1.6,69.6,65.1,87.4,84.2,68.2,63.0,89.0,86.2,65.7,60.8,86.9,83.9,64.0,59.7,85.5,82.6,-0.81,0.81,0.07,0.05,0.0,133.64,134.32,125.07,125.07,356.7,7.7,0.752994023880668,137.19875184571725,73.46074900676065,-129.6366160449071,-39.61118806997902,0,4
1270,63.45,1096.2,44.05351546391125,-78.68259637381597,-2.8,-6.5,5.4,5.3,2667.4,2667.0,157.9,0.0,1.0,1.0,0.0,1.0,1.0,0.0,0.0,0.0,100.0,1.0,1.186,26.0,0.0,8.598,74.678,66.0,0.0,26.0,26.0,26.0,26.0,0.69,0.39,0.04,379.0,-2.96,-2.24,-1.86,-1.15,-810.67,566.81,5.2,0.0,0.0,0.0,0.0,0.61,-7.49,-7.49,-0.73,0.22,-0.64,-1.2,43.86,0.36,-0.37,-8.72,100.0,0.0,0.0,125.59,0.0,0.0,0.0,0.0,0.0,0.0,0.0,6699.0,0.0,30.0,4.0,157.9,1.0,0.0,0.0,0.0,0.0,0.0,0.0,0.0,63.48,63.48,74.679,27.738,1.0,110.0,435.8,8750.0,0.0,0.0,110.0,110.0,433.0,0.0,0.0,0.0,1.0,333.3,72.5,72.5,64.9,64.9,34.0,17.75,74.92,16.2,68.4,1.0,-140.74,-15.8,100.0,16.8,24.7,33.2,42.3,0.0,1.0,100.0,0.0,0.0,0.0,0.0,2473.0,4856.0,4078.0,5703.0,318.3,311.5,345.1,341.0,22.98,22.26,26.82,26.32,325.0,325.0,355.0,355.0,99.81,99.74,99.94,99.89,1.09,1.13,0.67,0.8,-0.1,-0.1,2.1,1.6,69.6,65.1,87.4,84.2,68.1,63.0,88.9,86.2,65.7,60.9,86.8,83.9,64.0,59.7,85.4,82.6,-0.9,0.89,0.07,0.04,0.0,134.09,134.82,125.59,125.59,356.7,7.7,0.7935993951610598,132.877531310887,72.74054560799826,43.21220534830218,50.414239620438224,0,4
1271,63.5,1098.4,44.05353309061473,-78.68260608648932,-2.9,-3.6,-0.0,3.1,2669.6,2670.0,158.5,0.0,1.0,1.0,0.0,1.0,1.0,0.0,0.0,0.0,100.0,1.0,1.186,26.0,0.0,8.598,74.678,66.0,0.0,26.0,26.0,26.0,26.0,0.71,0.36,0.03,379.0,-2.89,-2.3,-2.11,-1.21,-811.75,568.77,5.2,0.0,0.0,0.0,0.0,0.61,-7.49,-7.49,-0.71,0.64,-0.7,-1.31,44.04,0.38,-0.36,-9.86,100.0,0.0,0.0,126.06,0.0,0.0,0.0,0.0,0.0,0.0,0.0,6724.0,0.0,30.0,4.0,158.5,0.0,0.0,0.0,0.0,0.0,0.0,0.0,0.0,63.531,63.531,74.679,27.738,0.0,110.0,435.8,8750.0,0.0,0.0,110.0,110.0,433.0,0.0,0.0,0.0,1.0,333.3,72.9,72.9,64.5,64.5,34.0,17.18,75.76,17.2,74.0,1.0,-140.79,-16.7,100.0,16.7,24.5,33.2,42.5,0.0,1.0,100.0,0.0,0.0,0.0,0.0,2322.0,4838.0,4189.0,5828.0,318.7,311.5,344.9,340.7,22.97,22.26,26.82,26.32,325.0,325.0,355.0,355.0,99.81,99.74,99.94,99.89,1.12,1.16,0.73,0.85,-0.1,-0.1,2.2,1.5,69.6,65.1,87.4,84.2,68.1,63.0,88.9,86.2,65.6,60.9,86.8,83.9,64.0,59.8,85.4,82.5,-0.96,0.96,0.07,0.04,0.0,134.59,135.42,126.06,126.06,356.7,7.7,0.7966178506661773,141.51997238054747,78.50217296880447,86.42441069660464,75.62135914614558,0,4
1272,63.55,1100.6,44.05355080725037,-78.68261597902698,-5.5,-2.2,5.6,9.0,2671.8,2672.0,159.2,0.0,1.0,1.0,0.0,1.0,1.0,0.0,0.0,0.0,100.0,1.0,1.186,26.0,0.0,8.598,74.678,66.0,0.0,26.0,26.0,26.0,26.0,0.75,0.34,0.03,378.9,-2.82,-2.06,-2.05,-1.27,-812.85,570.74,5.2,0.0,0.0,0.0,0.0,0.61,-7.49,-7.49,-0.7,0.35,-0.75,-1.13,44.22,0.41,-0.36,-10.53,100.0,0.0,0.0,126.59,0.0,0.0,0.0,0.0,0.0,0.0,0.0,6753.0,0.0,30.0,4.0,159.2,1.0,0.0,0.0,0.0,0.0,0.0,0.0,0.0,63.581,63.581,74.679,27.738,1.0,110.0,435.8,8750.0,0.0,0.0,110.0,110.0,433.0,0.0,0.0,0.0,1.0,333.3,72.9,72.9,64.1,64.1,34.0,18.11,79.34,19.2,78.0,1.0,-140.84,-17.1,100.0,16.4,24.4,33.4,43.0,0.0,1.0,100.0,0.0,0.0,0.0,0.0,2317.0,5002.0,4108.0,5835.0,318.7,311.0,345.0,340.6,22.97,22.26,26.82,26.32,325.0,325.0,355.0,355.0,99.81,99.74,99.94,99.89,1.17,1.2,0.78,0.9,-0.1,-0.1,2.2,1.5,69.6,65.1,87.4,84.2,68.1,63.1,88.9,86.2,65.6,60.9,86.8,83.9,64.0,59.8,85.4,82.5,-0.98,0.98,0.07,0.04,0.0,135.07,135.98,126.59,126.59,356.7,7.7,0.8240145629781066,141.51997238054747,80.30268152261282,-46.81322262662633,10.803051550459486,0,4
1273,63.6,1102.8,44.05356843395384,-78.68262614136113,-4.6,2.1,-4.0,6.2,2674.0,2674.0,159.8,0.0,1.0,1.0,0.0,1.0,1.0,0.0,0.0,0.0,100.0,1.0,1.186,26.0,0.0,8.601,74.678,66.0,0.0,26.0,26.0,26.0,26.0,0.79,0.35,0.04,378.9,-2.76,-2.12,-1.99,-1.18,-813.98,572.7,5.2,0.0,0.0,0.0,0.0,0.61,-7.49,-7.49,-0.68,0.46,-0.81,-1.34,44.39,0.45,-0.35,-11.05,100.0,0.0,0.0,127.1,0.0,0.0,0.0,0.0,0.0,0.0,0.0,6780.0,0.0,30.0,4.0,159.8,0.0,0.0,0.0,0.0,0.0,0.0,1.0,0.0,63.633,63.633,74.679,27.738,0.0,110.0,435.8,8750.0,0.0,0.0,110.0,110.0,433.0,0.0,0.0,0.0,1.0,166.7,73.3,73.3,64.0,64.0,34.0,17.59,79.67,22.0,83.6,1.0,-140.89,-17.1,100.0,16.2,24.5,33.2,43.3,0.0,1.0,100.0,0.0,0.0,0.0,0.0,2192.0,4942.0,4120.0,6006.0,319.0,311.2,345.0,340.2,22.97,22.26,26.82,26.32,325.0,325.0,355.0,355.0,99.81,99.74,99.94,99.89,1.2,1.24,0.85,0.97,-0.1,-0.1,2.3,1.5,69.6,65.1,87.4,84.2,68.1,63.1,88.9,86.2,65.6,60.9,86.7,83.8,63.9,59.8,85.3,82.5,-0.98,0.98,0.07,0.04,0.0,135.58,136.54,127.1,127.1,356.7,7.7,0.8649855490122365,136.83865011788484,79.58247812385042,-50.41423962043808,3.6010169938118963,0,4
1274,63.65,1105.0,44.05358498147139,-78.68263585403447,-2.3,2.9,2.2,9.6,2676.3,2676.0,160.4,0.0,1.0,1.0,0.0,1.0,1.0,0.0,0.0,0.0,100.0,1.0,1.186,26.0,0.0,8.601,74.678,66.0,0.0,26.0,26.0,26.0,26.0,0.83,0.35,0.04,378.6,-2.99,-2.17,-1.94,-1.1,-815.06,574.54,5.2,0.0,0.0,0.0,0.0,0.61,-7.49,-7.49,-0.68,0.25,-0.86,-0.95,44.56,0.48,-0.36,-11.22,100.0,0.0,0.0,127.62,0.0,0.0,0.0,0.0,0.0,0.0,0.0,6807.0,0.0,30.0,4.0,160.4,1.0,0.0,0.0,0.0,0.0,0.0,1.0,0.0,63.681,63.681,74.679,27.738,1.0,110.0,435.8,8750.0,0.0,0.0,110.0,110.0,433.0,0.0,0.0,0.0,1.0,333.3,72.8,72.8,64.0,64.0,34.0,19.26,84.45,23.6,84.6,1.0,-140.94,-17.1,100.0,16.1,24.7,33.4,43.7,0.0,1.0,100.0,0.0,0.0,0.0,0.0,2358.0,5119.0,4013.0,5947.0,318.6,310.7,345.3,340.4,22.97,22.26,26.82,26.32,325.0,325.0,355.0,355.0,99.81,99.74,99.94,99.89,1.24,1.28,0.9,1.02,-0.1,-0.1,2.3,1.5,69.6,65.1,87.4,84.3,68.0,63.1,88.8,86.2,65.6,60.9,86.7,83.8,63.9,59.8,85.3,82.5,-1.0,0.97,0.06,0.03,0.0,136.07,137.03,127.62,127.62,356.7,7.7,0.901665126307988,136.47854841850366,80.662783221994,-3.601016993811754,25.207119525707213,0,4
1275,63.7,1107.3,44.053602518242705,-78.6826462861651,-0.7,6.2,-7.2,4.6,2678.5,2678.0,161.0,0.0,1.0,1.0,0.0,1.0,1.0,0.0,0.0,0.0,100.0,1.0,1.186,26.0,0.0,8.598,74.678,66.0,0.0,26.0,26.0,26.0,26.0,0.83,0.38,0.03,378.6,-2.94,-2.09,-2.18,-1.14,-816.22,576.49,5.2,0.0,0.0,0.0,0.0,0.62,-7.49,-7.49,-0.66,0.61,-0.89,-0.83,44.73,0.52,-0.35,-11.48,100.0,0.0,0.0,128.09,0.0,0.0,0.0,0.0,0.0,0.0,0.0,6832.0,0.0,30.0,4.0,161.0,0.0,0.0,0.0,0.0,0.0,0.0,1.0,0.0,63.731,63.731,74.679,27.738,0.0,110.0,435.8,8750.0,0.0,0.0,110.0,110.0,433.0,0.0,0.0,0.0,1.0,166.7,72.9,72.9,63.7,63.7,34.0,17.48,85.46,24.3,91.0,1.0,-140.99,-17.1,100.0,16.0,25.0,33.0,44.0,0.0,1.0,100.0,0.0,0.0,0.0,0.0,2115.0,5135.0,4088.0,6125.0,319.2,310.6,345.1,339.9,22.97,22.26,26.82,26.32,325.0,325.0,355.0,355.0,99.81,99.74,99.94,99.89,1.28,1.31,0.95,1.08,-0.1,-0.1,2.3,1.5,69.5,65.1,87.4,84.3,68.0,63.1,88.8,86.2,65.5,61.0,86.7,83.8,63.9,59.9,85.3,82.5,-1.0,0.99,0.08,0.06,0.0,136.61,137.62,128.09,128.09,356.7,7.7,0.9133454987024351,136.47854841850366,82.10319007642114,39.61118835449042,61.21729117089785,0,4
1276,63.75,1109.5,44.05361906576025,-78.68265635856709,-2.4,11.0,3.4,10.8,2680.7,2681.0,161.6,0.0,1.0,1.0,0.0,1.0,1.0,0.0,0.0,0.0,100.0,1.0,1.186,26.0,0.0,8.601,74.678,66.0,0.0,26.0,26.0,26.0,26.0,0.88,0.35,0.05,378.2,-2.9,-2.03,-2.13,-1.06,-817.34,578.33,5.2,0.0,0.0,0.0,0.0,0.62,-7.49,-7.49,-0.65,0.48,-0.94,-1.35,44.89,0.54,-0.36,-11.54,100.0,0.0,0.0,128.57,0.0,0.0,0.0,0.0,0.0,0.0,0.0,6858.0,0.0,30.0,4.0,161.6,1.0,0.0,0.0,0.0,0.0,0.0,1.0,0.0,63.78,63.78,74.679,27.738,1.0,110.0,435.8,8750.0,0.0,0.0,110.0,110.0,433.0,0.0,0.0,0.0,1.0,333.3,72.3,72.3,63.2,63.2,34.0,19.48,90.39,24.8,90.3,1.0,-141.04,-17.1,100.0,15.9,25.5,33.2,44.5,0.0,1.0,100.0,0.0,0.0,0.0,0.0,2249.0,5334.0,3990.0,6118.0,318.9,310.1,345.3,339.9,22.97,22.26,26.82,26.32,325.0,325.0,355.0,355.0,99.81,99.74,99.94,99.89,1.31,1.35,0.97,1.09,-0.1,-0.1,2.2,1.5,69.5,65.1,87.4,84.3,68.0,63.2,88.8,86.2,65.5,61.0,86.7,83.8,63.9,59.9,85.3,82.5,-1.0,0.98,0.08,0.03,0.0,137.08,138.09,128.56,128.56,356.7,7.7,0.9483670175622937,140.4396672539527,86.78451233908379,36.01017136067867,61.21729117089771,0,4
894,44.65,1050.1,44.05344954363754,-78.68256669620298,-0.9,12.0,-10.3,5.2,4402.9,4403.0,165.3,0.0,1.0,1.0,0.0,1.0,1.0,0.0,0.0,0.0,100.0,1.0,1.186,26.0,0.0,-10.041,74.678,66.0,0.0,26.0,26.0,26.0,26.0,0.55,0.25,0.02,378.7,-2.87,-2.2,-1.87,-1.32,-807.37,559.48,5.2,0.0,0.0,0.0,0.0,0.61,-7.49,-7.49,-0.71,0.16,-0.5,-0.41,45.93,0.3,-0.37,-7.63,100.0,0.0,0.0,130.67,0.0,0.0,0.0,0.0,0.0,0.0,0.0,6970.0,0.0,30.0,4.0,165.3,1.0,0.0,0.0,0.0,0.0,0.0,0.0,0.0,44.661,44.661,84.921,24.333,1.0,110.0,435.8,8750.0,0.0,0.0,110.0,110.0,433.0,0.0,0.0,0.0,1.0,166.7,72.8,72.8,64.1,64.1,34.0,11.99,60.07,12.1,63.6,2.0,-206.84,-10.8,100.0,18.0,23.9,35.4,41.9,0.0,1.0,62.5,0.0,0.0,0.0,0.0,2717.0,4765.0,4316.0,5603.0,318.2,312.5,344.7,341.3,25.36,24.09,27.19,26.42,325.0,325.0,355.0,355.0,100.0,99.97,100.0,100.0,0.74,0.77,0.53,0.65,-0.1,-0.1,1.5,1.0,84.5,76.6,89.7,84.9,80.2,73.9,84.8,81.7,77.4,71.0,83.6,80.0,75.3,69.5,82.4,78.7,-0.63,0.6,0.07,0.04,0.0,140.49,141.12,130.67,130.67,356.7,7.7,0.6044832503882965,147.64170144073486,70.94003705418993,-43.21220563281457,-5.690235127531196e-07,0,4
895,44.7,1052.4,44.053467440137496,-78.6825753296904,-5.0,11.2,-3.5,8.6,4405.2,4405.0,165.7,0.0,1.0,1.0,0.0,1.0,1.0,0.0,0.0,0.0,100.0,1.0,1.186,26.0,0.0,-10.038,74.678,66.0,0.0,26.0,26.0,26.0,26.0,0.6,0.17,0.03,378.5,-2.83,-2.24,-2.0,-1.19,-808.33,561.47,5.2,0.0,0.0,0.0,0.0,0.61,-7.49,-7.49,-0.72,-0.28,-0.53,-1.13,46.02,0.32,-0.38,-7.75,100.0,0.0,0.0,130.35,0.0,0.0,0.0,0.0,0.0,0.0,0.0,6953.0,0.0,30.0,4.0,165.7,0.0,0.0,0.0,0.0,0.0,0.0,1.0,0.0,44.709,44.709,84.921,24.333,0.0,110.0,435.8,8750.0,0.0,0.0,110.0,110.0,433.0,0.0,0.0,0.0,1.0,333.3,72.6,72.6,63.8,63.8,34.0,13.36,66.76,13.0,66.8,2.0,-206.89,-11.7,100.0,17.8,24.4,35.2,42.4,0.0,1.0,34.9,0.0,0.0,0.0,0.0,2623.0,4932.0,4208.0,5640.0,318.4,312.1,344.9,341.2,25.36,24.09,27.19,26.42,325.0,325.0,355.0,355.0,100.0,99.97,100.0,100.0,0.82,0.86,0.56,0.68,-0.0,-0.0,1.2,0.7,84.5,76.6,89.7,84.9,80.2,73.9,84.8,81.7,77.3,71.0,83.6,80.0,75.3,69.5,82.4,78.7,-0.66,0.66,0.07,0.05,0.0,140.75,141.4,130.35,130.35,356.7,7.7,0.6243396511515187,147.64170144073486,72.02034215233351,36.01017136067867,39.611188069978596,0,4
896,44.75,1054.7,44.05348641582338,-78.6825846826351,9.8,18.7,-12.6,2.2,4407.5,4408.0,165.7,0.0,1.0,1.0,0.0,1.0,1.0,0.0,0.0,0.0,100.0,1.0,1.186,26.0,0.0,-10.041,74.678,66.0,0.0,26.0,26.0,26.0,26.0,0.66,-0.1,0.01,378.3,-2.93,-2.34,-1.93,-1.25,-809.37,563.58,5.2,0.0,0.0,0.0,0.0,0.61,-7.49,-7.49,-0.75,-0.63,-0.59,-1.1,46.03,0.33,-0.4,-8.3,100.0,0.0,0.0,128.91,0.0,0.0,0.0,0.0,0.0,0.0,0.0,6876.0,0.0,30.0,4.0,165.7,1.0,0.0,0.0,0.0,0.0,0.0,1.0,0.0,44.76,44.76,84.921,20.376,1.0,110.0,435.8,8750.0,0.0,0.0,110.0,110.0,433.0,0.0,0.0,0.0,1.0,333.3,71.2,71.2,64.8,64.8,34.0,16.27,74.48,15.3,67.4,2.0,-206.94,-13.4,100.0,18.3,25.4,34.6,42.5,0.0,1.0,0.0,0.0,0.0,0.0,0.0,2869.0,5122.0,3926.0,5378.0,317.8,311.6,345.6,341.8,25.35,24.09,27.19,26.42,325.0,325.0,355.0,355.0,100.0,99.97,100.0,100.0,0.88,0.96,0.59,0.72,0.0,-0.0,0.0,-0.3,84.5,76.6,89.7,84.9,80.1,73.9,84.8,81.7,77.3,71.0,83.5,79.9,75.2,69.5,82.3,78.6,-0.74,0.75,0.07,0.05,0.0,140.82,141.47,128.8,129.02,356.7,7.7,0.6676076692189807,151.24271857680273,74.90115586118779,-18.00508525357145,18.00508553808342,0,4
897,44.8,1057.0,44.053505211644946,-78.6825940355798,16.6,25.7,-17.2,-1.4,4409.8,4410.0,165.4,0.0,1.0,1.0,0.0,1.0,1.0,0.0,0.0,0.0,100.0,1.0,1.186,26.0,0.0,-10.044,74.678,66.0,0.0,26.0,26.0,26.0,26.0,0.71,-0.18,0.02,377.8,-2.9,-2.26,-2.04,-1.28,-810.41,565.67,5.2,0.0,0.0,0.0,0.0,0.61,-7.49,-7.49,-0.8,-1.05,-0.62,-0.5,45.93,0.35,-0.45,-9.49,100.0,0.0,0.0,128.67,0.0,0.0,0.0,0.0,0.0,0.0,0.0,6863.0,0.0,30.0,4.0,165.4,0.0,0.0,0.0,0.0,0.0,0.0,1.0,0.0,44.811,44.811,84.921,20.376,0.0,110.0,435.8,8750.0,0.0,0.0,110.0,110.0,433.0,0.0,0.0,0.0,1.0,166.7,69.3,69.3,65.6,65.6,34.0,20.35,85.7,15.8,70.3,2.0,-206.99,-15.1,100.0,19.1,26.6,33.7,42.4,0.0,1.0,0.0,0.0,0.0,0.0,0.0,3021.0,5541.0,3735.0,5330.0,317.4,310.5,346.0,341.9,25.35,24.09,27.18,26.42,325.0,325.0,355.0,355.0,100.0,99.97,100.0,100.0,0.99,1.05,0.64,0.79,0.0,-0.0,-0.1,-0.4,84.4,76.6,89.6,84.9,80.1,73.9,84.7,81.7,77.2,71.0,83.5,79.9,75.2,69.5,82.3,78.6,-0.87,0.85,0.07,0.06,0.0,140.42,141.21,128.45,128.89,356.7,7.7,0.7327346040688948,145.84119291537772,73.82085070614185,-61.21729088638574,0.0,0,4
898,44.85,1059.3,44.05352283834842,-78.68260311872801,16.5,37.8,-24.7,-4.9,4412.1,4412.0,165.0,0.0,1.0,1.0,0.0,1.0,1.0,0.0,0.0,0.0,100.0,1.0,1.186,26.0,0.0,-10.047,74.678,66.0,0.0,26.0,26.0,26.0,26.0,0.77,-0.18,0.03,377.4,-2.9,-2.17,-2.01,-1.14,-811.42,567.63,5.2,0.0,0.0,0.0,0.0,0.61,-7.49,-7.49,-0.84,-0.14,-0.63,-0.5,45.83,0.39,-0.49,-11.05,100.0,0.0,0.0,128.44,0.0,0.0,0.0,0.0,0.0,0.0,0.0,6851.0,0.0,30.0,4.0,165.0,1.0,0.0,0.0,0.0,0.0,0.0,1.0,0.0,44.859,44.859,84.921,20.376,1.0,110.0,435.8,8750.0,0.0,0.0,110.0,110.0,433.0,0.0,0.0,0.0,1.0,333.3,67.6,67.6,66.3,66.3,34.0,22.25,92.85,18.5,73.4,2.0,-207.04,-16.6,100.0,19.9,28.5,32.5,42.2,0.0,1.0,0.0,0.0,0.0,0.0,0.0,2976.0,5813.0,3518.0,5391.0,317.5,309.8,346.6,341.8,25.35,24.09,27.18,26.42,325.0,325.0,355.0,355.0,100.0,99.97,100.0,100.0,1.07,1.11,0.74,0.85,0.0,-0.0,-0.1,-0.4,84.4,76.6,89.6,84.8,80.0,73.9,84.7,81.6,77.2,71.0,83.4,79.9,75.2,69.5,82.2,78.6,-0.95,0.94,0.07,0.03,0.0,140.07,141.02,128.16,128.72,356.7,7.7,0.7913279977354523,145.12098948816416,74.90115586118779,-14.40406854427124,18.005086107107076,0,4
899,44.9,1061.5,44.053541454305666,-78.6826127414692,-1.1,9.8,-13.4,8.6,4414.4,4414.0,164.7,0.0,1.0,1.0,0.0,1.0,1.0,0.0,0.0,0.0,100.0,1.0,1.186,26.0,0.0,-10.047,74.678,66.0,0.0,26.0,26.0,26.0,26.0,0.87,-0.22,0.05,377.4,-3.01,-2.23,-1.97,-1.17,-812.49,569.7,5.2,0.0,0.0,0.0,0.0,0.61,-7.49,-7.49,-0.83,0.31,-0.66,-0.86,45.73,0.46,-0.5,-12.3,100.0,0.0,0.0,128.15,0.0,0.0,0.0,0.0,0.0,0.0,0.0,6835.0,0.0,30.0,4.0,164.7,0.0,0.0,0.0,0.0,0.0,0.0,1.0,0.0,44.91,44.91,84.921,20.376,0.0,110.0,435.8,8750.0,0.0,0.0,110.0,110.0,433.0,0.0,0.0,0.0,1.0,333.3,67.7,67.7,66.4,66.4,34.0,22.87,97.77,23.1,86.2,2.0,-207.09,-17.4,100.0,19.9,29.0,31.8,42.6,0.0,1.0,0.0,0.0,0.0,0.0,0.0,2835.0,5804.0,3539.0,5678.0,317.9,309.8,346.5,341.1,25.34,24.09,27.18,26.41,325.0,325.0,355.0,355.0,100.0,99.97,100.0,100.0,1.18,1.23,0.84,0.99,0.0,-0.0,-0.2,-0.4,84.4,76.6,89.6,84.8,80.0,73.9,84.6,81.6,77.2,71.0,83.4,79.9,75.1,69.6,82.2,78.6,-1.0,1.0,0.08,0.05,0.0,139.7,140.7,127.82,128.47,356.7,7.7,0.8987769467448528,144.4007860609506,75.62135931685256,-18.005085538083563,25.207119525707355,0,4
900,44.95,1063.8,44.05355890114482,-78.68262200448174,-3.5,6.1,-10.6,6.6,4416.7,4417.0,164.3,0.0,1.0,1.0,0.0,1.0,1.0,0.0,0.0,0.0,100.0,1.0,1.186,26.0,0.0,-10.05,74.678,66.0,0.0,26.0,26.0,26.0,26.0,0.9,-0.21,0.03,377.6,-2.98,-2.12,-2.09,-1.06,-813.52,571.64,5.2,0.0,0.0,0.0,0.0,0.61,-7.49,-7.49,-0.82,0.62,-0.69,-0.86,45.63,0.53,-0.5,-13.2,100.0,0.0,0.0,127.89,0.0,0.0,0.0,0.0,0.0,0.0,0.0,6822.0,0.0,30.0,4.0,164.3,1.0,0.0,0.0,0.0,0.0,0.0,1.0,0.0,44.959,44.959,84.921,20.376,1.0,110.0,435.8,8750.0,0.0,0.0,110.0,110.0,433.0,0.0,0.0,0.0,1.0,166.7,67.7,67.7,66.7,66.7,34.0,22.44,100.48,25.7,88.1,2.0,-207.14,-17.4,100.0,19.7,29.3,31.3,42.9,0.0,1.0,0.0,0.0,0.0,0.0,0.0,2685.0,5862.0,3421.0,5566.0,318.2,309.6,346.8,341.3,25.34,24.09,27.18,26.41,325.0,325.0,355.0,355.0,100.0,99.97,100.0,100.0,1.23,1.29,0.97,1.1,-0.0,-0.1,-0.2,-0.4,84.4,76.6,89.6,84.8,80.0,74.0,84.6,81.6,77.1,71.1,83.4,79.9,75.1,69.6,82.1,78.6,-1.01,1.0,0.07,0.03,0.0,139.36,140.51,127.53,128.26,356.7,7.7,0.9246621004453465,143.3204809343558,77.42186781375852,18.005085538082994,54.01525604522632,0,4
901,45.0,1066.1,44.05357724730558,-78.68263207688372,-9.3,-0.5,-2.9,7.1,4418.9,4419.0,163.9,0.0,1.0,1.0,0.0,1.0,1.0,0.0,0.0,0.0,100.0,1.0,1.186,26.0,0.0,-10.05,74.678,66.0,0.0,26.0,26.0,26.0,26.0,0.97,-0.2,-0.02,377.6,-3.21,-2.16,-2.04,-0.95,-814.64,573.68,5.2,0.0,0.0,0.0,0.0,0.61,-7.49,-7.49,-0.8,0.29,-0.73,-0.99,45.52,0.6,-0.48,-13.41,100.0,0.0,0.0,127.56,0.0,0.0,0.0,0.0,0.0,0.0,0.0,6804.0,0.0,30.0,4.0,163.9,0.0,0.0,0.0,0.0,0.0,0.0,1.0,0.0,45.009,45.009,84.921,20.376,0.0,110.0,435.8,8750.0,0.0,0.0,110.0,110.0,433.0,0.0,0.0,0.0,1.0,333.3,68.3,68.3,66.0,66.0,34.0,20.29,103.89,30.1,97.6,2.0,-207.19,-17.3,100.0,19.2,29.3,31.1,43.3,0.0,1.0,0.0,0.0,0.0,0.0,0.0,2400.0,5904.0,3482.0,5847.0,319.0,309.6,346.6,340.7,25.34,24.09,27.17,26.41,325.0,325.0,355.0,355.0,100.0,99.97,100.0,100.0,1.31,1.37,1.08,1.21,-0.0,-0.0,-0.2,-0.4,84.3,76.6,89.6,84.8,79.9,74.0,84.5,81.6,77.1,71.1,83.3,79.9,75.0,69.6,82.1,78.5,-1.0,1.0,0.09,0.04,0.0,139.01,140.15,127.18,127.95,356.7,7.7,0.9906058752097122,146.2012946147589,81.0228849213752,-25.2071198102189,21.606103100918972,0,4
902,45.05,1068.4,44.05359541360202,-78.68264223921787,-4.9,9.6,-9.5,6.7,4421.2,4421.0,163.5,0.0,1.0,1.0,0.0,1.0,1.0,0.0,0.0,0.0,100.0,1.0,1.186,26.0,0.0,-10.053,74.678,66.0,0.0,26.0,26.0,26.0,26.0,1.02,-0.21,0.04,377.6,-3.15,-2.22,-2.13,-1.0,-815.77,575.7,5.2,0.0,0.0,0.0,0.0,0.62,-7.49,-7.49,-0.79,0.44,-0.77,-0.86,45.41,0.65,-0.49,-13.74,100.0,0.0,0.0,127.27,0.0,0.0,0.0,0.0,0.0,0.0,0.0,6788.0,0.0,30.0,4.0,163.5,1.0,0.0,0.0,0.0,0.0,0.0,1.0,0.0,45.06,45.06,84.921,20.376,1.0,110.0,435.8,8750.0,0.0,0.0,110.0,110.0,433.0,0.0,0.0,0.0,1.0,333.3,67.7,67.7,66.7,66.7,34.0,23.79,109.24,29.5,97.7,2.0,-207.24,-17.4,100.0,19.0,29.8,30.7,43.6,0.0,1.0,0.0,0.0,0.0,0.0,0.0,2597.0,6028.0,3258.0,5697.0,318.5,309.2,347.2,341.1,25.33,24.09,27.17,26.41,325.0,325.0,355.0,355.0,100.0,99.97,100.0,100.0,1.38,1.44,1.16,1.28,-0.0,-0.1,-0.2,-0.4,84.3,76.5,89.6,84.8,79.9,74.0,84.5,81.6,77.1,71.1,83.3,79.8,75.0,69.6,82.0,78.5,-1.01,1.01,0.08,0.04,0.0,138.68,139.83,126.87,127.67,356.7,7.7,1.0421612159354234,140.7997689533339,79.58247812385042,-64.8183078801975,5.690236548616667e-07,0,4
903,45.1,1070.6,44.053612410780374,-78.68265195189122,-4.8,6.1,-2.8,8.2,4423.5,4423.0,163.2,0.0,1.0,1.0,0.0,1.0,1.0,0.0,0.0,0.0,100.0,1.0,1.186,26.0,0.0,-10.053,74.678,66.0,0.0,26.0,26.0,26.0,26.0,1.05,-0.21,0.07,377.3,-3.11,-2.12,-2.23,-1.05,-816.85,577.59,5.2,0.0,0.0,0.0,0.0,0.62,-7.49,-7.49,-0.78,0.39,-0.81,-0.96,45.31,0.69,-0.49,-13.91,100.0,0.0,0.0,126.99,0.0,0.0,0.0,0.0,0.0,0.0,0.0,6773.0,0.0,30.0,4.0,163.2,0.0,0.0,0.0,0.0,0.0,0.0,1.0,0.0,45.109,45.109,84.921,20.376,0.0,110.0,435.8,8750.0,0.0,0.0,110.0,110.0,433.0,0.0,0.0,0.0,1.0,333.3,67.6,67.6,65.9,65.9,34.0,23.66,114.81,31.6,105.5,2.0,-207.29,-17.6,100.0,18.8,30.1,30.5,44.0,0.0,1.0,0.0,0.0,0.0,0.0,0.0,2512.0,6229.0,3381.0,5921.0,318.7,308.7,346.9,340.5,25.33,24.09,27.17,26.41,325.0,325.0,355.0,355.0,100.0,99.97,100.0,100.0,1.43,1.49,1.2,1.34,0.0,-0.0,-0.2,-0.4,84.3,76.5,89.5,84.8,79.9,74.0,84.5,81.6,77.0,71.1,83.2,79.8,75.0,69.6,82.0,78.5,-1.01,1.01,0.08,0.03,0.0,138.37,139.54,126.59,127.38,356.7,7.7,1.0730796801729123,139.71946382673914,81.02288497827756,18.00508553808328,57.61627360806216,0,4
904,45.15,1072.9,44.05363030728033,-78.68266247395401,-2.6,10.1,-10.2,5.9,4425.7,4426.0,162.8,0.0,1.0,1.0,0.0,1.0,1.0,0.0,0.0,0.0,100.0,1.0,1.186,26.0,0.0,-10.053,74.678,66.0,0.0,26.0,26.0,26.0,26.0,1.07,-0.21,0.01,377.4,-3.18,-2.06,-2.18,-0.96,-818.02,579.58,5.2,0.0,0.0,0.0,0.0,0.62,-7.49,-7.49,-0.76,0.83,-0.85,-1.36,45.2,0.72,-0.49,-14.16,100.0,0.0,0.0,126.68,0.0,0.0,0.0,0.0,0.0,0.0,0.0,6757.0,0.0,30.0,4.0,162.8,1.0,0.0,0.0,0.0,0.0,0.0,1.0,0.0,45.159,45.159,84.921,20.376,1.0,110.0,435.8,8750.0,0.0,0.0,110.0,110.0,433.0,0.0,0.0,0.0,1.0,333.3,67.6,67.6,66.3,66.3,34.0,22.87,113.55,32.5,106.9,2.0,-207.34,-17.6,100.0,18.6,30.6,30.0,44.3,0.0,1.0,0.0,0.0,0.0,0.0,0.0,2420.0,6148.0,3279.0,5929.0,318.9,308.9,347.2,340.5,25.33,24.09,27.16,26.41,325.0,325.0,355.0,355.0,100.0,99.97,100.0,100.0,1.46,1.51,1.27,1.4,-0.0,-0.1,-0.2,-0.4,84.3,76.5,89.5,84.8,79.8,74.1,84.4,81.6,77.0,71.2,83.2,79.9,74.9,69.7,82.0,78.5,-1.01,1.01,0.08,0.03,0.0,138.03,139.2,126.23,127.13,356.7,7.7,1.0904586191139947,142.60027750714224,85.34410548465664,14.404068259759413,57.61627303903836,0,4
905,45.2,1075.2,44.05364802391597,-78.68267326581328,-2.7,-2.2,2.4,9.8,4428.0,4428.0,162.4,0.0,1.0,1.0,0.0,1.0,1.0,0.0,0.0,0.0,100.0,1.0,1.186,26.0,0.0,-10.053,74.678,66.0,0.0,26.0,26.0,26.0,26.0,1.09,-0.2,0.07,377.1,-3.12,-2.01,-2.25,-1.04,-819.22,581.55,5.2,0.0,0.0,0.0,0.0,0.62,-7.49,-7.49,-0.74,0.54,-0.91,-1.18,45.09,0.73,-0.49,-13.96,100.0,0.0,0.0,126.39,0.0,0.0,0.0,0.0,0.0,0.0,0.0,6742.0,0.0,30.0,4.0,162.4,0.0,0.0,0.0,0.0,0.0,0.0,0.0,0.0,45.21,45.21,84.921,20.376,0.0,110.0,435.8,8750.0,0.0,0.0,110.0,110.0,433.0,0.0,0.0,0.0,1.0,333.3,67.3,67.3,66.0,66.0,34.0,24.87,117.37,33.1,109.4,2.0,-207.39,-17.4,100.0,18.5,30.5,30.1,44.8,0.0,1.0,0.0,0.0,0.0,0.0,0.0,2556.0,6293.0,3325.0,5978.0,318.6,308.5,347.0,340.3,25.32,24.09,27.16,26.41,325.0,325.0,355.0,355.0,100.0,99.97,100.0,100.0,1.48,1.55,1.28,1.42,-0.0,-0.1,-0.2,-0.4,84.3,76.5,89.5,84.8,79.8,74.1,84.4,81.6,77.0,71.2,83.1,79.9,74.9,69.7,81.9,78.6,-1.0,1.01,0.08,0.04,0.0,137.7,138.86,125.97,126.82,356.7,7.7,1.110405331399305,141.15987065271509,86.7845122821814,-68.41932515852164,0.0,0,4
906,45.25,1077.4,44.05366556068728,-78.6826841476047,-1.7,4.4,-5.2,1.4,4430.2,4430.0,162.0,0.0,1.0,1.0,0.0,1.0,1.0,0.0,0.0,0.0,100.0,1.0,1.186,26.0,0.0,-10.053,74.678,66.0,0.0,26.0,26.0,26.0,26.0,1.09,-0.2,0.02,377.3,-3.18,-2.06,-2.19,-0.85,-820.43,583.5,5.2,0.0,0.0,0.0,0.0,0.62,-7.49,-7.49,-0.71,0.85,-0.97,-1.44,44.98,0.75,-0.48,-13.92,100.0,0.0,0.0,126.08,0.0,0.0,0.0,0.0,0.0,0.0,0.0,6725.0,0.0,30.0,4.0,162.0,1.0,0.0,0.0,0.0,0.0,0.0,0.0,0.0,45.261,45.261,84.921,20.376,1.0,110.0,435.8,8750.0,0.0,0.0,110.0,110.0,433.0,0.0,0.0,0.0,1.0,166.7,67.9,67.9,65.9,65.9,34.0,21.52,112.08,34.7,111.3,2.0,-207.44,-16.4,100.0,18.4,30.7,29.9,44.9,0.0,1.0,0.0,0.0,0.0,0.0,0.0,2295.0,6087.0,3382.0,6086.0,319.2,309.0,346.9,340.1,25.32,24.09,27.16,26.41,325.0,325.0,355.0,355.0,100.0,99.97,100.0,100.0,1.47,1.51,1.31,1.44,-0.0,-0.1,-0.2,-0.4,84.2,76.5,89.5,84.8,79.8,74.1,84.3,81.6,76.9,71.2,83.1,79.9,74.9,69.7,81.9,78.6,-0.96,0.96,0.09,0.04,0.0,137.37,138.55,125.65,126.5,356.7,7.7,1.1083771921146701,135.75834499129007,85.34410548465664,-25.20711952570707,28.808137657566704,0,4
907,45.3,1079.7,44.05368192834051,-78.68269457973534,4.6,6.4,4.9,6.4,4432.5,4432.0,161.6,0.0,1.0,1.0,0.0,1.0,1.0,0.0,0.0,0.0,100.0,1.0,1.186,26.0,0.0,-10.053,74.678,66.0,0.0,26.0,26.0,26.0,26.0,1.08,-0.21,0.07,376.9,-3.23,-2.03,-2.13,-0.93,-821.59,585.32,5.2,0.0,0.0,0.0,0.0,0.62,-7.49,-7.49,-0.69,0.9,-1.03,-1.53,44.88,0.74,-0.49,-13.57,100.0,0.0,0.0,125.79,0.0,0.0,0.0,0.0,0.0,0.0,0.0,6709.0,0.0,30.0,4.0,161.6,0.0,0.0,0.0,0.0,0.0,0.0,0.0,0.0,45.309,45.309,84.921,20.376,0.0,110.0,435.8,8750.0,0.0,0.0,110.0,110.0,433.0,0.0,0.0,0.0,1.0,333.3,66.9,66.9,65.9,65.9,34.0,23.53,116.13,33.1,107.4,2.0,-207.49,-15.3,100.0,18.6,31.0,30.1,45.2,0.0,1.0,0.0,0.0,0.0,0.0,0.0,2573.0,6327.0,3250.0,5915.0,318.5,308.4,347.2,340.5,25.32,24.08,27.16,26.41,325.0,325.0,355.0,355.0,100.0,99.97,100.0,100.0,1.4,1.47,1.29,1.42,-0.0,-0.1,-0.1,-0.4,84.2,76.5,89.5,84.8,79.7,74.2,84.3,81.6,76.9,71.3,83.1,79.9,74.9,69.8,81.8,78.6,-0.9,0.89,0.09,0.03,0.0,137.07,138.24,125.36,126.21,356.7,7.7,1.1024518130059018,138.63915870014438,89.66532604793807,-25.2071198102189,28.80813651951911,0,4
908,45.35,1081.9,44.05370018456911,-78.6827065407127,-1.2,-5.3,3.9,0.7,4434.7,4435.0,161.2,0.0,1.0,1.0,0.0,1.0,1.0,0.0,0.0,0.0,100.0,1.0,1.186,26.0,0.0,-10.053,74.678,66.0,0.0,26.0,26.0,26.0,26.0,1.08,-0.21,0.11,376.8,-3.16,-2.09,-2.26,-0.99,-822.92,587.35,5.2,0.0,0.0,0.0,0.0,0.62,-7.49,-7.49,-0.65,0.6,-1.1,-1.34,44.77,0.74,-0.48,-12.87,100.0,0.0,0.0,125.67,0.0,0.0,0.0,0.0,0.0,0.0,0.0,6703.0,0.0,30.0,4.0,161.2,1.0,0.0,0.0,0.0,0.0,0.0,0.0,0.0,45.363,45.363,84.921,20.376,1.0,110.0,435.8,8750.0,0.0,0.0,110.0,110.0,433.0,0.0,0.0,0.0,1.0,166.7,67.4,67.4,65.4,65.4,34.0,23.51,112.5,35.1,112.0,2.0,-207.54,-15.1,100.0,18.6,30.8,30.3,45.2,0.0,1.0,3.6,0.0,0.0,0.0,0.0,2563.0,6185.0,3536.0,6129.0,318.6,308.8,346.5,339.9,25.31,24.08,27.15,26.4,325.0,325.0,355.0,355.0,100.0,99.97,100.0,100.0,1.4,1.46,1.26,1.39,-0.0,-0.1,-0.1,-0.3,84.2,76.5,89.5,84.8,79.7,74.2,84.3,81.6,76.9,71.3,83.0,79.9,74.8,69.8,81.8,78.6,-0.88,0.88,0.07,0.03,0.0,136.76,137.84,125.12,126.22,356.7,7.7,1.1057124400132252,133.23763301026818,88.22491913660855,-108.03051351301207,-28.808137657566704,0,4
909,45.4,1084.1,44.053715203239925,-78.68271661311468,7.9,2.5,-0.9,-2.2,4437.0,4437.0,161.0,0.0,1.0,1.0,0.0,1.0,1.0,0.0,0.0,0.0,100.0,1.0,1.186,26.0,0.0,-10.053,74.678,66.0,0.0,26.0,26.0,26.0,26.0,1.04,-0.04,0.05,377.2,-3.12,-2.06,-2.2,-0.95,-824.04,589.02,5.2,0.0,0.0,0.0,0.0,0.62,-7.49,-7.49,-0.62,1.39,-1.15,-1.26,44.71,0.71,-0.48,-12.82,100.0,0.0,0.0,126.27,0.0,0.0,0.0,0.0,0.0,0.0,0.0,6735.0,0.0,30.0,4.0,161.0,0.0,0.0,0.0,0.0,0.0,0.0,0.0,0.0,45.409,45.409,84.921,20.376,0.0,110.0,435.8,8750.0,0.0,0.0,110.0,110.0,433.0,0.0,0.0,0.0,1.0,333.3,67.1,67.1,66.2,66.2,34.0,23.05,110.62,30.3,103.2,2.0,-207.59,-15.1,100.0,19.0,30.9,30.3,45.1,0.0,1.0,13.5,0.0,0.0,0.0,0.0,2575.0,6142.0,3243.0,5800.0,318.5,308.9,347.2,340.7,25.31,24.08,27.15,26.4,325.0,325.0,355.0,355.0,100.0,99.97,100.0,100.0,1.35,1.42,1.24,1.37,-0.0,-0.1,0.7,0.0,84.2,76.5,89.4,84.8,79.7,74.2,84.2,81.6,76.8,71.3,83.0,79.9,74.8,69.8,81.8,78.6,-0.87,0.87,0.07,0.04,0.0,136.58,137.67,126.27,126.27,356.7,7.7,1.0419692893746917,127.83610734884317,86.7845122821814,14.404068544271524,57.61627417708581,0,4
910,45.45,1086.4,44.053732110486116,-78.6827282143634,-5.6,-7.2,7.1,7.7,4439.2,4439.0,161.0,0.0,1.0,1.0,0.0,1.0,1.0,0.0,0.0,0.0,100.0,1.0,1.186,26.0,0.0,-10.05,74.678,66.0,0.0,26.0,26.0,26.0,26.0,1.06,0.07,0.13,376.7,-3.13,-2.06,-2.17,-0.94,-825.33,590.9,5.2,0.0,0.0,0.0,0.0,0.63,-7.49,-7.49,-0.55,1.58,-1.21,-1.15,44.72,0.67,-0.46,-11.7,100.0,0.0,0.0,126.82,0.0,0.0,0.0,0.0,0.0,0.0,0.0,6765.0,0.0,30.0,4.0,161.0,1.0,0.0,0.0,0.0,0.0,0.0,0.0,0.0,45.459,45.459,84.921,20.376,1.0,110.0,435.8,8750.0,0.0,0.0,110.0,110.0,433.0,0.0,0.0,0.0,1.0,333.3,67.7,67.7,64.7,64.7,34.0,22.73,108.27,33.3,109.8,2.0,-207.64,-15.4,100.0,18.7,30.5,30.6,45.5,0.0,1.0,35.3,0.0,0.0,0.0,0.0,2547.0,6037.0,3807.0,6281.0,318.6,309.2,345.9,339.6,25.3,24.08,27.15,26.4,325.0,325.0,355.0,355.0,100.0,99.97,100.0,100.0,1.35,1.42,1.16,1.29,-0.1,-0.1,1.2,0.5,84.2,76.5,89.4,84.8,79.6,74.3,84.2,81.6,76.8,71.3,83.0,79.9,74.7,69.8,81.7,78.6,-0.88,0.89,0.08,0.03,0.0,136.66,137.63,126.82,126.82,356.7,7.7,1.070233619356073,134.67803986469534,93.98654655431713,21.606102816407144,61.21729173992165,0,4
911,45.5,1088.6,44.053748837867985,-78.6827400854086,-8.7,-13.6,7.7,4.1,4441.4,4441.0,161.2,0.0,1.0,1.0,0.0,1.0,1.0,0.0,0.0,0.0,100.0,1.0,1.186,26.0,0.0,-10.047,74.678,66.0,0.0,26.0,26.0,26.0,26.0,0.99,0.19,0.06,377.4,-3.11,-2.1,-2.19,-0.99,-826.65,592.76,5.2,0.0,0.0,0.0,0.0,0.63,-7.49,-7.49,-0.47,1.88,-1.27,-1.72,44.78,0.63,-0.42,-11.29,100.0,0.0,0.0,127.44,0.0,0.0,0.0,0.0,0.0,0.0,0.0,6798.0,0.0,30.0,4.0,161.2,0.0,0.0,0.0,0.0,0.0,0.0,0.0,0.0,45.51,45.51,84.921,20.376,0.0,110.0,435.8,8750.0,0.0,0.0,110.0,110.0,433.0,0.0,0.0,0.0,1.0,333.3,69.5,69.5,64.4,64.4,34.0,18.22,95.32,30.1,106.8,2.0,-207.69,-16.0,100.0,18.3,29.8,31.0,45.7,0.0,1.0,51.2,0.0,0.0,0.0,0.0,2105.0,5449.0,3931.0,6392.0,319.7,310.6,345.6,339.3,25.3,24.08,27.14,26.4,325.0,325.0,355.0,355.0,100.0,99.97,100.0,100.0,1.37,1.41,1.08,1.21,-0.1,-0.1,1.6,0.9,84.1,76.5,89.4,84.8,79.6,74.3,84.2,81.6,76.8,71.4,82.9,79.9,74.7,69.9,81.7,78.6,-0.92,0.91,0.08,0.03,0.0,136.86,137.81,127.44,127.44,356.7,7.7,1.0098514742277698,129.9967176304839,92.90624145617356,-54.01525632973829,3.6010169938118963,0,4
912,45.55,1090.9,44.05376457599609,-78.68275141686084,-2.5,-11.1,20.0,10.8,4443.7,4444.0,161.6,0.0,1.0,1.0,0.0,1.0,1.0,0.0,0.0,0.0,100.0,1.0,1.186,26.0,0.0,-10.05,74.678,66.0,0.0,26.0,26.0,26.0,26.0,0.98,0.23,0.06,377.0,-3.05,-2.12,-2.19,-1.01,-827.91,594.51,5.2,0.0,0.0,0.0,0.0,0.63,-7.49,-7.49,-0.41,1.43,-1.33,-0.96,44.88,0.58,-0.41,-11.05,100.0,0.0,0.0,127.86,0.0,0.0,0.0,0.0,0.0,0.0,0.0,6820.0,0.0,30.0,4.0,161.6,1.0,0.0,0.0,0.0,0.0,0.0,0.0,0.0,45.559,45.559,84.921,20.376,1.0,110.0,435.8,8750.0,0.0,0.0,110.0,110.0,433.0,0.0,0.0,0.0,1.0,333.3,69.2,69.2,63.8,63.8,34.0,22.17,98.04,27.8,99.5,2.0,-207.74,-16.5,100.0,18.1,29.3,32.0,46.3,0.0,1.0,64.5,0.0,0.0,0.0,0.0,2501.0,5585.0,3943.0,6190.0,318.7,310.3,345.5,339.8,25.3,24.08,27.14,26.4,325.0,325.0,355.0,355.0,100.0,99.97,100.0,100.0,1.33,1.4,1.02,1.15,-0.0,-0.1,1.7,0.9,84.1,76.5,89.4,84.8,79.6,74.3,84.1,81.6,76.7,71.4,82.9,79.9,74.7,69.9,81.7,78.6,-0.94,0.95,0.08,0.03,0.0,137.13,138.07,127.86,127.86,356.7,7.7,1.0084145972763385,129.2765142317215,94.34664825369832,25.2071198102189,57.61627303903822,0,4
913,45.6,1093.1,44.053781123513645,-78.68276364763467,-6.5,-15.6,8.9,2.8,4445.9,4446.0,162.0,0.0,1.0,1.0,0.0,1.0,1.0,0.0,0.0,0.0,100.0,1.0,1.186,26.0,0.0,-10.047,74.678,66.0,0.0,26.0,26.0,26.0,26.0,0.94,0.26,0.15,377.0,-3.04,-2.13,-2.17,-1.01,-829.27,596.35,5.2,0.0,0.0,0.0,0.0,0.63,-7.49,-7.49,-0.35,1.18,-1.38,-0.9,44.99,0.56,-0.39,-11.2,100.0,0.0,0.0,128.25,0.0,0.0,0.0,0.0,0.0,0.0,0.0,6841.0,0.0,30.0,4.0,162.0,0.0,0.0,0.0,0.0,0.0,0.0,0.0,0.0,45.609,45.609,84.921,20.376,0.0,110.0,435.8,8750.0,0.0,0.0,110.0,110.0,433.0,0.0,0.0,0.0,1.0,166.7,69.8,69.8,63.2,63.2,34.0,21.77,96.14,27.7,100.8,2.0,-207.79,-16.5,100.0,17.8,28.5,32.5,46.4,0.0,1.0,75.8,0.0,0.0,0.0,0.0,2493.0,5571.0,4165.0,6419.0,318.8,310.4,345.0,339.2,25.29,24.08,27.14,26.4,325.0,325.0,355.0,355.0,100.0,99.97,100.0,100.0,1.32,1.35,0.97,1.1,-0.1,-0.1,1.8,1.1,84.1,76.5,89.4,84.7,79.5,74.3,84.1,81.6,76.7,71.4,82.9,79.9,74.6,69.9,81.6,78.6,-0.96,0.95,0.08,0.02,0.0,137.45,138.42,128.25,128.25,356.7,7.7,0.9867623827447011,132.51742961150578,98.66786876007738,-14.404068828783352,28.808137088542907,0,4
914,45.65,1095.4,44.05379767103119,-78.68277605827284,2.0,-4.9,5.7,0.6,4448.2,4448.0,162.4,0.0,1.0,1.0,0.0,1.0,1.0,0.0,0.0,0.0,100.0,1.0,1.186,26.0,0.0,-10.047,74.678,66.0,0.0,26.0,26.0,26.0,26.0,0.91,0.27,0.03,377.5,-3.02,-2.15,-2.18,-1.04,-830.65,598.19,5.2,0.0,0.0,0.0,0.0,0.63,-7.49,-7.49,-0.3,1.52,-1.41,-0.73,45.11,0.55,-0.39,-11.58,100.0,0.0,0.0,128.8,0.0,0.0,0.0,0.0,0.0,0.0,0.0,6870.0,0.0,30.0,4.0,162.4,1.0,0.0,0.0,0.0,0.0,0.0,0.0,0.0,45.66,45.66,84.921,20.376,1.0,110.0,435.8,8750.0,0.0,0.0,110.0,110.0,433.0,0.0,0.0,0.0,1.0,333.3,70.3,70.3,63.8,63.8,34.0,20.16,90.95,24.9,96.2,2.0,-207.84,-16.5,100.0,17.9,28.3,32.8,46.4,0.0,1.0,80.1,0.0,0.0,0.0,0.0,2384.0,5359.0,3912.0,6247.0,319.0,310.9,345.7,339.7,25.29,24.08,27.14,26.4,325.0,325.0,355.0,355.0,100.0,99.97,100.0,100.0,1.28,1.31,0.97,1.1,-0.1,-0.1,1.9,1.2,84.1,76.5,89.4,84.7,79.5,74.3,84.1,81.6,76.7,71.4,82.9,79.9,74.6,69.9,81.6,78.6,-0.97,0.95,0.09,0.03,0.0,137.83,138.81,128.8,128.8,356.7,7.7,0.9496841580230767,127.83610734884317,97.22746196255261,-14.404068544270956,36.0101710761667,0,4
915,45.7,1097.6,44.05381304943065,-78.68278792931804,-1.7,-9.1,10.5,7.4,4450.4,4450.0,162.8,0.0,1.0,1.0,0.0,1.0,1.0,0.0,0.0,0.0,100.0,1.0,1.186,26.0,0.0,-10.05,74.678,66.0,0.0,26.0,26.0,26.0,26.0,0.94,0.26,0.09,377.1,-3.0,-2.16,-2.18,-1.04,-831.97,599.9,5.2,0.0,0.0,0.0,0.0,0.63,-7.49,-7.49,-0.25,1.03,-1.43,-0.13,45.23,0.55,-0.38,-11.45,100.0,0.0,0.0,129.01,0.0,0.0,0.0,0.0,0.0,0.0,0.0,6881.0,0.0,30.0,4.0,162.8,0.0,0.0,0.0,0.0,0.0,0.0,1.0,0.0,45.709,45.709,84.921,20.376,0.0,110.0,435.8,8750.0,0.0,0.0,110.0,110.0,433.0,0.0,0.0,0.0,1.0,333.3,70.2,70.2,63.1,63.1,34.0,21.9,92.85,26.8,98.2,2.0,-207.89,-16.5,100.0,17.8,27.8,33.3,46.8,0.0,1.0,77.7,0.0,0.0,0.0,0.0,2556.0,5460.0,4092.0,6321.0,318.6,310.7,345.2,339.5,25.29,24.08,27.13,26.4,325.0,325.0,355.0,355.0,100.0,99.97,100.0,100.0,1.28,1.31,0.97,1.08,-0.1,-0.1,1.8,1.1,84.0,76.5,89.3,84.7,79.5,74.3,84.1,81.6,76.6,71.4,82.8,79.9,74.6,69.9,81.6,78.6,-0.95,0.94,0.07,0.03,0.0,138.19,139.15,129.01,129.01,356.7,7.7,0.979438614717635,131.07702275707868,102.26888586769405,28.808137088542765,64.81830759568595,0,4
916,45.75,1099.9,44.053830406337646,-78.68280159900644,-3.0,-7.5,-2.1,-0.6,4452.7,4453.0,163.3,0.0,1.0,1.0,0.0,1.0,1.0,0.0,0.0,0.0,100.0,1.0,1.186,26.0,0.0,-10.047,74.678,66.0,0.0,26.0,26.0,26.0,26.0,0.91,0.22,0.01,377.5,-2.99,-2.15,-2.19,-1.06,-833.49,601.83,5.2,0.0,0.0,0.0,0.0,0.63,-7.49,-7.49,-0.21,0.92,-1.42,-0.04,45.36,0.56,-0.37,-11.51,100.0,0.0,0.0,129.2,0.0,0.0,0.0,0.0,0.0,0.0,0.0,6892.0,0.0,30.0,4.0,163.3,1.0,0.0,0.0,0.0,0.0,0.0,1.0,0.0,45.761,45.761,84.921,20.376,1.0,110.0,435.8,8750.0,0.0,0.0,110.0,110.0,433.0,0.0,0.0,0.0,1.0,166.7,71.0,71.0,63.3,63.3,34.0,19.63,89.85,27.8,100.9,2.0,-207.94,-16.5,100.0,17.7,27.4,33.2,46.8,0.0,1.0,66.0,0.0,0.0,0.0,0.0,2349.0,5298.0,4092.0,6396.0,319.1,311.1,345.2,339.3,25.28,24.08,27.13,26.4,325.0,325.0,355.0,355.0,100.0,99.97,100.0,100.0,1.27,1.33,0.99,1.1,-0.1,-0.1,1.7,1.0,84.0,76.5,89.3,84.7,79.4,74.4,84.0,81.6,76.6,71.4,82.8,79.9,74.5,69.9,81.6,78.6,-0.96,0.95,0.06,0.03,0.0,138.61,139.58,129.2,129.2,356.7,7.7,0.9362691920596341,130.71692105769745,103.7092927221212,-90.0254276904171,-36.010170507143044,0,4
917,45.8,1102.2,44.05384569480495,-78.68281382978029,0.9,-2.5,0.6,2.8,4455.0,4455.0,163.6,0.0,1.0,1.0,0.0,1.0,1.0,0.0,0.0,0.0,100.0,1.0,1.186,26.0,0.0,-10.05,74.678,66.0,0.0,26.0,26.0,26.0,26.0,0.94,0.17,0.07,377.7,-3.01,-2.17,-2.2,-1.04,-834.85,603.53,5.2,0.0,0.0,0.0,0.0,0.64,-7.49,-7.49,-0.19,0.69,-1.41,0.4,45.45,0.56,-0.38,-11.52,100.0,0.0,0.0,129.08,0.0,0.0,0.0,0.0,0.0,0.0,0.0,6885.0,0.0,30.0,4.0,163.6,0.0,0.0,0.0,0.0,0.0,0.0,1.0,0.0,45.81,45.81,84.921,20.376,0.0,110.0,435.8,8750.0,0.0,0.0,110.0,110.0,433.0,0.0,0.0,0.0,1.0,333.3,70.5,70.5,64.1,64.1,34.0,21.23,93.55,25.2,96.5,2.0,-207.99,-16.5,100.0,17.7,27.3,33.2,46.9,0.0,1.0,41.7,0.0,0.0,0.0,0.0,2487.0,5486.0,3754.0,6104.0,318.7,310.6,346.0,340.0,25.28,24.08,27.13,26.4,325.0,325.0,355.0,355.0,100.0,99.97,100.0,100.0,1.28,1.32,0.97,1.09,-0.0,-0.1,1.5,0.7,84.0,76.5,89.3,84.7,79.4,74.4,84.0,81.6,76.5,71.5,82.8,79.9,74.5,69.9,81.5,78.6,-0.96,0.94,0.08,0.03,0.0,138.86,139.81,129.08,129.08,356.7,7.7,0.9578100020358944,122.07447998803697,98.66786881697975,-57.6162738925737,-3.6010169938118963,0,4
918,45.85,1104.4,44.05386089334009,-78.68282624041845,-0.5,-1.3,-4.7,-1.9,4457.3,4457.0,163.7,0.0,1.0,1.0,0.0,1.0,1.0,0.0,0.0,0.0,100.0,1.0,1.186,26.0,0.0,-10.05,74.678,66.0,0.0,26.0,26.0,26.0,26.0,0.94,0.0,0.08,377.7,-2.99,-2.14,-2.21,-1.05,-836.23,605.22,5.2,0.0,0.0,0.0,0.0,0.64,-7.49,-7.49,-0.18,0.07,-1.39,0.48,45.48,0.56,-0.39,-11.2,100.0,0.0,0.0,128.41,0.0,0.0,0.0,0.0,0.0,0.0,0.0,6849.0,0.0,30.0,4.0,163.7,1.0,0.0,0.0,0.0,0.0,0.0,1.0,0.0,45.859,45.859,84.921,20.376,1.0,110.0,435.8,8750.0,0.0,0.0,110.0,110.0,433.0,0.0,0.0,0.0,1.0,333.3,70.4,70.4,64.4,64.4,34.0,22.36,94.23,26.8,99.9,2.0,-208.04,-16.5,100.0,17.7,27.3,33.0,46.8,0.0,1.0,15.9,0.0,0.0,0.0,0.0,2603.0,5531.0,3820.0,6162.0,318.5,310.5,345.8,339.9,25.28,24.08,27.13,26.4,325.0,325.0,355.0,355.0,100.0,99.97,100.0,100.0,1.27,1.31,0.95,1.09,-0.0,-0.1,0.9,0.2,84.0,76.5,89.3,84.7,79.3,74.4,84.0,81.6,76.5,71.5,82.7,79.9,74.5,70.0,81.5,78.6,-0.95,0.94,0.07,0.03,0.0,138.96,139.91,128.4,128.4,356.7,7.7,0.9433981132056604,124.95529366844008,103.34919102274002,54.01525661424998,90.02542712139316,0,4
