,Time,Distance,GPS Latitude,GPS Longitude,Damper Velocity (Calc) FL,Damper Velocity (Calc) FR,Damper Velocity (Calc) RL,Damper Velocity (Calc) RR,Corr Dist,Corr Dist (Unstretched),Corr Speed,ABS Active,ABS Enabled,AID Allow Tire Blankets,AID Auto Blip,AID Auto Clutch,AID Auto Shift,AID Fuel Rate,AID Ideal Line,AID Mech Damage,AID Stability,AID Tire Wear Rate,Air Density,Air Temp,Ballast,Best Lap Delta,Best Lap Time,Brake Bias,Brake Pos,Brake Temp FL,Brake Temp FR,Brake Temp RL,Brake Temp RR,CG Accel Lateral,CG Accel Longitudinal,CG Accel Vertical,CG Height,Camber FL,Camber FR,Camber RL,Camber RR,Car Coord X,Car Coord Y,Car Coord Z,Car Damage Front,Car Damage Left,Car Damage Rear,Car Damage Right,Car Pos Norm,Caster FL,Caster FR,Chassis Pitch Angle,Chassis Pitch Rate,Chassis Roll Angle,Chassis Roll Rate,Chassis Velocity X,Chassis Velocity Y,Chassis Velocity Z,Chassis Yaw Rate,Clutch Pos,DRS Active,DRS Available,Drive Train Speed,ERS Heat Charging,ERS Is Charging,ERS Max Energy,ERS Power Level,ERS Recovery Level,Engine Brake Setting,Engine Limiter,Engine RPM,Flags,Fuel Level,Gear,Ground Speed,HR Sample Clock,In Pit,KERS Charge,KERS Deployed Energy,KERS Input,KERS Max Energy,LR Sample Clock,Lap Invalidated,Lap Time,Lap Time2,Last Lap Time,Last Sector Time,MR Sample Clock,Max Fuel,Max Power,Max RPM,Max Sus Travel FL,Max Sus Travel FR,Max Sus Travel RL,Max Sus Travel RR,Max Torque,Max Turbo Boost,Num Tires Off Track,Penalties Enabled,Position,Raw Data Sample Rate,Ride Height FL,Ride Height FR,Ride Height RL,Ride Height RR,Road Temp,Self Align Torque FL,Self Align Torque FR,Self Align Torque RL,Self Align Torque RR,Session Lap Count,Session Time Left,Steering Angle,Surface Grip,Suspension Travel FL,Suspension Travel FR,Suspension Travel RL,Suspension Travel RR,TC Active,TC Enabled,Throttle Pos,Tire Dirt Level FL,Tire Dirt Level FR,Tire Dirt Level RL,Tire Dirt Level RR,Tire Load FL,Tire Load FR,Tire Load RL,Tire Load RR,Tire Loaded Radius FL,Tire Loaded Radius FR,Tire Loaded Radius RL,Tire Loaded Radius RR,Tire Pressure FL,Tire Pressure FR,Tire Pressure RL,Tire Pressure RR,Tire Radius FL,Tire Radius FR,Tire Radius RL,Tire Radius RR,Tire Rubber Grip FL,Tire Rubber Grip FR,Tire Rubber Grip RL,Tire Rubber Grip RR,Tire Slip Angle FL,Tire Slip Angle FR,Tire Slip Angle RL,Tire Slip Angle RR,Tire Slip Ratio FL,Tire Slip Ratio FR,Tire Slip Ratio RL,Tire Slip Ratio RR,Tire Temp Core FL,Tire Temp Core FR,Tire Temp Core RL,Tire Temp Core RR,Tire Temp Inner FL,Tire Temp Inner FR,Tire Temp Inner RL,Tire Temp Inner RR,Tire Temp Middle FL,Tire Temp Middle FR,Tire Temp Middle RL,Tire Temp Middle RR,Tire Temp Outer FL,Tire Temp Outer FR,Tire Temp Outer RL,Tire Temp Outer RR,Toe In FL,Toe In FR,Toe In RL,Toe In RR,Turbo Boost,Wheel Angular Speed FL,Wheel Angular Speed FR,Wheel Angular Speed RL,Wheel Angular Speed RR,Wind Direction,Wind Speed,CG Distance,Lateral Velocity,Longitudinal Velocity,Lateral Acceleration,Longitudinal Acceleration,level
248,12.35,425.3,44.053565735989025,-78.67921258634155,84.2,-50.1,-203.1,41.8,5533.4,5533.0,86.5,0.0,1.0,1.0,0.0,1.0,1.0,0.0,0.0,0.0,100.0,1.0,1.186,26.0,0.0,-0.585,50.194,66.0,0.0,26.0,26.0,26.0,26.0,-1.2,-0.2,-0.17,389.8,-2.87,-2.03,-0.56,-2.58,-434.41,572.4,5.2,0.0,0.0,0.0,0.0,0.25,-7.49,-7.49,-1.55,-1.19,-0.23,5.77,24.0,-0.4,-0.37,37.14,100.0,0.0,0.0,67.03,0.0,0.0,0.0,0.0,0.0,0.0,0.0,5760.0,0.0,30.0,2.0,86.5,0.0,0.0,0.0,0.0,0.0,0.0,1.0,0.0,12.39,12.39,50.194,17.865,0.0,110.0,435.8,8750.0,0.0,0.0,110.0,110.0,433.0,0.0,0.0,0.0,1.0,166.7,74.4,74.4,96.3,96.3,34.0,-2.4,-0.01,-57.0,-20.1,3.0,-196.72,122.0,100.0,31.3,10.4,29.8,16.7,0.0,1.0,0.0,0.0,0.0,0.0,0.0,5968.0,42.0,3806.0,1710.0,309.8,324.9,345.5,350.5,25.07,23.05,26.01,24.72,325.0,325.0,355.0,355.0,100.0,99.9,100.0,100.0,-5.76,-6.16,-3.1,-3.08,-0.3,0.4,-0.9,-0.4,82.7,70.1,82.3,74.3,84.3,74.7,81.9,75.5,81.0,71.5,80.3,73.3,78.4,69.9,79.3,72.2,6.85,-7.33,0.09,0.1,0.0,74.71,71.97,68.38,65.66,174.7,27.6,1.2283729075488437,56.17586689589085,64.81830799400252,-18.00508553808335,-93.62644411520506,1
249,12.4,426.5,44.05355926087346,-78.67920530183653,-51.4,39.2,2.5,0.1,5534.6,5535.0,86.1,0.0,1.0,1.0,0.0,1.0,1.0,0.0,0.0,0.0,100.0,1.0,1.186,26.0,0.0,-0.681,50.194,66.0,0.0,26.0,26.0,26.0,26.0,-1.52,-0.07,-0.05,387.5,-2.15,-2.84,-1.05,-1.79,-433.6,571.68,5.2,0.0,0.0,0.0,0.0,0.25,-7.49,-7.49,-1.55,0.22,-0.16,-1.07,23.91,-0.51,-0.32,38.46,100.0,0.0,0.0,68.89,0.0,0.0,0.0,0.0,0.0,0.0,0.0,5920.0,0.0,30.0,2.0,86.1,1.0,0.0,0.0,0.0,0.0,0.0,1.0,0.0,12.436,12.436,50.194,17.865,1.0,110.0,435.8,8750.0,0.0,0.0,110.0,110.0,433.0,0.0,0.0,0.0,1.0,333.3,73.0,73.0,87.4,87.4,34.0,2.5,-0.45,-79.5,-21.1,3.0,-196.765,124.4,100.0,28.7,12.4,29.9,16.7,0.0,1.0,31.3,0.0,0.0,0.0,0.0,5692.0,1551.0,5272.0,2390.0,310.7,320.2,342.1,348.9,25.07,23.05,26.01,24.72,325.0,325.0,355.0,355.0,100.0,99.9,100.0,100.0,-6.03,-6.41,-3.45,-3.36,-0.4,-0.2,-0.4,3.8,82.7,70.1,82.3,74.3,84.3,74.7,81.9,75.5,81.0,71.4,80.3,73.2,78.5,69.8,79.3,72.2,6.99,-7.47,0.08,0.1,0.0,74.5,71.25,68.89,68.89,174.7,27.6,1.5224322645030879,56.17586689589085,60.857189187004664,54.01525661425019,-18.005086107107076,1
250,12.45,427.7,44.05355170657197,-78.6791973878064,-56.1,-64.7,182.9,-17.3,5535.8,5536.0,86.4,0.0,1.0,1.0,0.0,1.0,1.0,0.0,0.0,0.0,100.0,1.0,1.186,26.0,0.0,-0.681,50.194,66.0,0.0,26.0,26.0,26.0,26.0,-1.13,0.32,-0.11,390.6,-2.17,-2.43,-0.26,-2.13,-432.72,570.84,5.2,0.0,0.0,0.0,0.0,0.25,-7.49,-7.49,-1.56,-0.7,-0.1,8.82,24.01,-0.62,-0.31,36.03,100.0,0.0,0.0,72.1,0.0,0.0,0.0,0.0,0.0,0.0,0.0,6197.0,0.0,30.0,2.0,86.4,0.0,0.0,0.0,0.0,0.0,0.0,1.0,0.0,12.486,12.486,50.194,17.865,0.0,110.0,435.8,8750.0,0.0,0.0,110.0,110.0,433.0,0.0,0.0,0.0,1.0,333.3,83.1,83.1,80.2,80.2,34.0,8.3,0.0,-68.0,-0.8,3.0,-196.815,128.2,100.0,25.9,9.2,39.0,15.9,0.0,1.0,70.7,0.0,0.0,0.0,0.0,4570.0,0.0,6216.0,820.0,313.6,325.0,339.4,352.8,25.07,23.05,26.01,24.72,325.0,325.0,355.0,355.0,100.0,99.9,100.0,100.0,-6.66,0.0,-3.61,-3.62,-0.3,0.0,3.9,8.7,82.7,70.1,82.3,74.3,84.4,74.7,82.0,75.5,81.1,71.4,80.3,73.2,78.5,69.8,79.4,72.2,7.19,-7.71,0.06,0.1,0.0,74.38,71.24,72.1,72.1,174.7,27.6,1.17957619508025,61.57739255731587,63.017799383291816,54.01525661425019,-3.601017562835409,1
251,12.5,428.9,44.053543882474,-78.67918956370843,-131.2,-32.3,-102.2,112.4,5537.0,5537.0,87.1,0.0,1.0,1.0,0.0,1.0,1.0,0.0,0.0,0.0,100.0,1.0,1.186,26.0,0.0,-0.777,50.194,66.0,0.0,26.0,26.0,26.0,26.0,-1.17,0.41,-0.18,390.4,-2.48,-1.75,-0.79,-2.09,-431.85,569.97,5.2,0.0,0.0,0.0,0.0,0.25,-7.49,-7.49,-1.62,-2.09,0.38,6.83,24.19,-0.83,-0.2,33.51,100.0,0.0,0.0,72.26,0.0,0.0,0.0,0.0,0.0,0.0,0.0,6211.0,0.0,30.0,2.0,87.1,1.0,0.0,0.0,0.0,0.0,0.0,1.0,0.0,12.537,12.537,50.194,17.865,1.0,110.0,435.8,8750.0,0.0,0.0,110.0,110.0,433.0,0.0,0.0,0.0,1.0,333.3,84.7,84.7,82.0,82.0,34.0,11.1,0.7,-39.5,-5.5,3.0,-196.87,133.5,100.0,19.3,7.5,33.9,21.5,0.0,1.0,88.7,0.0,0.0,0.0,0.0,3720.0,492.0,4700.0,3408.0,315.6,323.9,343.4,346.0,25.07,23.05,26.0,24.72,325.0,325.0,355.0,355.0,100.0,99.9,100.0,100.0,-7.66,-7.76,-3.99,-3.92,-0.5,-1.0,3.8,8.4,82.7,70.1,82.3,74.3,84.5,74.6,82.0,75.5,81.2,71.3,80.3,73.3,78.6,69.8,79.4,72.2,7.51,-8.03,0.06,0.08,0.0,74.66,71.33,72.26,72.26,174.7,27.6,1.2527569596693524,61.57739255731587,60.49708743072112,18.00508553808328,-36.01017050714297,1
252,12.55,430.1,44.05353632817251,-78.67918227920342,2.8,38.3,27.8,-27.1,5538.3,5538.0,87.7,0.0,1.0,1.0,0.0,1.0,1.0,0.0,0.0,0.0,100.0,1.0,1.186,26.0,0.0,-0.879,50.194,66.0,0.0,26.0,26.0,26.0,26.0,-1.49,0.27,-0.05,388.2,-2.49,-1.84,-1.02,-2.04,-431.04,569.13,5.2,0.0,0.0,0.0,0.0,0.25,-7.49,-7.49,-1.79,-3.0,0.32,-2.08,24.36,-0.89,-0.24,34.58,100.0,0.0,0.0,70.87,0.0,0.0,0.0,0.0,0.0,0.0,0.0,6091.0,0.0,30.0,2.0,87.7,0.0,0.0,0.0,0.0,0.0,0.0,1.0,0.0,12.584,12.584,50.194,17.865,0.0,110.0,435.8,8750.0,0.0,0.0,110.0,110.0,433.0,0.0,0.0,0.0,1.0,333.3,80.4,80.4,77.0,77.0,34.0,17.8,2.42,-75.4,-3.4,3.0,-196.915,138.6,100.0,19.5,9.5,35.3,20.1,0.0,1.0,97.3,0.0,0.0,0.0,0.0,5428.0,1220.0,6283.0,2025.0,311.3,321.7,339.5,349.8,25.07,23.05,26.0,24.72,325.0,325.0,355.0,355.0,100.0,99.9,100.0,100.0,-7.95,-8.4,-4.02,-4.03,-0.6,-0.7,1.8,8.5,82.7,70.1,82.3,74.2,84.6,74.6,82.1,75.5,81.2,71.3,80.4,73.3,78.7,69.8,79.4,72.2,7.78,-8.36,0.07,0.08,0.0,75.14,72.02,70.25,71.49,174.7,27.6,1.5150907563575193,63.377901111124196,59.41678233257752,61.21729088638567,-10.80305155045977,1
253,12.6,431.3,44.05352805441374,-78.67917472490193,60.7,18.0,0.2,-67.4,5539.5,5539.0,88.1,0.0,1.0,1.0,0.0,1.0,1.0,0.0,0.0,0.0,100.0,1.0,1.186,26.0,0.0,-0.879,50.194,66.0,0.0,26.0,26.0,26.0,26.0,-1.47,0.25,-0.03,388.3,-2.31,-2.18,-0.54,-2.14,-430.2,568.21,5.1,0.0,0.0,0.0,0.0,0.25,-7.49,-7.49,-1.88,-0.67,0.07,-4.55,24.45,-0.95,-0.25,37.24,100.0,0.0,0.0,73.73,0.0,0.0,0.0,0.0,0.0,0.0,0.0,6337.0,0.0,30.0,2.0,88.1,1.0,0.0,0.0,0.0,0.0,0.0,1.0,0.0,12.636,12.636,50.194,17.865,1.0,110.0,435.8,8750.0,0.0,0.0,110.0,110.0,433.0,0.0,0.0,0.0,1.0,333.3,78.7,78.7,79.4,79.4,34.0,19.3,1.18,-63.9,-1.5,3.0,-196.965,141.5,100.0,22.5,10.4,35.3,16.8,0.0,1.0,100.0,0.0,0.0,0.0,0.0,5781.0,683.0,6200.0,1673.0,310.4,323.0,339.7,350.7,25.07,23.05,26.0,24.72,325.0,325.0,355.0,355.0,100.0,99.9,100.0,100.0,-8.05,-8.56,-4.19,-4.2,-0.6,-0.5,3.7,9.1,82.7,70.1,82.3,74.2,84.7,74.6,82.1,75.5,81.3,71.3,80.4,73.3,78.7,69.7,79.5,72.2,7.95,-8.55,0.07,0.1,0.0,75.6,72.29,71.63,75.84,174.7,27.6,1.491408730026749,67.69912164595443,59.416782275675146,43.21220534830239,-36.010171645190425,1
254,12.65,432.6,44.05351942092632,-78.67916744039692,25.1,-34.0,68.3,-0.9,5540.7,5541.0,88.6,0.0,1.0,1.0,0.0,1.0,1.0,0.0,0.0,0.0,100.0,1.0,1.186,26.0,0.0,-0.972,50.194,66.0,0.0,26.0,26.0,26.0,26.0,-1.47,0.33,-0.0,387.4,-2.25,-2.25,-0.48,-2.35,-429.39,567.25,5.1,0.0,0.0,0.0,0.0,0.25,-7.49,-7.49,-1.91,-1.13,-0.04,2.56,24.6,-1.03,-0.26,35.66,100.0,0.0,0.0,73.28,0.0,0.0,0.0,0.0,0.0,0.0,0.0,6298.0,0.0,30.0,2.0,88.6,0.0,0.0,0.0,0.0,0.0,0.0,1.0,0.0,12.687,12.687,50.194,17.865,0.0,110.0,435.8,8750.0,0.0,0.0,110.0,110.0,433.0,0.0,0.0,0.0,1.0,333.3,80.1,80.1,77.9,77.9,34.0,19.6,0.0,-74.5,-3.2,3.0,-197.015,142.1,100.0,23.8,8.7,38.7,16.7,0.0,1.0,100.0,0.0,0.0,0.0,0.0,5875.0,0.0,6669.0,2188.0,310.1,325.0,338.4,349.4,25.07,23.05,26.0,24.72,325.0,325.0,355.0,355.0,100.0,99.9,100.0,100.0,-8.45,0.0,-4.41,-4.41,-0.6,0.0,2.6,8.3,82.7,70.1,82.3,74.2,84.8,74.6,82.2,75.5,81.5,71.3,80.5,73.3,78.9,69.7,79.5,72.2,7.99,-8.63,0.06,0.1,0.0,75.86,72.38,73.95,72.62,174.7,27.6,1.5065855435387663,67.69912164595443,55.815765168058476,18.00508553808342,-50.41423962043808,1
255,12.7,433.8,44.05351114716755,-78.67916078541704,-29.0,-27.3,1.3,38.7,5541.9,5542.0,89.2,0.0,1.0,1.0,0.0,1.0,1.0,0.0,0.0,0.0,100.0,1.0,1.186,26.0,0.0,-1.044,50.194,66.0,0.0,26.0,26.0,26.0,26.0,-1.25,0.48,-0.11,388.7,-2.35,-1.98,-0.6,-2.16,-428.65,566.33,5.1,0.0,0.0,0.0,0.0,0.25,-7.49,-7.49,-2.01,-3.09,0.12,4.42,24.77,-1.09,-0.26,31.58,100.0,0.0,0.0,74.61,0.0,0.0,0.0,0.0,0.0,0.0,0.0,6412.0,0.0,30.0,2.0,89.2,1.0,0.0,0.0,0.0,0.0,0.0,1.0,0.0,12.734,12.734,50.194,17.865,1.0,110.0,435.8,8750.0,0.0,0.0,110.0,110.0,433.0,0.0,0.0,0.0,1.0,333.3,82.9,82.9,78.7,78.7,34.0,13.5,0.25,-45.6,-1.6,3.0,-197.065,142.7,100.0,22.3,7.3,38.8,18.6,0.0,1.0,100.0,0.0,0.0,0.0,0.0,4391.0,224.0,5379.0,2789.0,313.9,324.5,341.6,347.8,25.07,23.05,26.0,24.72,325.0,325.0,355.0,355.0,100.0,99.9,100.0,100.0,-8.86,-9.16,-4.36,-4.3,-0.6,-1.5,4.0,9.5,82.7,70.1,82.3,74.2,84.9,74.5,82.2,75.5,81.5,71.3,80.5,73.3,79.0,69.7,79.6,72.3,8.03,-8.65,0.06,0.09,0.0,76.01,72.45,75.33,73.89,174.7,27.6,1.3435028842544403,69.49963019976278,54.37535831363134,57.61627389257413,-10.803050981435973,1
256,12.75,435.0,44.05350206401933,-78.67915386064068,-23.0,4.1,-47.1,11.9,5543.2,5543.0,89.8,0.0,1.0,1.0,0.0,1.0,1.0,0.0,0.0,0.0,100.0,1.0,1.186,26.0,0.0,-1.044,50.194,66.0,0.0,26.0,26.0,26.0,26.0,-1.29,0.45,-0.1,388.7,-2.33,-1.89,-0.64,-2.24,-427.88,565.32,5.1,0.0,0.0,0.0,0.0,0.25,-7.49,-7.49,-2.19,-3.32,0.14,0.38,24.94,-1.12,-0.27,31.05,100.0,0.0,0.0,76.13,0.0,0.0,0.0,0.0,0.0,0.0,0.0,6542.0,0.0,30.0,2.0,89.8,0.0,0.0,0.0,0.0,0.0,0.0,1.0,0.0,12.786,12.786,50.194,17.865,0.0,110.0,435.8,8750.0,0.0,0.0,110.0,110.0,433.0,0.0,0.0,0.0,1.0,333.3,81.5,81.5,80.6,80.6,34.0,17.4,0.92,-27.0,-0.0,3.0,-197.115,143.6,100.0,21.2,7.5,36.4,19.2,1.0,1.0,100.0,0.0,0.0,0.0,0.0,5366.0,572.0,5547.0,2053.0,311.4,323.4,341.2,349.7,25.07,23.05,26.0,24.71,325.0,325.0,355.0,355.0,100.0,99.9,100.0,100.0,-9.01,-9.57,-4.27,-4.24,-0.7,-1.3,6.3,10.3,82.7,70.1,82.3,74.2,85.0,74.5,82.3,75.6,81.7,71.2,80.6,73.3,79.1,69.6,79.6,72.3,8.09,-8.71,0.06,0.09,0.0,76.4,73.22,76.12,76.12,174.7,27.6,1.3698905065734268,73.46074903521185,54.73546006991488,36.01017107616698,-32.40915351333122,1
257,12.8,436.3,44.05349280100678,-78.67914711572863,4.4,8.8,-4.4,-44.7,5544.4,5544.0,90.3,0.0,1.0,1.0,0.0,1.0,1.0,0.0,0.0,0.0,100.0,1.0,1.186,26.0,0.0,-1.101,50.194,66.0,0.0,26.0,26.0,26.0,26.0,-1.26,0.39,-0.17,389.5,-2.33,-2.08,-0.54,-2.2,-427.13,564.29,5.0,0.0,0.0,0.0,0.0,0.25,-7.49,-7.49,-2.35,-2.4,0.12,1.33,25.06,-1.14,-0.28,31.73,100.0,0.0,0.0,76.67,0.0,0.0,0.0,0.0,0.0,0.0,0.0,6589.0,0.0,30.0,2.0,90.3,1.0,0.0,0.0,0.0,0.0,0.0,1.0,0.0,12.837,12.837,50.194,17.865,1.0,110.0,435.8,8750.0,0.0,0.0,110.0,110.0,433.0,0.0,0.0,0.0,1.0,333.3,81.6,81.6,81.2,81.2,34.0,16.3,0.85,-27.6,0.5,3.0,-197.17,143.2,100.0,21.4,7.9,36.2,17.0,1.0,1.0,100.0,0.0,0.0,0.0,0.0,5093.0,529.0,5224.0,1740.0,312.0,323.5,342.0,350.5,25.07,23.05,26.0,24.71,325.0,325.0,355.0,355.0,100.0,99.9,100.0,100.0,-8.99,-9.55,-4.32,-4.3,-0.7,-1.0,5.9,10.7,82.7,70.1,82.2,74.2,85.1,74.5,82.3,75.6,81.8,71.2,80.7,73.3,79.2,69.6,79.7,72.3,8.07,-8.7,0.08,0.1,0.0,76.82,73.81,76.67,76.67,174.7,27.6,1.329887213262839,73.10064730737948,51.134442962298216,39.611188069978596,-43.21220563281415,1
258,12.85,437.6,44.05348380779073,-78.67914109027387,565.7,5.3,-32.5,25.3,5545.7,5546.0,90.6,0.0,1.0,1.0,0.0,1.0,1.0,0.0,0.0,0.0,100.0,1.0,1.186,26.0,0.0,-1.143,50.194,66.0,0.0,26.0,26.0,26.0,26.0,-1.78,0.22,0.78,374.7,7.9,-1.88,-0.81,-1.94,-426.46,563.29,5.0,0.0,0.0,0.0,0.0,0.26,-7.49,-7.49,-2.33,5.97,0.44,20.74,25.15,-1.1,-0.36,34.03,100.0,0.0,0.0,76.38,0.0,0.0,0.0,0.0,0.0,0.0,0.0,6564.0,0.0,30.0,2.0,90.6,0.0,0.0,0.0,0.0,0.0,0.0,0.0,0.0,12.884,12.884,50.194,17.865,0.0,110.0,435.8,8750.0,0.0,0.0,110.0,110.0,433.0,0.0,0.0,0.0,1.0,333.3,58.4,58.4,107.1,107.1,34.0,38.8,0.0,-38.9,1.8,3.0,-197.215,141.1,100.0,49.7,8.2,34.6,18.3,1.0,1.0,100.0,0.0,0.0,0.0,0.0,14973.0,0.0,5179.0,2872.0,287.3,325.0,342.0,347.8,25.07,23.05,26.0,24.71,325.0,325.0,355.0,355.0,100.0,99.9,100.0,100.0,-8.98,0.0,-4.57,-4.57,-0.7,0.0,3.9,10.9,82.7,70.1,82.2,74.2,85.3,74.4,82.4,75.6,82.0,71.2,80.7,73.3,79.5,69.6,79.8,72.3,7.89,-8.58,0.07,0.09,0.0,77.75,74.01,76.91,75.84,174.7,27.6,1.9558118518916896,77.4218678422097,50.414239506633464,64.81830816470946,-28.808137088542978,1
259,12.9,438.8,44.053473465592255,-78.67913452522615,111.9,47.5,-266.1,487.0,5547.0,5547.0,91.0,0.0,1.0,1.0,0.0,1.0,1.0,0.0,0.0,0.0,100.0,1.0,1.186,26.0,0.0,-1.182,50.194,66.0,0.0,26.0,26.0,26.0,26.0,-1.62,0.37,0.34,377.8,5.65,0.29,-2.64,-0.25,-425.73,562.14,5.0,0.0,0.0,0.0,0.0,0.26,-7.49,-7.49,-1.34,27.99,2.49,43.11,25.25,-1.02,-0.23,36.25,100.0,0.0,0.0,75.26,0.0,0.0,0.0,0.0,0.0,0.0,0.0,6468.0,0.0,30.0,2.0,91.0,1.0,0.0,0.0,0.0,0.0,0.0,0.0,0.0,12.939,12.939,50.194,17.865,1.0,110.0,435.8,8750.0,0.0,0.0,110.0,110.0,433.0,0.0,0.0,0.0,1.0,166.7,69.9,69.9,137.8,137.8,34.0,33.0,0.0,-0.2,-46.5,3.0,-197.27,137.9,100.0,55.3,10.6,21.3,42.6,0.0,1.0,100.0,0.0,0.0,0.0,0.0,11657.0,0.0,739.0,7747.0,295.0,325.0,353.0,335.2,25.07,23.05,26.0,24.71,325.0,325.0,355.0,355.0,100.0,99.9,100.0,100.0,-8.93,0.0,-4.88,-4.95,-0.8,0.0,7.2,4.8,82.7,70.1,82.2,74.2,85.6,74.4,82.4,75.7,82.4,71.1,80.7,73.4,79.9,69.6,79.8,72.4,7.73,-8.38,0.11,0.03,0.0,78.57,74.01,79.63,70.89,174.7,27.6,1.6961426826773744,79.58247812385042,48.25362925344392,0.0,-72.02034215233354,1
260,12.95,440.1,44.05346393278323,-78.67912903936435,-674.3,-21.6,647.6,298.0,5548.2,5548.0,92.0,0.0,1.0,1.0,0.0,1.0,1.0,0.0,0.0,0.0,100.0,1.0,1.186,26.0,0.0,-1.182,50.194,66.0,0.0,26.0,26.0,26.0,26.0,-1.57,0.78,0.45,385.2,-7.34,2.02,6.42,0.85,-425.12,561.08,4.9,0.0,0.0,0.0,0.0,0.26,-7.49,-7.49,-0.17,19.25,3.8,14.45,25.57,-0.81,0.1,21.13,100.0,0.0,0.0,74.72,0.0,0.0,0.0,0.0,0.0,0.0,0.0,6421.0,0.0,30.0,2.0,92.0,0.0,0.0,0.0,0.0,0.0,0.0,0.0,0.0,12.987,12.987,50.194,17.865,0.0,110.0,435.8,8750.0,0.0,0.0,110.0,110.0,433.0,0.0,0.0,0.0,1.0,333.3,118.4,118.4,86.3,86.3,34.0,3.1,0.0,-132.9,-110.5,3.0,-197.315,135.6,100.0,21.6,9.5,53.7,57.5,0.0,1.0,100.0,0.0,0.0,0.0,0.0,1334.0,0.0,9270.0,8916.0,321.0,325.0,332.1,331.7,25.07,23.05,26.0,24.71,325.0,325.0,355.0,355.0,100.0,99.9,100.0,100.0,-8.26,0.0,-3.73,-3.6,-0.3,0.0,2.1,4.6,82.7,70.1,82.2,74.2,85.7,74.3,82.4,75.8,82.5,71.1,80.8,73.5,80.0,69.5,79.9,72.5,7.68,-8.23,0.02,0.0,0.0,78.63,74.01,74.71,74.71,174.7,27.6,1.8099171251745203,77.4218678422097,43.21220529140011,18.005085253571593,-46.81322205760253,1
261,13.0,441.4,44.05345413017773,-78.67912373336688,-393.4,-90.8,305.7,-277.8,5549.5,5550.0,93.3,0.0,1.0,1.0,0.0,1.0,1.0,0.0,0.0,0.0,100.0,1.0,1.186,26.0,0.0,-1.206,50.194,66.0,0.0,26.0,26.0,26.0,26.0,-0.73,0.76,0.1,413.1,-7.2,2.72,5.8,1.51,-424.53,559.99,4.9,0.0,0.0,0.0,0.0,0.26,-7.49,-7.49,0.1,-4.16,4.24,15.42,25.93,-0.54,0.14,2.89,100.0,0.0,0.0,74.93,0.0,0.0,0.0,0.0,0.0,0.0,0.0,6440.0,0.0,30.0,2.0,93.3,1.0,0.0,0.0,0.0,0.0,0.0,0.0,0.0,13.034,13.034,50.194,17.865,1.0,110.0,435.8,8750.0,0.0,0.0,110.0,110.0,433.0,0.0,0.0,0.0,1.0,333.3,171.3,171.3,56.6,56.6,34.0,0.0,0.0,-127.4,-31.3,3.0,-197.365,132.4,100.0,1.9,5.0,69.0,43.6,0.0,1.0,100.0,0.0,0.0,0.0,0.0,0.0,0.0,12763.0,2443.0,325.0,325.0,323.2,348.4,25.07,23.05,26.0,24.71,325.0,325.0,355.0,355.0,100.0,99.9,100.0,100.0,0.0,0.0,-1.91,-1.74,0.0,0.0,2.5,2.8,82.7,70.1,82.2,74.2,85.7,74.3,82.5,75.8,82.4,71.0,80.9,73.6,79.9,69.5,79.9,72.5,7.62,-8.05,-0.01,0.04,0.0,78.63,74.01,74.93,74.93,174.7,27.6,1.058536725862641,81.38298664920758,43.572307047683665,97.22746167804075,25.20712009473094,1
262,13.05,442.7,44.05344360811494,-78.67911815757292,-17.8,-28.1,-571.4,-542.1,5550.9,5551.0,94.1,0.0,1.0,1.0,0.0,1.0,1.0,0.0,0.0,0.0,100.0,1.0,1.186,26.0,0.0,-1.23,50.194,66.0,0.0,26.0,26.0,26.0,26.0,-0.17,0.19,-0.91,453.2,-8.52,4.08,-7.21,3.46,-423.91,558.82,4.9,0.0,0.0,0.0,0.0,0.26,-7.49,-7.49,-0.49,-14.35,5.78,37.72,26.15,-0.25,0.09,-2.84,100.0,0.0,0.0,80.92,0.0,0.0,0.0,0.0,0.0,0.0,0.0,6954.0,0.0,30.0,2.0,94.1,0.0,0.0,0.0,0.0,0.0,0.0,0.0,0.0,13.086,13.086,50.194,17.865,0.0,110.0,435.8,8750.0,0.0,0.0,110.0,110.0,433.0,0.0,0.0,0.0,1.0,333.3,203.6,203.6,83.4,83.4,34.0,0.0,0.0,-3.9,0.0,3.0,-197.415,129.9,100.0,1.0,3.6,40.4,16.5,0.0,1.0,100.0,0.0,0.0,0.0,0.0,0.0,0.0,1086.0,0.0,325.0,325.0,351.6,355.0,25.07,23.05,26.0,24.71,325.0,325.0,355.0,355.0,100.0,99.9,100.0,100.0,0.0,0.0,-0.75,0.0,0.0,0.0,7.2,0.0,82.7,70.1,82.2,74.2,85.6,74.2,82.5,75.8,82.4,71.0,80.9,73.5,79.9,69.4,80.0,72.5,7.49,-7.9,0.07,0.1,0.0,78.63,74.01,80.09,81.73,174.7,27.6,0.9450396817065408,87.14461401001378,45.732917300873204,14.404068544271524,-25.20712009473094,1
263,13.1,444.0,44.05343236659487,-78.67911231198248,-6.4,-24.7,-722.9,-217.2,5552.2,5552.0,94.1,0.0,1.0,1.0,0.0,1.0,1.0,0.0,0.0,0.0,100.0,1.0,1.186,26.0,0.0,-1.254,50.194,66.0,0.0,26.0,26.0,26.0,26.0,-0.14,0.09,-1.03,463.1,-10.36,-5.51,-8.64,5.69,-423.26,557.57,4.9,0.0,0.0,0.0,0.0,0.26,-7.49,-7.49,-1.14,-10.76,7.74,34.5,26.15,-0.12,0.38,-2.81,100.0,0.0,0.0,93.34,0.0,0.0,0.0,0.0,0.0,0.0,0.0,8022.0,0.0,30.0,2.0,94.1,1.0,0.0,0.0,0.0,0.0,0.0,0.0,0.0,13.14,13.14,50.194,17.865,1.0,110.0,435.8,8750.0,0.0,0.0,110.0,110.0,433.0,0.0,0.0,0.0,1.0,166.7,194.6,194.6,97.5,97.5,34.0,0.0,0.0,0.0,0.2,3.0,-197.47,127.0,100.0,0.7,2.3,4.2,5.7,1.0,1.0,100.0,0.0,0.0,0.0,0.0,0.0,0.0,0.0,893.0,325.0,325.0,355.0,352.9,25.07,23.05,25.99,24.71,325.0,325.0,355.0,355.0,100.0,99.9,100.0,100.0,0.0,0.0,0.0,-0.69,0.0,0.0,0.0,25.8,82.7,70.1,82.2,74.2,85.5,74.2,82.4,75.7,82.3,70.9,80.8,73.5,79.8,69.4,79.9,72.4,7.34,-7.72,0.13,0.12,0.0,78.63,74.01,95.12,91.56,174.7,27.6,1.0433599570617995,82.82339350363473,41.05159503821057,-61.21729060187391,-126.03559933560739,1
264,13.15,445.3,44.053422923718,-78.67910790530661,-76.3,111.8,-51.0,282.7,5553.4,5553.0,90.9,0.0,1.0,1.0,0.0,1.0,1.0,0.0,0.0,0.0,100.0,1.0,1.186,26.0,0.0,-1.254,50.194,66.0,0.0,26.0,26.0,26.0,26.0,-6.08,-2.03,0.65,461.5,-12.15,-3.73,-10.61,7.48,-422.77,556.52,4.9,0.0,0.0,0.0,0.0,0.26,-7.49,-7.49,-1.18,19.33,9.72,47.73,25.14,1.72,0.2,83.54,100.0,0.0,0.0,86.44,0.0,0.0,0.0,0.0,0.0,0.0,0.0,7429.0,0.0,30.0,2.0,90.9,0.0,0.0,0.0,0.0,0.0,0.0,0.0,0.0,13.186,13.186,50.194,17.865,0.0,110.0,435.8,8750.0,0.0,0.0,110.0,110.0,433.0,0.0,0.0,0.0,1.0,166.7,188.6,188.6,87.3,87.3,34.0,0.0,-11.22,0.0,-58.5,3.0,-197.515,123.9,100.0,-3.1,7.9,1.7,19.8,0.0,1.0,93.8,0.0,0.0,0.0,0.0,0.0,4132.0,0.0,5176.0,325.0,313.7,355.0,341.7,25.06,23.05,25.99,24.71,325.0,325.0,355.0,355.0,100.0,99.9,100.0,100.0,0.0,-0.68,0.0,-1.06,0.0,0.8,0.0,4.5,82.6,70.1,82.2,74.2,85.5,74.2,82.4,75.8,82.2,70.9,80.7,73.5,79.8,69.3,79.8,72.5,7.2,-7.51,0.14,0.09,0.0,78.63,75.25,103.63,69.26,174.7,27.6,6.44280994597854,81.02288494982639,33.129357367312465,39.611188069978596,-126.03559876658359,1
265,13.2,446.5,44.053412131858735,-78.67910403822371,47.4,89.7,37.0,915.4,5554.7,5555.0,89.9,0.0,1.0,1.0,0.0,1.0,1.0,0.0,0.0,0.0,100.0,1.0,1.186,26.0,0.0,-1.272,50.194,66.0,0.0,26.0,26.0,26.0,26.0,-1.63,-0.09,0.58,463.1,-14.69,-1.8,-12.6,-2.67,-422.34,555.32,4.8,0.0,0.0,0.0,0.0,0.26,-7.49,-7.49,-0.58,37.11,11.38,12.33,24.96,0.93,0.51,109.49,100.0,0.0,0.0,89.68,0.0,0.0,0.0,0.0,0.0,0.0,0.0,7707.0,0.0,30.0,2.0,89.9,1.0,0.0,0.0,0.0,0.0,0.0,0.0,0.0,13.236,13.236,50.194,17.865,1.0,110.0,435.8,8750.0,0.0,0.0,110.0,110.0,433.0,0.0,0.0,0.0,1.0,333.3,219.2,219.2,85.0,85.0,34.0,0.0,21.71,0.0,-266.5,3.0,-197.565,120.9,100.0,-0.8,12.4,3.5,65.6,0.0,1.0,72.7,0.0,0.0,0.0,0.0,0.0,1650.0,0.0,13249.0,325.0,320.0,355.0,320.8,25.06,23.05,25.99,24.71,325.0,325.0,355.0,355.0,100.0,99.9,100.0,100.0,0.0,1.46,0.0,-3.66,0.0,0.0,0.0,1.0,82.6,70.0,82.2,74.2,85.4,74.1,82.3,75.8,82.2,70.9,80.7,73.6,79.7,69.3,79.8,72.6,6.99,-7.3,0.13,-0.02,0.0,78.63,73.99,110.81,68.55,174.7,27.6,1.7324549056180365,86.78451231063259,28.448035161552212,39.61118835449042,-90.02542712139316,1
266,13.25,447.8,44.0534012500673,-78.67910080066592,116.4,-256.1,150.8,137.0,5555.9,5556.0,89.0,0.0,1.0,1.0,0.0,1.0,1.0,0.0,0.0,0.0,100.0,1.0,1.186,26.0,0.0,-1.281,50.194,66.0,0.0,26.0,26.0,26.0,26.0,-0.98,0.26,-0.08,469.2,-12.17,-3.23,-10.72,-4.75,-421.98,554.11,4.8,0.0,0.0,0.0,0.0,0.26,-7.49,-7.49,-0.44,8.22,8.88,-95.34,24.71,-0.34,0.93,98.04,100.0,0.0,0.0,92.33,0.0,0.0,0.0,0.0,0.0,0.0,0.0,7935.0,0.0,30.0,2.0,89.0,0.0,0.0,0.0,0.0,0.0,0.0,0.0,0.0,13.287,13.287,50.194,17.865,0.0,110.0,435.8,8750.0,0.0,0.0,110.0,110.0,433.0,0.0,0.0,0.0,1.0,333.3,242.7,242.7,101.3,101.3,34.0,0.0,0.0,0.0,-129.0,3.0,-197.615,119.4,100.0,5.1,-0.4,11.1,72.4,0.0,1.0,52.7,0.0,0.0,0.0,0.0,0.0,0.0,0.0,11443.0,325.0,325.0,355.0,324.5,25.06,23.05,25.99,24.71,325.0,325.0,355.0,355.0,100.0,99.9,100.0,100.0,0.0,0.0,0.0,-5.07,0.0,0.0,0.0,2.1,82.6,70.0,82.2,74.2,85.3,74.1,82.3,76.0,82.1,70.9,80.6,73.8,79.7,69.3,79.7,72.8,6.86,-7.22,0.13,-0.02,0.0,78.63,73.89,116.95,67.72,174.7,27.6,1.0170545708072896,84.98400378527543,24.12681465517315,-10.8030512659478,-72.02034215233354,1
267,13.3,449.0,44.05339090786883,-78.67909801276895,-25.5,18.5,-24.7,-759.5,5557.1,5557.0,89.4,0.0,1.0,1.0,0.0,1.0,1.0,0.0,0.0,0.0,100.0,1.0,1.186,26.0,0.0,-1.281,50.194,66.0,0.0,26.0,26.0,26.0,26.0,-0.15,0.07,-0.93,468.0,-6.67,-8.52,-5.71,-9.55,-421.67,552.96,4.7,0.0,0.0,0.0,0.0,0.26,-7.49,-7.49,-0.95,-6.26,3.15,-128.03,24.71,-2.09,1.08,87.46,100.0,0.0,0.0,95.34,0.0,0.0,0.0,0.0,0.0,0.0,0.0,8194.0,0.0,30.0,2.0,89.4,1.0,0.0,0.0,0.0,0.0,0.0,0.0,0.0,13.334,13.334,50.194,17.865,1.0,110.0,435.8,8750.0,0.0,0.0,110.0,110.0,433.0,0.0,0.0,0.0,1.0,333.3,238.7,238.7,129.7,129.7,34.0,0.0,0.0,0.0,0.7,3.0,-197.665,118.4,100.0,3.8,0.5,9.8,34.5,0.0,1.0,34.1,0.0,0.0,0.0,0.0,0.0,0.0,0.0,735.0,325.0,325.0,355.0,352.5,25.06,23.05,25.99,24.71,325.0,325.0,355.0,355.0,100.0,99.9,100.0,100.0,0.0,0.0,0.0,-8.02,0.0,0.0,0.0,8.0,82.6,70.0,82.2,74.2,85.3,74.0,82.2,76.1,82.1,70.8,80.6,73.9,79.6,69.2,79.7,72.8,6.8,-7.16,0.12,0.07,0.0,78.63,73.89,118.09,72.6,174.7,27.6,0.9446163242290492,85.70420718403781,21.24600094631886,32.409153797842976,-54.015257183273846,1
268,13.35,450.2,44.05337984621308,-78.67909549466845,-127.0,120.9,-51.6,-491.2,5558.4,5558.0,88.5,0.0,1.0,1.0,0.0,1.0,1.0,0.0,0.0,0.0,100.0,1.0,1.186,26.0,0.0,-1.29,50.194,66.0,0.0,26.0,26.0,26.0,26.0,-0.03,-0.0,-0.93,467.5,-4.49,0.58,-2.84,-11.18,-421.39,551.73,4.6,0.0,0.0,0.0,0.0,0.26,-7.49,-7.49,-2.31,-29.47,1.5,12.47,24.57,-0.91,0.52,-11.58,100.0,0.0,0.0,88.27,0.0,0.0,0.0,0.0,0.0,0.0,0.0,7586.0,0.0,30.0,2.0,88.5,0.0,0.0,0.0,0.0,0.0,0.0,1.0,0.0,13.386,13.386,50.194,17.865,0.0,110.0,435.8,8750.0,0.0,0.0,110.0,110.0,433.0,0.0,0.0,0.0,1.0,166.7,200.2,200.2,162.1,162.1,34.0,0.0,0.0,0.0,0.0,3.0,-197.715,118.0,100.0,-2.6,6.6,7.3,9.9,1.0,1.0,13.1,0.0,0.0,0.0,0.0,0.0,0.0,0.0,0.0,325.0,325.0,355.0,355.0,25.06,23.05,25.99,24.71,325.0,325.0,355.0,355.0,100.0,99.9,100.0,100.0,0.0,0.0,0.0,0.0,0.0,0.0,0.0,0.0,82.6,70.0,82.2,74.2,85.2,74.0,82.5,76.1,82.0,70.8,80.8,73.8,79.5,69.2,79.9,72.8,6.84,-7.13,0.13,0.11,0.0,78.63,73.89,86.4,90.14,174.7,27.6,0.9304837451562494,88.22491916505973,18.725288936845764,25.207119810219183,-39.61118863900236,1
269,13.4,451.5,44.053368874489486,-78.6790933362966,56.1,-80.2,-78.5,-120.2,5559.6,5560.0,88.6,0.0,1.0,1.0,0.0,1.0,1.0,0.0,0.0,0.0,100.0,1.0,1.186,26.0,0.0,-1.293,50.194,66.0,0.0,26.0,26.0,26.0,26.0,-0.39,0.12,-0.97,439.9,-5.05,1.13,-3.63,-10.44,-421.15,550.51,4.5,0.0,0.0,0.0,0.0,0.26,-7.49,-7.49,-3.75,-27.32,2.19,12.49,24.61,-0.61,0.43,-9.84,100.0,0.0,0.0,87.83,0.0,0.0,0.0,0.0,0.0,0.0,0.0,7548.0,0.0,30.0,2.0,88.6,1.0,0.0,0.0,0.0,0.0,0.0,1.0,0.0,13.437,13.437,50.194,17.865,1.0,110.0,435.8,8750.0,0.0,0.0,110.0,110.0,433.0,0.0,0.0,0.0,1.0,333.3,130.1,130.1,161.1,161.1,34.0,11.1,0.0,0.0,0.0,3.0,-197.765,114.2,100.0,0.2,2.6,3.3,3.9,0.0,1.0,0.0,0.0,0.0,0.0,0.0,4128.0,0.0,0.0,0.0,315.9,325.0,355.0,355.0,25.06,23.05,25.99,24.71,325.0,325.0,355.0,355.0,100.0,99.9,100.0,100.0,-8.84,0.0,0.0,0.0,5.0,0.0,0.0,0.0,82.6,70.0,82.2,74.2,85.2,73.9,82.4,76.0,82.0,70.7,80.8,73.8,79.5,69.1,79.8,72.7,6.62,-6.93,0.13,0.12,0.0,75.73,73.89,87.82,87.82,174.7,27.6,1.0523307464861036,88.22491916505973,17.284882082418623,-21.606102816407144,-36.01017050714306,1
270,13.45,452.7,44.05335781283374,-78.67909117792475,818.9,101.6,-6.3,-12.8,5560.8,5561.0,88.5,0.0,1.0,1.0,0.0,1.0,1.0,0.0,0.0,0.0,100.0,1.0,1.186,26.0,0.0,-1.293,50.194,66.0,0.0,26.0,26.0,26.0,26.0,-1.6,-0.22,1.62,394.0,-6.95,1.89,-4.63,-9.45,-420.91,549.28,4.4,0.0,0.0,0.0,0.0,0.26,-7.49,-7.49,-4.67,-0.35,3.28,35.76,24.57,-0.1,0.04,9.02,100.0,0.0,0.0,83.77,0.0,0.0,0.0,0.0,0.0,0.0,0.0,7199.0,0.0,30.0,2.0,88.5,0.0,0.0,0.0,0.0,0.0,0.0,1.0,0.0,13.488,13.488,50.194,17.865,0.0,110.0,435.8,8750.0,0.0,0.0,110.0,110.0,433.0,0.0,0.0,0.0,1.0,166.7,55.3,55.3,130.9,130.9,34.0,38.9,8.3,1.5,0.0,3.0,-197.815,107.0,100.0,41.2,7.6,3.0,3.2,1.0,1.0,0.0,0.0,0.0,0.0,0.0,11173.0,4499.0,2581.0,0.0,296.8,313.9,348.8,355.0,25.06,23.05,25.98,24.71,325.0,325.0,355.0,355.0,100.0,99.9,100.0,100.0,-6.81,-6.8,-1.51,0.0,-1.0,-0.9,17.4,0.0,82.6,70.0,82.2,74.2,85.4,73.9,82.4,76.0,82.1,70.7,80.8,73.7,79.6,69.1,79.8,72.7,6.09,-6.49,0.14,0.12,0.0,74.9,74.1,79.24,88.29,174.7,27.6,2.287531420549235,86.06430888341902,15.124271886131458,-14.404068259759413,-50.41423905141451,1
271,13.5,453.9,44.05334738070311,-78.67908955914585,-148.4,501.4,460.7,320.1,5562.1,5562.0,88.8,0.0,1.0,1.0,0.0,1.0,1.0,0.0,0.0,0.0,100.0,1.0,1.186,26.0,0.0,-1.296,50.194,66.0,0.0,26.0,26.0,26.0,26.0,-1.53,1.14,0.59,372.4,-8.76,3.34,-6.85,3.93,-420.73,548.12,4.4,0.0,0.0,0.0,0.0,0.26,-7.49,-7.49,-3.37,39.87,5.11,26.58,24.7,0.22,0.07,24.7,100.0,0.0,0.0,72.31,0.0,0.0,0.0,0.0,0.0,0.0,0.0,6214.0,0.0,30.0,2.0,88.8,1.0,0.0,0.0,0.0,0.0,0.0,1.0,0.0,13.536,13.536,50.194,17.865,1.0,110.0,435.8,8750.0,0.0,0.0,110.0,110.0,433.0,0.0,0.0,0.0,1.0,333.3,58.9,58.9,69.1,69.1,34.0,-14.8,-50.85,-46.5,-87.6,3.0,-197.865,94.0,100.0,33.8,32.7,26.1,19.2,0.0,1.0,0.0,0.0,0.0,0.0,0.0,3095.0,5132.0,5682.0,9645.0,316.9,311.0,341.2,330.4,25.06,23.05,25.98,24.71,325.0,325.0,355.0,355.0,100.0,99.9,100.0,100.0,-4.19,-4.33,-1.75,-1.19,-0.5,-0.5,6.1,6.2,82.6,70.0,82.1,74.2,85.5,74.0,82.4,76.0,82.2,70.7,80.8,73.8,79.7,69.2,79.8,72.7,5.46,-5.67,0.09,0.08,0.0,77.53,75.63,76.22,68.4,174.7,27.6,1.9971479664761949,86.78451233908379,12.243458177277171,14.404068544271524,-46.813222626626256,1
272,13.55,455.2,44.05333613918303,-78.67908812023128,-297.1,-227.4,733.8,822.6,5563.3,5563.0,88.8,0.0,1.0,1.0,0.0,1.0,1.0,0.0,0.0,0.0,100.0,1.0,1.186,26.0,0.0,-1.296,50.194,66.0,0.0,26.0,26.0,26.0,26.0,-1.15,0.1,1.32,361.2,-8.11,3.28,-7.03,3.14,-420.57,546.87,4.3,0.0,0.0,0.0,0.0,0.27,-7.49,-7.49,-2.16,6.0,4.61,-28.29,24.67,0.41,0.07,20.82,100.0,0.0,0.0,70.08,0.0,0.0,0.0,0.0,0.0,0.0,0.0,6022.0,0.0,30.0,2.0,88.8,0.0,0.0,0.0,0.0,0.0,0.0,1.0,0.0,13.587,13.587,50.194,17.865,0.0,110.0,435.8,8750.0,0.0,0.0,110.0,110.0,433.0,0.0,0.0,0.0,1.0,166.7,77.3,77.3,27.4,27.4,34.0,-37.0,-24.63,-176.2,-84.8,3.0,-197.915,72.7,100.0,18.9,21.3,62.7,60.4,0.0,1.0,3.6,0.0,0.0,0.0,0.0,2671.0,1680.0,10081.0,8760.0,318.5,320.2,330.3,332.0,25.06,23.05,25.98,24.71,325.0,325.0,355.0,355.0,100.0,99.9,100.0,100.0,-2.01,-2.09,-0.16,-0.09,0.1,0.1,0.5,0.5,82.6,70.0,82.1,74.2,85.4,73.9,82.4,76.0,82.2,70.7,80.8,73.8,79.7,69.2,79.8,72.7,4.33,-4.49,0.01,0.0,0.0,77.11,74.96,71.02,69.13,174.7,27.6,1.7535392781457735,87.50471573784617,10.442949623468833,7.202033987623793,-36.01017107616675,1
273,13.6,456.4,44.053325527188086,-78.67908695111319,43.2,-208.7,18.3,-344.9,5564.5,5565.0,88.9,0.0,1.0,1.0,0.0,1.0,1.0,0.0,0.0,0.0,100.0,1.0,1.186,26.0,0.0,-1.296,50.194,66.0,0.0,26.0,26.0,26.0,26.0,-0.72,0.0,0.2,372.9,-5.14,2.25,-5.94,2.39,-420.44,545.69,4.2,0.0,0.0,0.0,0.0,0.27,-7.49,-7.49,-2.54,-13.53,3.52,-9.27,24.69,0.37,-0.33,21.32,100.0,0.0,0.0,69.16,0.0,0.0,0.0,0.0,0.0,0.0,0.0,5944.0,0.0,30.0,2.0,88.9,1.0,0.0,0.0,0.0,0.0,0.0,1.0,0.0,13.634,13.634,50.194,17.865,1.0,110.0,435.8,8750.0,0.0,0.0,110.0,110.0,433.0,0.0,0.0,0.0,1.0,333.3,80.3,80.3,44.4,44.4,34.0,-80.5,-2.08,-114.3,-13.1,3.0,-197.965,49.8,100.0,21.1,10.9,63.7,43.1,0.0,1.0,3.6,0.0,0.0,0.0,0.0,4899.0,305.0,8187.0,2538.0,312.6,324.2,334.3,348.2,25.06,23.04,25.98,24.71,325.0,325.0,355.0,355.0,100.0,99.9,100.0,100.0,-0.96,-0.93,0.0,-0.04,-0.0,0.2,-0.0,0.1,82.6,70.0,82.1,74.2,85.4,73.9,82.4,76.0,82.1,70.7,80.7,73.7,79.6,69.2,79.8,72.7,3.03,-3.14,0.0,0.05,0.0,76.45,74.5,69.95,68.37,174.7,27.6,0.7472616676907762,87.50471573784617,8.642441069660496,25.20711981021904,-25.20712009473094,1
274,13.65,457.6,44.05331428566801,-78.67908596185943,-231.9,53.8,-480.3,-455.5,5565.8,5566.0,88.9,0.0,1.0,1.0,0.0,1.0,1.0,0.0,0.0,0.0,100.0,1.0,1.186,26.0,0.0,-1.296,50.194,66.0,0.0,26.0,26.0,26.0,26.0,-0.38,0.02,-0.65,391.3,4.97,2.19,-5.81,2.95,-420.33,544.44,4.2,0.0,0.0,0.0,0.0,0.27,-7.49,-7.49,-3.35,-15.32,3.75,6.69,24.69,0.18,-0.54,18.37,100.0,0.0,0.0,69.31,0.0,0.0,0.0,0.0,0.0,0.0,0.0,5956.0,0.0,30.0,2.0,88.9,0.0,0.0,0.0,0.0,0.0,0.0,1.0,0.0,13.686,13.686,50.194,13.681,0.0,110.0,435.8,8750.0,0.0,0.0,110.0,110.0,433.0,0.0,0.0,0.0,1.0,333.3,91.7,91.7,61.6,61.6,34.0,0.0,-26.2,-34.6,-5.9,3.0,-198.015,27.7,100.0,9.5,13.6,39.6,20.4,0.0,1.0,5.2,0.0,0.0,0.0,0.0,0.0,3193.0,2443.0,726.0,325.0,316.6,348.7,353.0,25.05,23.04,25.98,24.71,325.0,325.0,355.0,355.0,100.0,99.9,100.0,100.0,0.0,-0.44,-0.65,-0.68,0.0,-0.0,-0.1,0.7,82.6,70.0,82.1,74.2,85.4,73.9,82.4,75.9,82.1,70.7,80.7,73.7,79.6,69.1,79.7,72.7,1.78,-1.79,0.06,0.1,0.0,75.82,74.42,69.82,68.79,174.7,27.6,0.7531932023060219,90.02542771886807,7.922237613995739,0.0,-10.803051550459513,1
275,13.7,458.9,44.05330304414794,-78.67908497260566,-91.3,200.0,-379.2,-289.0,5567.0,5567.0,88.9,0.0,1.0,1.0,0.0,1.0,1.0,0.0,0.0,0.0,100.0,1.0,1.186,26.0,0.0,-1.29,50.194,66.0,0.0,26.0,26.0,26.0,26.0,-0.17,-0.02,-0.54,404.1,5.39,1.71,-3.58,2.95,-420.22,543.19,4.2,0.0,0.0,0.0,0.0,0.27,-7.49,-7.49,-4.07,-9.35,3.45,-14.91,24.69,-0.06,-0.52,15.87,100.0,0.0,0.0,69.23,0.0,0.0,0.0,0.0,0.0,0.0,0.0,5950.0,0.0,30.0,2.0,88.9,1.0,0.0,0.0,0.0,0.0,0.0,1.0,0.0,13.737,13.737,50.194,13.681,1.0,110.0,435.8,8750.0,0.0,0.0,110.0,110.0,433.0,0.0,0.0,0.0,1.0,166.7,100.6,100.6,55.9,55.9,34.0,0.0,-4.71,-24.5,0.0,3.0,-198.065,13.6,100.0,4.9,23.6,20.7,5.9,0.0,1.0,0.0,0.0,0.0,0.0,0.0,0.0,5718.0,1955.0,0.0,325.0,309.5,350.2,355.0,25.05,23.04,25.98,24.7,325.0,325.0,355.0,355.0,100.0,99.9,100.0,100.0,0.0,0.14,-0.85,0.0,0.0,-0.0,-0.5,0.0,82.6,70.0,82.1,74.2,85.3,73.8,82.3,75.9,82.0,70.6,80.7,73.6,79.5,69.1,79.7,72.6,0.91,-0.89,0.1,0.12,0.0,75.82,74.82,69.26,69.21,174.7,27.6,0.5664803615307419,87.50471573784617,7.562135914614545,-21.606102531895175,-3.6010169938119407,1
276,13.75,460.1,44.053292432152986,-78.67908407328406,7.6,111.3,152.1,-60.0,5568.2,5568.0,88.9,0.0,1.0,1.0,0.0,1.0,1.0,0.0,0.0,0.0,100.0,1.0,1.186,26.0,0.0,-1.29,50.194,66.0,0.0,26.0,26.0,26.0,26.0,0.01,0.0,-0.4,408.3,-5.33,0.65,7.19,1.97,-420.12,542.01,4.1,0.0,0.0,0.0,0.0,0.27,-7.49,-7.49,-4.4,-3.72,2.35,-26.98,24.68,-0.3,-0.5,12.81,100.0,0.0,0.0,69.23,0.0,0.0,0.0,0.0,0.0,0.0,0.0,5950.0,0.0,30.0,2.0,88.9,0.0,0.0,0.0,0.0,0.0,0.0,1.0,0.0,13.784,13.784,50.194,13.681,0.0,110.0,435.8,8750.0,0.0,0.0,110.0,110.0,433.0,0.0,0.0,0.0,1.0,333.3,103.5,103.5,46.2,46.2,34.0,0.0,9.64,0.6,0.0,3.0,-198.115,6.4,100.0,5.3,29.2,28.3,2.9,0.0,1.0,3.6,0.0,0.0,0.0,0.0,0.0,6945.0,1025.0,0.0,325.0,306.2,352.5,355.0,25.05,23.04,25.98,24.7,325.0,325.0,355.0,355.0,100.0,99.9,100.0,100.0,0.0,0.16,-1.03,0.0,0.0,-0.0,-0.6,0.0,82.6,70.0,82.1,74.1,85.3,73.8,82.3,75.8,82.0,70.6,80.6,73.6,79.5,69.1,79.7,72.6,0.44,-0.41,0.08,0.12,0.0,75.82,75.15,69.7,68.77,174.7,27.6,0.4001249804748512,87.86481746567856,7.562135914614545,28.808137088542907,0.0,1
277,13.8,461.3,44.05328110070075,-78.6790830840303,19.2,25.7,-129.5,-22.3,5569.5,5569.0,88.8,0.0,1.0,1.0,0.0,1.0,1.0,0.0,0.0,0.0,100.0,1.0,1.186,26.0,0.0,-1.29,50.194,66.0,0.0,26.0,26.0,26.0,26.0,0.03,-0.07,-0.34,394.9,-3.52,-1.36,9.16,0.13,-420.01,540.75,4.0,0.0,0.0,0.0,0.0,0.27,-7.49,-7.49,-4.35,4.68,0.36,-44.76,24.66,-0.57,-0.28,11.08,100.0,0.0,0.0,68.88,0.0,0.0,0.0,0.0,0.0,0.0,0.0,5920.0,0.0,30.0,2.0,88.8,1.0,0.0,0.0,0.0,0.0,0.0,1.0,0.0,13.836,13.836,50.194,13.681,1.0,110.0,435.8,8750.0,0.0,0.0,110.0,110.0,433.0,0.0,0.0,0.0,1.0,333.3,74.8,74.8,70.9,70.9,34.0,-10.5,10.89,9.7,0.0,3.0,-198.165,3.6,100.0,6.3,30.4,21.8,1.8,0.0,1.0,0.0,0.0,0.0,0.0,0.0,2033.0,6220.0,4054.0,0.0,321.4,308.1,345.1,355.0,25.05,23.05,25.98,24.7,325.0,325.0,355.0,355.0,100.0,99.9,100.0,100.0,-0.14,-0.05,-1.2,0.0,-0.3,-0.0,-0.5,0.0,82.6,70.0,82.1,74.1,85.2,73.8,82.2,75.8,81.9,70.6,80.6,73.5,79.4,69.1,79.6,72.5,0.25,-0.21,0.1,0.12,0.0,75.99,75.48,69.82,67.95,174.7,27.6,0.34842502780368695,90.38552944670046,7.562135914614545,-7.202034272135762,-10.803050981435804,1
278,13.85,462.6,44.05326985918067,-78.67908218470869,628.7,4.2,247.6,16.8,5570.7,5571.0,88.7,0.0,1.0,1.0,0.0,1.0,1.0,0.0,0.0,0.0,100.0,1.0,1.186,26.0,0.0,-1.287,50.194,66.0,0.0,26.0,26.0,26.0,26.0,-0.43,-0.08,0.39,375.9,-2.36,-3.36,10.93,-1.67,-419.91,539.5,3.9,0.0,0.0,0.0,0.0,0.27,-7.49,-7.49,-3.79,17.2,-1.59,-23.83,24.61,-0.68,-0.16,13.58,100.0,0.0,0.0,68.23,0.0,0.0,0.0,0.0,0.0,0.0,0.0,5864.0,0.0,30.0,2.0,88.7,0.0,0.0,0.0,0.0,0.0,0.0,0.0,0.0,13.887,13.887,50.194,13.681,0.0,110.0,435.8,8750.0,0.0,0.0,110.0,110.0,433.0,0.0,0.0,0.0,1.0,166.7,50.7,50.7,80.3,80.3,34.0,-120.3,-0.89,-8.1,0.0,3.0,-198.215,2.3,100.0,37.7,30.7,34.2,2.6,0.0,1.0,0.0,0.0,0.0,0.0,0.0,8796.0,4696.0,5931.0,0.0,302.9,312.1,340.3,355.0,25.05,23.05,25.98,24.7,325.0,325.0,355.0,355.0,100.0,99.9,100.0,100.0,-0.67,-0.4,-1.81,0.0,-0.1,-0.0,-0.4,0.0,82.6,70.0,82.1,74.1,85.2,73.8,82.2,75.7,81.9,70.6,80.6,73.5,79.4,69.0,79.6,72.5,0.19,-0.13,0.07,0.13,0.0,76.98,75.67,70.15,66.3,174.7,27.6,0.5860034129593444,87.14461403846498,6.481830816470964,-7.20203455664759,-25.20711952570725,1
279,13.9,463.8,44.053259337117886,-78.6790814652514,146.8,-74.8,211.4,462.3,5571.9,5572.0,88.3,0.0,1.0,1.0,0.0,1.0,1.0,0.0,0.0,0.0,100.0,1.0,1.186,26.0,0.0,-1.281,50.194,66.0,0.0,26.0,26.0,26.0,26.0,-1.32,-0.08,0.69,363.9,-1.92,-3.94,-0.46,-2.57,-419.83,538.33,3.9,0.0,0.0,0.0,0.0,0.27,-7.49,-7.49,-2.69,24.38,-2.15,-6.23,24.51,-0.5,0.05,9.13,100.0,0.0,0.0,69.45,0.0,0.0,0.0,0.0,0.0,0.0,0.0,5969.0,0.0,30.0,2.0,88.3,1.0,0.0,0.0,0.0,0.0,0.0,0.0,0.0,13.936,13.936,50.194,13.681,1.0,110.0,435.8,8750.0,0.0,0.0,110.0,110.0,433.0,0.0,0.0,0.0,1.0,333.3,52.8,52.8,58.2,58.2,34.0,-119.1,-4.87,-261.1,-56.8,3.0,-198.265,1.3,100.0,45.0,26.9,44.8,25.7,0.0,1.0,0.0,0.0,0.0,0.0,0.0,8331.0,2519.0,10924.0,4448.0,303.7,318.0,328.1,343.7,25.05,23.05,25.98,24.7,325.0,325.0,355.0,355.0,100.0,99.9,100.0,100.0,-0.79,-0.64,-2.01,-1.61,-0.0,-0.0,-0.1,-0.2,82.6,70.0,82.1,74.1,85.2,73.7,82.2,75.7,81.9,70.6,80.6,73.5,79.4,69.0,79.6,72.5,0.15,-0.08,0.05,0.07,0.0,76.54,75.67,69.47,69.43,174.7,27.6,1.4916098685648336,89.6653259910357,5.04142396204382,28.808136804030937,-25.207120094730946,1
280,13.95,465.0,44.05324746607269,-78.67908092565844,-199.6,-142.6,474.6,537.8,5573.2,5573.0,88.3,0.0,1.0,1.0,0.0,1.0,1.0,0.0,0.0,0.0,100.0,1.0,1.186,26.0,0.0,-1.281,50.194,66.0,0.0,26.0,26.0,26.0,26.0,-0.68,0.23,0.93,356.8,-2.1,-3.46,-1.13,-2.71,-419.77,537.01,3.8,0.0,0.0,0.0,0.0,0.27,-7.49,-7.49,-1.77,8.0,-1.8,18.11,24.53,-0.05,-0.05,-1.19,100.0,0.0,0.0,69.68,0.0,0.0,0.0,0.0,0.0,0.0,0.0,5989.0,0.0,30.0,2.0,88.3,0.0,0.0,0.0,0.0,0.0,0.0,0.0,0.0,13.989,13.989,50.194,13.681,0.0,110.0,435.8,8750.0,0.0,0.0,110.0,110.0,433.0,0.0,0.0,0.0,1.0,166.7,66.9,66.9,30.4,30.4,34.0,-59.8,-3.04,-167.6,-10.0,3.0,-198.32,1.8,100.0,35.0,19.8,68.5,52.6,0.0,1.0,13.9,0.0,0.0,0.0,0.0,5336.0,1699.0,11728.0,7346.0,311.2,320.4,325.6,336.1,25.05,23.04,25.98,24.7,325.0,325.0,355.0,355.0,100.0,99.9,100.0,100.0,-0.59,-0.59,-0.66,-0.51,-0.0,-0.0,0.4,0.7,82.6,70.0,82.1,74.1,85.1,73.7,82.2,75.7,81.9,70.5,80.6,73.5,79.4,69.0,79.7,72.4,0.12,-0.1,-0.0,0.01,0.0,75.46,75.71,69.68,69.68,174.7,27.6,1.1748191350161097,90.02542771886807,3.9611188069978693,-43.212205063790634,-18.005085538083375,1
281,14.0,466.2,44.05323685407774,-78.67908047599764,-311.4,-74.7,-259.3,49.2,5574.4,5574.0,88.7,0.0,1.0,1.0,0.0,1.0,1.0,0.0,0.0,0.0,100.0,1.0,1.186,26.0,0.0,-1.281,50.194,66.0,0.0,26.0,26.0,26.0,26.0,-0.12,0.31,0.28,370.0,-2.48,-2.45,-1.97,-1.77,-419.72,535.83,3.8,0.0,0.0,0.0,0.0,0.27,-7.49,-7.49,-1.84,-8.44,-0.77,20.25,24.66,0.12,-0.34,-1.44,100.0,0.0,0.0,70.08,0.0,0.0,0.0,0.0,0.0,0.0,0.0,6023.0,0.0,30.0,2.0,88.7,1.0,0.0,0.0,0.0,0.0,0.0,0.0,0.0,14.037,14.037,50.194,13.681,1.0,110.0,435.8,8750.0,0.0,0.0,110.0,110.0,433.0,0.0,0.0,0.0,1.0,333.3,77.1,77.1,48.4,48.4,34.0,-22.7,-2.51,-24.9,27.8,3.0,-198.365,4.1,100.0,19.5,16.0,55.5,55.1,0.0,1.0,36.1,0.0,0.0,0.0,0.0,2808.0,3757.0,5418.0,6683.0,317.7,315.3,341.1,337.4,25.05,23.04,25.98,24.7,325.0,325.0,355.0,355.0,100.0,99.9,100.0,100.0,-0.39,-0.34,-0.01,-0.01,0.0,-0.1,1.0,0.9,82.6,70.0,82.1,74.1,85.1,73.7,82.2,75.7,81.8,70.5,80.6,73.4,79.3,68.9,79.6,72.4,0.21,-0.21,0.03,0.01,0.0,75.35,75.41,70.08,70.08,174.7,27.6,0.4346262762420146,85.34410548465664,3.240915408235482,14.404068259759413,-10.803050981435804,1
282,14.05,467.5,44.05322615215063,-78.67908011626899,-115.4,127.7,-516.1,-276.4,5575.6,5576.0,89.4,0.0,1.0,1.0,0.0,1.0,1.0,0.0,0.0,0.0,100.0,1.0,1.186,26.0,0.0,-1.278,50.194,66.0,0.0,26.0,26.0,26.0,26.0,0.06,0.45,-0.33,385.0,-2.99,-1.92,-2.16,-1.12,-419.68,534.64,3.8,0.0,0.0,0.0,0.0,0.27,-7.49,-7.49,-2.27,-8.02,-0.38,-3.73,24.84,0.12,-0.5,-0.23,100.0,0.0,0.0,72.31,0.0,0.0,0.0,0.0,0.0,0.0,0.0,6214.0,0.0,30.0,2.0,89.4,0.0,0.0,0.0,0.0,0.0,0.0,0.0,0.0,14.084,14.084,50.194,13.681,0.0,110.0,435.8,8750.0,0.0,0.0,110.0,110.0,433.0,0.0,0.0,0.0,1.0,166.7,78.8,78.8,74.1,74.1,34.0,-5.9,0.05,-0.2,17.1,3.0,-198.415,10.5,100.0,13.7,22.4,29.7,41.3,0.0,1.0,69.1,0.0,0.0,0.0,0.0,1071.0,3721.0,1828.0,3832.0,322.3,314.7,350.4,344.9,25.05,23.04,25.97,24.7,325.0,325.0,355.0,355.0,100.0,99.9,100.0,100.0,-0.23,-0.22,0.31,0.31,-0.2,-0.1,3.3,3.2,82.5,70.0,82.1,74.1,85.0,73.6,82.2,75.6,81.8,70.5,80.5,73.4,79.3,68.9,79.6,72.4,0.55,-0.56,0.08,0.04,0.0,75.78,75.95,72.31,72.31,174.7,27.6,0.5612486080160912,91.46583454484401,2.880813708854289,64.81830788019778,-3.601016993811932,1
283,14.1,468.7,44.05321401130895,-78.67907975654035,-23.4,-149.4,-276.8,-430.9,5576.9,5577.0,90.1,0.0,1.0,1.0,0.0,1.0,1.0,0.0,0.0,0.0,100.0,1.0,1.186,26.0,0.0,-1.278,50.194,66.0,0.0,26.0,26.0,26.0,26.0,-0.09,0.33,-0.61,398.1,-2.42,-2.26,-1.1,-1.55,-419.64,533.29,3.7,0.0,0.0,0.0,0.0,0.27,-7.49,-7.49,-2.59,-3.41,-1.02,-14.65,25.04,0.12,-0.36,2.1,100.0,0.0,0.0,77.02,0.0,0.0,0.0,0.0,0.0,0.0,0.0,6619.0,0.0,30.0,2.0,90.1,1.0,0.0,0.0,0.0,0.0,0.0,0.0,0.0,14.139,14.139,50.194,13.681,1.0,110.0,435.8,8750.0,0.0,0.0,110.0,110.0,433.0,0.0,0.0,0.0,1.0,166.7,84.2,84.2,91.8,91.8,34.0,-21.0,-2.4,1.0,0.0,3.0,-198.465,17.1,100.0,12.5,15.0,15.9,19.7,0.0,1.0,84.8,0.0,0.0,0.0,0.0,2625.0,1553.0,3380.0,0.0,318.5,320.7,347.0,355.0,25.05,23.04,25.97,24.7,325.0,325.0,355.0,355.0,100.0,99.9,100.0,100.0,-0.42,-0.41,0.33,0.0,-0.2,-0.1,8.5,0.0,82.5,70.0,82.1,74.1,85.0,73.6,82.1,75.6,81.7,70.4,80.5,73.4,79.2,68.9,79.6,72.4,0.98,-0.98,0.11,0.1,0.0,76.82,76.62,77.02,77.02,174.7,27.6,0.6993568473962345,91.82593627267642,2.880813708854289,-14.404067975247585,-5.690237081523719e-07,1
284,14.15,470.0,44.05320321944968,-78.6790793968117,51.9,-65.5,163.3,-51.4,5578.2,5578.0,91.2,0.0,1.0,1.0,0.0,1.0,1.0,0.0,0.0,0.0,100.0,1.0,1.186,26.0,0.0,-1.278,50.194,66.0,0.0,26.0,26.0,26.0,26.0,-0.16,0.61,-0.18,393.3,-2.19,-2.47,-1.06,-1.63,-419.6,532.09,3.7,0.0,0.0,0.0,0.0,0.27,-7.49,-7.49,-2.66,-0.92,-1.29,0.65,25.36,0.07,-0.25,6.63,100.0,0.0,0.0,74.35,0.0,0.0,0.0,0.0,0.0,0.0,0.0,6390.0,0.0,30.0,2.0,91.2,0.0,0.0,0.0,0.0,0.0,0.0,0.0,0.0,14.187,14.187,50.194,13.681,0.0,110.0,435.8,8750.0,0.0,0.0,110.0,110.0,433.0,0.0,0.0,0.0,1.0,333.3,83.7,83.7,86.0,86.0,34.0,-30.1,-2.16,-14.2,3.4,3.0,-198.515,16.7,100.0,15.1,11.7,24.1,17.2,0.0,1.0,83.6,0.0,0.0,0.0,0.0,3324.0,1500.0,3971.0,2746.0,316.6,321.0,345.2,347.8,25.04,23.04,25.97,24.7,325.0,325.0,355.0,355.0,100.0,99.9,100.0,100.0,-0.49,-0.44,-0.25,-0.0,-0.1,-0.1,3.5,5.6,82.5,70.0,82.1,74.1,84.9,73.6,82.1,75.6,81.7,70.4,80.5,73.4,79.2,68.9,79.6,72.4,0.98,-1.0,0.1,0.09,0.0,78.09,77.46,74.52,74.17,174.7,27.6,0.6558200972827838,90.02542774731926,2.880813651951918,-3.6010169938118963,-3.60101756283564,1
285,14.2,471.3,44.0531915282688,-78.67907903708307,25.0,32.0,32.6,90.6,5579.4,5579.0,92.3,0.0,1.0,1.0,0.0,1.0,1.0,0.0,0.0,0.0,100.0,1.0,1.186,26.0,0.0,-1.278,50.194,66.0,0.0,26.0,26.0,26.0,26.0,-0.27,0.61,-0.04,389.2,-2.33,-2.41,-1.24,-1.53,-419.56,530.79,3.6,0.0,0.0,0.0,0.0,0.27,-7.49,-7.49,-2.65,0.96,-1.17,2.69,25.67,0.02,-0.2,7.96,100.0,0.0,0.0,74.36,0.0,0.0,0.0,0.0,0.0,0.0,0.0,6391.0,0.0,30.0,2.0,92.3,1.0,0.0,0.0,0.0,0.0,0.0,0.0,0.0,14.238,14.238,50.194,13.681,1.0,110.0,435.8,8750.0,0.0,0.0,110.0,110.0,433.0,0.0,0.0,0.0,1.0,166.7,80.5,80.5,81.6,81.6,34.0,-31.5,-3.93,-30.3,-1.6,3.0,-198.565,14.9,100.0,16.4,13.3,25.7,21.7,0.0,1.0,69.1,0.0,0.0,0.0,0.0,3404.0,2643.0,4262.0,3757.0,316.4,317.9,344.4,345.3,25.04,23.04,25.97,24.7,325.0,325.0,355.0,355.0,100.0,99.9,100.0,100.0,-0.49,-0.41,-0.51,-0.29,-0.1,-0.1,2.7,3.7,82.5,70.0,82.1,74.1,84.9,73.5,82.1,75.6,81.7,70.4,80.5,73.4,79.2,68.8,79.6,72.4,0.88,-0.89,0.09,0.09,0.0,79.2,78.47,74.36,74.36,174.7,27.6,0.6682813778641449,91.46583457329523,2.520711952570725,25.207119241195386,-7.202033418600164,1
286,14.25,472.6,44.053180376680885,-78.67907876728658,25.3,45.4,73.1,94.9,5580.7,5581.0,93.3,0.0,1.0,1.0,0.0,1.0,1.0,0.0,0.0,0.0,100.0,1.0,1.186,26.0,0.0,-1.281,50.194,66.0,0.0,26.0,26.0,26.0,26.0,-0.31,0.51,0.07,385.1,-2.4,-2.44,-1.33,-1.55,-419.53,529.55,3.6,0.0,0.0,0.0,0.0,0.28,-7.49,-7.49,-2.57,1.72,-1.15,-1.05,25.93,-0.01,-0.18,7.5,100.0,0.0,0.0,74.57,0.0,0.0,0.0,0.0,0.0,0.0,0.0,6409.0,0.0,30.0,2.0,93.3,0.0,0.0,0.0,0.0,0.0,0.0,0.0,0.0,14.286,14.286,50.194,13.681,0.0,110.0,435.8,8750.0,0.0,0.0,110.0,110.0,433.0,0.0,0.0,0.0,1.0,333.3,78.1,78.1,75.9,75.9,34.0,-34.6,-4.42,-42.1,-3.1,3.0,-198.615,14.7,100.0,17.6,15.6,29.3,26.4,0.0,1.0,58.6,0.0,0.0,0.0,0.0,3627.0,2821.0,4845.0,4315.0,315.8,317.3,343.0,343.8,25.04,23.04,25.97,24.7,325.0,325.0,355.0,355.0,100.0,99.9,100.0,100.0,-0.5,-0.42,-0.53,-0.31,-0.1,-0.1,1.9,2.8,82.5,70.0,82.1,74.1,84.9,73.5,82.1,75.6,81.6,70.3,80.5,73.4,79.1,68.8,79.5,72.4,0.85,-0.86,0.08,0.08,0.0,79.98,79.34,74.57,74.57,174.7,27.6,0.6009159675029446,92.5461396714388,2.1606103100919016,46.81322205760239,-10.803050981435804,1
287,14.3,473.9,44.05316841570353,-78.6790784974901,33.3,6.2,93.9,53.8,5582.0,5582.0,94.2,0.0,1.0,1.0,0.0,1.0,1.0,0.0,0.0,0.0,100.0,1.0,1.186,26.0,0.0,-1.281,50.194,66.0,0.0,26.0,26.0,26.0,26.0,-0.34,0.48,0.11,382.5,-2.35,-2.54,-1.28,-1.7,-419.5,528.22,3.5,0.0,0.0,0.0,0.0,0.28,-7.49,-7.49,-2.49,0.93,-1.27,-2.13,26.17,-0.02,-0.2,7.25,100.0,0.0,0.0,75.14,0.0,0.0,0.0,0.0,0.0,0.0,0.0,6458.0,0.0,30.0,2.0,94.2,1.0,0.0,0.0,0.0,0.0,0.0,0.0,0.0,14.337,14.337,50.194,13.681,1.0,110.0,435.8,8750.0,0.0,0.0,110.0,110.0,433.0,0.0,0.0,0.0,1.0,333.3,77.2,77.2,71.8,71.8,34.0,-41.2,-6.06,-45.6,-1.6,3.0,-198.67,16.0,100.0,19.3,15.9,34.0,29.1,0.0,1.0,54.7,0.0,0.0,0.0,0.0,3968.0,2507.0,5347.0,4323.0,314.9,318.2,341.7,343.8,25.04,23.04,25.97,24.7,325.0,325.0,355.0,355.0,100.0,99.9,100.0,100.0,-0.57,-0.52,-0.47,-0.3,-0.1,-0.1,1.6,2.5,82.5,70.0,82.1,74.1,84.8,73.4,82.1,75.6,81.6,70.3,80.4,73.4,79.1,68.8,79.5,72.4,0.91,-0.93,0.07,0.07,0.0,80.72,80.05,75.14,75.14,174.7,27.6,0.5984145720150872,96.14715677905546,1.4404068544271444,14.404068828783352,-14.404069113295147,1
288,14.35,475.2,44.05315636479401,-78.67907840755794,13.5,-5.8,38.6,17.4,5583.4,5583.0,95.0,0.0,1.0,1.0,0.0,1.0,1.0,0.0,0.0,0.0,100.0,1.0,1.186,26.0,0.0,-1.281,50.194,66.0,0.0,26.0,26.0,26.0,26.0,-0.39,0.49,0.07,382.3,-2.32,-2.58,-1.25,-1.77,-419.49,526.88,3.5,0.0,0.0,0.0,0.0,0.28,-7.49,-7.49,-2.46,-0.04,-1.33,0.46,26.42,-0.01,-0.24,7.9,100.0,0.0,0.0,75.99,0.0,0.0,0.0,0.0,0.0,0.0,0.0,6531.0,0.0,30.0,2.0,95.0,0.0,0.0,0.0,0.0,0.0,0.0,1.0,0.0,14.388,14.388,50.194,13.681,0.0,110.0,435.8,8750.0,0.0,0.0,110.0,110.0,433.0,0.0,0.0,0.0,1.0,166.7,77.3,77.3,71.3,71.3,34.0,-45.9,-8.92,-44.7,-3.1,3.0,-198.715,19.0,100.0,20.0,15.6,36.0,30.0,0.0,1.0,60.2,0.0,0.0,0.0,0.0,3958.0,2335.0,5151.0,3915.0,314.9,318.7,342.1,344.8,25.04,23.04,25.97,24.69,325.0,325.0,355.0,355.0,100.0,99.9,100.0,100.0,-0.7,-0.66,-0.51,-0.35,-0.1,-0.1,1.8,2.7,82.5,70.0,82.0,74.1,84.8,73.4,82.1,75.6,81.5,70.3,80.4,73.4,79.0,68.7,79.5,72.3,1.08,-1.09,0.07,0.07,0.0,81.41,80.72,75.99,75.99,174.7,27.6,0.630158710167526,93.98654655431713,0.7202033987623869,-10.803050981435547,-10.803051550459509,1
289,14.4,476.5,44.05314494340961,-78.67907831762578,-4.0,-3.5,-2.4,-3.7,5584.7,5585.0,95.9,0.0,1.0,1.0,0.0,1.0,1.0,0.0,0.0,0.0,100.0,1.0,1.186,26.0,0.0,-1.287,50.194,66.0,0.0,26.0,26.0,26.0,26.0,-0.42,0.52,-0.02,382.9,-2.36,-2.52,-1.28,-1.75,-419.48,525.61,3.5,0.0,0.0,0.0,0.0,0.28,-7.49,-7.49,-2.45,0.14,-1.31,0.42,26.65,-0.01,-0.24,9.21,100.0,0.0,0.0,77.05,0.0,0.0,0.0,0.0,0.0,0.0,0.0,6622.0,0.0,30.0,2.0,95.9,1.0,0.0,0.0,0.0,0.0,0.0,1.0,0.0,14.436,14.436,50.194,13.681,1.0,110.0,435.8,8750.0,0.0,0.0,110.0,110.0,433.0,0.0,0.0,0.0,1.0,333.3,77.7,77.7,72.2,72.2,34.0,-47.6,-12.28,-40.2,-4.8,3.0,-198.765,22.7,100.0,19.8,15.4,35.8,29.8,0.0,1.0,72.7,0.0,0.0,0.0,0.0,3746.0,2354.0,4738.0,3796.0,315.5,318.6,343.2,345.2,25.04,23.04,25.97,24.69,325.0,325.0,355.0,355.0,100.0,99.9,100.0,100.0,-0.84,-0.81,-0.56,-0.41,-0.1,-0.1,2.2,3.2,82.5,70.0,82.0,74.1,84.7,73.4,82.0,75.6,81.5,70.2,80.4,73.3,79.0,68.7,79.5,72.3,1.29,-1.31,0.07,0.07,0.0,82.15,81.41,77.05,77.05,174.7,27.6,0.6687301398920195,95.06685168091191,0.36010169938119346,21.606102531895317,0.0,1
290,14.45,477.9,44.053132622703615,-78.67907831762578,-5.9,-4.7,-4.5,-9.1,5586.0,5586.0,96.9,0.0,1.0,1.0,0.0,1.0,1.0,0.0,0.0,0.0,100.0,1.0,1.186,26.0,0.0,-1.296,50.194,66.0,0.0,26.0,26.0,26.0,26.0,-0.49,0.6,-0.02,383.2,-2.35,-2.52,-1.24,-1.77,-419.48,524.24,3.4,0.0,0.0,0.0,0.0,0.28,-7.49,-7.49,-2.42,0.57,-1.36,-1.2,26.93,-0.02,-0.23,11.07,100.0,0.0,0.0,78.07,0.0,0.0,0.0,0.0,0.0,0.0,0.0,6710.0,0.0,30.0,2.0,96.9,0.0,0.0,0.0,0.0,0.0,0.0,1.0,0.0,14.487,14.487,50.194,13.681,0.0,110.0,435.8,8750.0,0.0,0.0,110.0,110.0,433.0,0.0,0.0,0.0,1.0,333.3,78.2,78.2,72.3,72.3,34.0,-54.8,-13.9,-45.8,-6.9,3.0,-198.82,27.7,100.0,19.5,15.2,35.6,29.4,0.0,1.0,82.0,0.0,0.0,0.0,0.0,3873.0,2077.0,5004.0,3768.0,315.2,319.3,342.6,345.2,25.04,23.04,25.97,24.69,325.0,325.0,355.0,355.0,100.0,99.9,100.0,100.0,-1.03,-1.0,-0.65,-0.51,-0.1,-0.1,2.4,3.6,82.5,70.0,82.0,74.1,84.7,73.3,82.0,75.6,81.5,70.2,80.4,73.3,79.0,68.7,79.5,72.3,1.56,-1.59,0.07,0.07,0.0,83.14,82.18,78.07,78.07,174.7,27.6,0.7749193506423748,96.14715680750666,0.7202033987623869,18.005085538083136,14.404068544271446,1
291,14.5,479.2,44.053120931522734,-78.6790784974901,1.1,-10.2,13.8,-6.8,5587.4,5587.0,97.9,0.0,1.0,1.0,0.0,1.0,1.0,0.0,0.0,0.0,100.0,1.0,1.186,26.0,0.0,-1.302,50.194,66.0,0.0,26.0,26.0,26.0,26.0,-0.61,0.57,-0.03,383.0,-2.32,-2.53,-1.18,-1.84,-419.5,522.94,3.4,0.0,0.0,0.0,0.0,0.28,-7.49,-7.49,-2.38,0.48,-1.44,-1.2,27.21,-0.04,-0.22,13.22,100.0,0.0,0.0,78.82,0.0,0.0,0.0,0.0,0.0,0.0,0.0,6774.0,0.0,30.0,2.0,97.9,1.0,0.0,0.0,0.0,0.0,0.0,1.0,0.0,14.534,14.534,50.194,13.681,1.0,110.0,435.8,8750.0,0.0,0.0,110.0,110.0,433.0,0.0,0.0,0.0,1.0,333.3,78.5,78.5,71.7,71.7,34.0,-65.3,-15.08,-56.8,-9.9,3.0,-198.865,33.7,100.0,19.5,14.7,36.3,29.0,0.0,1.0,80.1,0.0,0.0,0.0,0.0,4107.0,1816.0,5357.0,3711.0,314.6,320.0,341.7,345.4,25.04,23.04,25.96,24.69,325.0,325.0,355.0,355.0,100.0,99.9,100.0,100.0,-1.29,-1.27,-0.78,-0.63,-0.1,-0.1,2.3,3.7,82.5,70.0,82.0,74.1,84.7,73.3,82.0,75.5,81.5,70.2,80.4,73.3,79.0,68.6,79.4,72.3,1.9,-1.93,0.07,0.07,0.0,84.05,82.91,78.82,78.82,174.7,27.6,0.8354040938372279,96.86736023472022,1.800508553808338,75.62135914614544,21.606103100919018,1
292,14.55,480.6,44.05310843095241,-78.67907876728658,9.1,-12.3,21.2,-8.2,5588.8,5589.0,98.9,0.0,1.0,1.0,0.0,1.0,1.0,0.0,0.0,0.0,100.0,1.0,1.186,26.0,0.0,-1.311,50.194,66.0,0.0,26.0,26.0,26.0,26.0,-0.74,0.49,0.05,382.8,-2.3,-2.53,-1.12,-1.9,-419.53,521.55,3.3,0.0,0.0,0.0,0.0,0.28,-7.49,-7.49,-2.35,-0.11,-1.54,-1.23,27.48,-0.05,-0.22,15.64,100.0,0.0,0.0,79.21,0.0,0.0,0.0,0.0,0.0,0.0,0.0,6808.0,0.0,30.0,2.0,98.9,0.0,0.0,0.0,0.0,0.0,0.0,1.0,0.0,14.586,14.586,50.194,13.681,0.0,110.0,435.8,8750.0,0.0,0.0,110.0,110.0,433.0,0.0,0.0,0.0,1.0,333.3,78.3,78.3,71.5,71.5,34.0,-76.4,-18.18,-69.0,-13.7,3.0,-198.915,41.8,100.0,20.0,14.0,37.4,28.6,0.0,1.0,58.2,0.0,0.0,0.0,0.0,4362.0,1780.0,5459.0,3561.0,313.9,320.2,341.4,345.7,25.04,23.04,25.96,24.69,325.0,325.0,355.0,355.0,100.0,99.9,100.0,100.0,-1.63,-1.64,-0.92,-0.78,-0.1,-0.1,1.8,3.4,82.5,70.0,82.0,74.1,84.7,73.3,82.0,75.5,81.4,70.1,80.4,73.3,78.9,68.6,79.4,72.3,2.34,-2.4,0.07,0.07,0.0,84.94,83.6,79.21,79.21,174.7,27.6,0.8889319434017432,103.7092927221212,2.880813708854289,46.81322234211464,25.20711952570726,1
293,14.6,482.0,44.05309503106049,-78.67907921694739,22.4,-7.8,18.2,-24.3,5590.2,5590.0,99.7,0.0,1.0,1.0,0.0,1.0,1.0,0.0,0.0,0.0,100.0,1.0,1.186,26.0,0.0,-1.311,50.194,66.0,0.0,26.0,26.0,26.0,26.0,-0.86,0.38,0.04,382.8,-2.27,-2.57,-1.03,-2.0,-419.58,520.06,3.3,0.0,0.0,0.0,0.0,0.28,-7.49,-7.49,-2.34,-0.52,-1.66,-1.86,27.7,-0.07,-0.24,18.52,100.0,0.0,0.0,79.54,0.0,0.0,0.0,0.0,0.0,0.0,0.0,6836.0,0.0,30.0,2.0,99.7,1.0,0.0,0.0,0.0,0.0,0.0,1.0,0.0,14.64,14.64,50.194,13.681,1.0,110.0,435.8,8750.0,0.0,0.0,110.0,110.0,433.0,0.0,0.0,0.0,1.0,166.7,77.5,77.5,72.2,72.2,34.0,-89.2,-18.83,-79.5,-15.8,3.0,-198.97,50.0,100.0,21.1,13.7,38.3,27.4,0.0,1.0,40.9,0.0,0.0,0.0,0.0,4787.0,1659.0,5485.0,3211.0,312.9,320.5,341.3,346.6,25.04,23.04,25.96,24.69,325.0,325.0,355.0,355.0,100.0,99.9,100.0,100.0,-1.98,-2.01,-1.06,-0.94,-0.1,-0.1,1.3,3.2,82.5,70.0,82.0,74.1,84.6,73.3,82.0,75.5,81.4,70.1,80.3,73.3,78.9,68.6,79.4,72.3,2.8,-2.89,0.06,0.06,0.0,85.7,84.15,79.54,79.54,174.7,27.6,0.9410632284814873,101.54868246893169,4.321220506379064,-79.22237613995733,32.40915351333111,1
294,14.65,483.4,44.053083070083126,-78.6790798464725,26.8,-6.6,13.9,-31.9,5591.5,5592.0,100.2,0.0,1.0,1.0,0.0,1.0,1.0,0.0,0.0,0.0,100.0,1.0,1.186,26.0,0.0,-1.323,50.194,66.0,0.0,26.0,26.0,26.0,26.0,-0.98,0.19,0.02,382.8,-2.23,-2.62,-0.92,-2.08,-419.65,518.73,3.2,0.0,0.0,0.0,0.0,0.28,-7.49,-7.49,-2.35,-0.82,-1.79,-1.71,27.82,-0.09,-0.26,20.88,100.0,0.0,0.0,79.29,0.0,0.0,0.0,0.0,0.0,0.0,0.0,6814.0,0.0,30.0,2.0,100.2,0.0,0.0,0.0,0.0,0.0,0.0,1.0,0.0,14.688,14.688,50.194,13.681,0.0,110.0,435.8,8750.0,0.0,0.0,110.0,110.0,433.0,0.0,0.0,0.0,1.0,166.7,76.7,76.7,73.0,73.0,34.0,-98.2,-18.63,-91.2,-18.4,3.0,-199.015,56.3,100.0,22.4,13.3,39.0,25.8,0.0,1.0,21.0,0.0,0.0,0.0,0.0,5163.0,1575.0,5521.0,2879.0,311.9,320.7,341.3,347.5,25.03,23.04,25.96,24.69,325.0,325.0,355.0,355.0,100.0,99.9,100.0,100.0,-2.3,-2.33,-1.23,-1.09,-0.1,-0.1,0.4,2.5,82.5,70.0,82.0,74.1,84.6,73.2,82.0,75.5,81.4,70.1,80.3,73.3,78.9,68.6,79.4,72.3,3.18,-3.27,0.06,0.08,0.0,86.2,84.41,79.29,79.29,174.7,27.6,0.9984487968844471,95.78705510812547,6.1217290601874,-25.207119810219183,36.01017164519044,1
295,14.7,484.8,44.053071109105765,-78.67908074579411,30.1,-2.6,9.1,-33.0,5592.9,5593.0,100.4,0.0,1.0,1.0,0.0,1.0,1.0,0.0,0.0,0.0,100.0,1.0,1.186,26.0,0.0,-1.338,50.194,66.0,0.0,26.0,26.0,26.0,26.0,-1.09,0.09,0.01,382.8,-2.21,-2.66,-0.83,-2.16,-419.75,517.4,3.2,0.0,0.0,0.0,0.0,0.28,-7.49,-7.49,-2.35,-0.78,-1.91,-1.3,27.88,-0.12,-0.28,23.58,100.0,0.0,0.0,79.19,0.0,0.0,0.0,0.0,0.0,0.0,0.0,6806.0,0.0,30.0,2.0,100.4,1.0,0.0,0.0,0.0,0.0,0.0,1.0,0.0,14.736,14.736,50.194,13.681,1.0,110.0,435.8,8750.0,0.0,0.0,110.0,110.0,433.0,0.0,0.0,0.0,1.0,166.7,75.5,75.5,74.1,74.1,34.0,-105.5,-18.77,-97.0,-20.6,3.0,-199.065,62.8,100.0,24.0,13.2,39.4,24.1,0.0,1.0,11.1,0.0,0.0,0.0,0.0,5557.0,1556.0,5501.0,2593.0,310.9,320.8,341.3,348.3,25.03,23.03,25.96,24.69,325.0,325.0,355.0,355.0,100.0,99.9,100.0,100.0,-2.59,-2.64,-1.4,-1.27,-0.1,-0.1,0.1,2.0,82.5,70.0,82.0,74.1,84.7,73.2,82.0,75.5,81.4,70.1,80.3,73.3,78.9,68.5,79.4,72.3,3.53,-3.66,0.06,0.08,0.0,86.51,84.49,79.52,78.87,174.7,27.6,1.0937549999885716,99.02797048790977,7.922237670898109,28.80813651951911,36.01017164519044,1
296,14.75,486.2,44.053058338738964,-78.67908182498005,27.6,0.3,6.6,-26.0,5594.3,5594.0,100.3,0.0,1.0,1.0,0.0,1.0,1.0,0.0,0.0,0.0,100.0,1.0,1.186,26.0,0.0,-1.347,50.194,66.0,0.0,26.0,26.0,26.0,26.0,-1.2,-0.21,-0.01,382.8,-2.2,-2.69,-0.75,-2.22,-419.87,515.98,3.1,0.0,0.0,0.0,0.0,0.28,-7.49,-7.49,-2.35,-1.1,-2.02,-1.11,27.84,-0.17,-0.3,27.17,100.0,0.0,0.0,77.86,0.0,0.0,0.0,0.0,0.0,0.0,0.0,6692.0,0.0,30.0,2.0,100.3,0.0,0.0,0.0,0.0,0.0,0.0,1.0,0.0,14.787,14.787,50.194,13.681,0.0,110.0,435.8,8750.0,0.0,0.0,110.0,110.0,433.0,0.0,0.0,0.0,1.0,333.3,74.4,74.4,75.1,75.1,34.0,-106.3,-17.96,-101.6,-23.8,3.0,-199.115,71.0,100.0,25.3,13.2,39.8,22.8,0.0,1.0,0.0,0.0,0.0,0.0,0.0,5848.0,1521.0,5462.0,2241.0,310.2,320.9,341.4,349.2,25.03,23.03,25.96,24.69,325.0,325.0,355.0,355.0,100.0,99.9,100.0,100.0,-2.96,-3.05,-1.66,-1.55,-0.1,0.0,-0.7,-0.4,82.5,70.0,82.0,74.0,84.7,73.2,82.0,75.5,81.4,70.0,80.3,73.2,79.0,68.5,79.4,72.2,3.98,-4.14,0.06,0.08,0.0,86.48,84.24,78.81,76.91,174.7,27.6,1.2182774724995944,98.66786876007738,9.722746224706444,-10.8030512659478,43.21220506379062,1
297,14.8,487.6,44.05304646769377,-78.67908317396245,29.9,4.2,2.6,-32.8,5595.7,5596.0,99.9,0.0,1.0,1.0,0.0,1.0,1.0,0.0,0.0,0.0,100.0,1.0,1.186,26.0,0.0,-1.365,50.194,66.0,0.0,26.0,26.0,26.0,26.0,-1.33,-0.21,0.0,382.6,-2.19,-2.72,-0.67,-2.28,-420.02,514.66,3.1,0.0,0.0,0.0,0.0,0.28,-7.49,-7.49,-2.35,-0.99,-2.13,-1.22,27.74,-0.24,-0.33,30.87,100.0,0.0,0.0,77.56,0.0,0.0,0.0,0.0,0.0,0.0,0.0,6666.0,0.0,30.0,2.0,99.9,1.0,0.0,0.0,0.0,0.0,0.0,1.0,0.0,14.834,14.834,50.194,13.681,1.0,110.0,435.8,8750.0,0.0,0.0,110.0,110.0,433.0,0.0,0.0,0.0,1.0,166.7,73.0,73.0,76.2,76.2,34.0,-104.0,-16.89,-108.1,-23.3,3.0,-199.165,79.2,100.0,26.8,13.4,39.9,21.2,0.0,1.0,0.0,0.0,0.0,0.0,0.0,6261.0,1526.0,5518.0,1982.0,309.1,320.8,341.3,349.8,25.03,23.03,25.96,24.69,325.0,325.0,355.0,355.0,100.0,99.9,100.0,100.0,-3.39,-3.51,-1.98,-1.89,-0.1,0.0,-0.7,-0.4,82.5,70.0,82.0,74.0,84.7,73.2,81.9,75.4,81.5,70.0,80.3,73.2,79.0,68.5,79.4,72.2,4.44,-4.65,0.06,0.09,0.0,86.27,83.7,78.69,76.44,174.7,27.6,1.3464768843169943,97.94766536131499,12.243458177277171,18.005085822595248,50.41423905141451,1
298,14.85,489.0,44.05303387719128,-78.67908488267351,27.6,-0.1,4.5,-31.4,5597.1,5597.0,99.5,0.0,1.0,1.0,0.0,1.0,1.0,0.0,0.0,0.0,100.0,1.0,1.186,26.0,0.0,-1.365,50.194,66.0,0.0,26.0,26.0,26.0,26.0,-1.43,-0.22,0.01,382.7,-2.18,-2.75,-0.58,-2.36,-420.21,513.26,3.1,0.0,0.0,0.0,0.0,0.28,-7.49,-7.49,-2.32,-0.42,-2.26,-0.96,27.62,-0.35,-0.34,34.48,100.0,0.0,0.0,77.22,0.0,0.0,0.0,0.0,0.0,0.0,0.0,6637.0,0.0,30.0,2.0,99.5,0.0,0.0,0.0,0.0,0.0,0.0,0.0,0.0,14.886,14.886,50.194,13.681,0.0,110.0,435.8,8750.0,0.0,0.0,110.0,110.0,433.0,0.0,0.0,0.0,1.0,333.3,72.3,72.3,76.9,76.9,34.0,-92.0,-12.25,-114.5,-22.6,3.0,-199.215,86.8,100.0,28.2,13.4,40.1,19.6,0.0,1.0,0.0,0.0,0.0,0.0,0.0,6489.0,1309.0,5699.0,1805.0,308.5,321.4,340.8,350.3,25.03,23.03,25.96,24.69,325.0,325.0,355.0,355.0,100.0,99.9,100.0,100.0,-3.85,-4.0,-2.38,-2.3,-0.2,0.0,-0.7,-0.4,82.5,70.0,82.0,74.0,84.8,73.2,82.0,75.4,81.5,70.0,80.3,73.2,79.0,68.5,79.4,72.2,4.86,-5.11,0.06,0.1,0.0,86.03,83.16,78.49,75.95,174.7,27.6,1.4468586662144993,100.46837734233691,14.764170129847896,-10.803051265947659,43.21220506379061,1
299,14.9,490.3,44.05302137662096,-78.67908686118103,1.8,-77.5,-13.3,-1.0,5598.5,5598.0,99.0,0.0,1.0,1.0,0.0,1.0,1.0,0.0,0.0,0.0,100.0,1.0,1.186,26.0,0.0,-1.377,50.194,66.0,0.0,26.0,26.0,26.0,26.0,-1.37,-0.2,-0.09,386.9,-2.3,-3.94,-0.65,-2.27,-420.43,511.87,3.0,0.0,0.0,0.0,0.0,0.29,-7.49,-7.49,-2.31,-1.82,-2.17,6.64,27.5,-0.52,-0.33,33.5,100.0,0.0,0.0,76.81,0.0,0.0,0.0,0.0,0.0,0.0,0.0,6602.0,0.0,30.0,2.0,99.0,1.0,0.0,0.0,0.0,0.0,0.0,0.0,0.0,14.937,14.937,50.194,13.681,1.0,110.0,435.8,8750.0,0.0,0.0,110.0,110.0,433.0,0.0,0.0,0.0,1.0,333.3,80.8,80.8,87.4,87.4,34.0,-56.3,0.0,-100.0,-31.8,3.0,-199.265,93.0,100.0,28.3,9.5,39.4,19.6,0.0,1.0,0.0,0.0,0.0,0.0,0.0,6446.0,0.0,5272.0,2290.0,308.6,325.0,341.8,349.1,25.03,23.03,25.96,24.68,325.0,325.0,355.0,355.0,100.0,99.9,100.0,100.0,-4.68,0.0,-2.82,-2.75,-0.2,0.0,-0.8,-0.4,82.5,69.9,82.0,74.0,84.8,73.1,82.0,75.4,81.6,70.0,80.3,73.2,79.1,68.4,79.4,72.1,5.22,-5.52,0.06,0.09,0.0,85.42,83.11,78.03,75.6,174.7,27.6,1.3874436925511608,96.86736023472022,16.564678683656233,-46.813222626626185,39.61118863900244,1
300,14.95,491.7,44.05300968544008,-78.67908901955289,1.3,-27.4,-62.0,49.3,5599.8,5600.0,98.6,0.0,1.0,1.0,0.0,1.0,1.0,0.0,0.0,0.0,100.0,1.0,1.186,26.0,0.0,-1.389,50.194,66.0,0.0,26.0,26.0,26.0,26.0,-1.42,-0.23,-0.09,391.6,-2.63,-2.25,-0.93,-1.98,-420.67,510.57,3.0,0.0,0.0,0.0,0.0,0.29,-7.49,-7.49,-2.37,-3.13,-1.89,6.7,27.38,-0.61,-0.35,31.68,100.0,0.0,0.0,76.39,0.0,0.0,0.0,0.0,0.0,0.0,0.0,6565.0,0.0,30.0,2.0,98.6,0.0,0.0,0.0,0.0,0.0,0.0,0.0,0.0,14.984,14.984,50.194,13.681,0.0,110.0,435.8,8750.0,0.0,0.0,110.0,110.0,433.0,0.0,0.0,0.0,1.0,333.3,89.3,89.3,102.1,102.1,34.0,-31.2,0.0,-80.1,-44.2,3.0,-199.315,97.8,100.0,28.4,8.2,36.3,22.1,0.0,1.0,0.0,0.0,0.0,0.0,0.0,6758.0,0.0,4564.0,2917.0,307.9,325.0,343.6,347.4,25.03,23.03,25.96,24.68,325.0,325.0,355.0,355.0,100.0,99.9,100.0,100.0,-5.3,0.0,-2.97,-2.89,-0.3,0.0,-1.0,-0.4,82.5,69.9,82.0,74.0,84.9,73.1,82.0,75.4,81.7,69.9,80.3,73.2,79.2,68.4,79.4,72.1,5.51,-5.83,0.07,0.09,0.0,84.79,83.11,77.5,75.28,174.7,27.6,1.4413188405068464,95.78705507967429,18.72528899374814,10.803050981435831,46.813222626626256,1
