,Distance,GPS Latitude,GPS Longitude,Damper Velocity (Calc) FL,Damper Velocity (Calc) FR,Damper Velocity (Calc) RL,Damper Velocity (Calc) RR,Corr Dist,Corr Dist (Unstretched),Corr Speed,Brake Pos,CG Accel Lateral,CG Accel Longitudinal,CG Accel Vertical,CG Height,Camber FL,Camber FR,Camber RL,Camber RR,Car Coord X,Car Coord Y,Car Coord Z,Car Pos Norm,Chassis Pitch Angle,Chassis Pitch Rate,Chassis Roll Angle,Chassis Roll Rate,Chassis Velocity X,Chassis Velocity Y,Chassis Velocity Z,Chassis Yaw Rate,Drive Train Speed,Engine RPM,Ground Speed,Ride Height FL,Ride Height FR,Ride Height RL,Ride Height RR,Road Temp,Self Align Torque FL,Self Align Torque FR,Self Align Torque RL,Self Align Torque RR,Session Time Left,Steering Angle,Suspension Travel FL,Suspension Travel FR,Suspension Travel RL,Suspension Travel RR,Tire Load FL,Tire Load FR,Tire Load RL,Tire Load RR,Tire Loaded Radius FL,Tire Loaded Radius FR,Tire Loaded Radius RL,Tire Loaded Radius RR,Tire Pressure FL,Tire Pressure FR,Tire Pressure RL,Tire Pressure RR,Tire Rubber Grip FL,Tire Rubber Grip FR,Tire Rubber Grip RL,Tire Rubber Grip RR,Tire Slip Angle FL,Tire Slip Angle FR,Tire Slip Angle RL,Tire Slip Angle RR,Tire Slip Ratio FL,Tire Slip Ratio FR,Tire Slip Ratio RL,Tire Slip Ratio RR,Tire Temp Core FL,Tire Temp Core FR,Tire Temp Core RL,Tire Temp Core RR,Tire Temp Inner FL,Tire Temp Inner FR,Tire Temp Inner RL,Tire Temp Inner RR,Tire Temp Middle FL,Tire Temp Middle FR,Tire Temp Middle RL,Tire Temp Middle RR,Tire Temp Outer FL,Tire Temp Outer FR,Tire Temp Outer RL,Tire Temp Outer RR,Toe In FL,Toe In FR,Toe In RL,Toe In RR,Wheel Angular Speed FL,Wheel Angular Speed FR,Wheel Angular Speed RL,Wheel Angular Speed RR,CG Distance,Lateral Velocity,Longitudinal Velocity,Lateral Acceleration,Longitudinal Acceleration,level
0,105.5,44.05371430391832,-78.68169039723017,18.4,-133.7,-105.1,-84.8,1676.7,1677.0,168.2,100.0,0.58,-1.67,-0.09,380.9,-2.79,-2.87,-1.96,-1.26,-709.93,588.92,5.9,0.06,-0.93,-6.44,-0.14,-3.18,46.64,0.96,-1.05,-9.28,124.66,6650.0,168.2,59.1,59.1,83.8,83.8,34.0,4.87,-7.62,3.1,26.4,-79.54,-21.0,26.3,30.9,24.2,37.0,4714.0,6713.0,964.0,2729.0,312.9,306.9,352.0,347.7,24.59,23.01,25.33,24.54,99.68,99.59,99.67,99.63,2.06,2.17,1.39,1.53,-8.2,-11.8,-5.3,-3.7,79.7,69.8,78.0,73.1,82.0,68.4,80.8,74.3,79.3,66.4,79.3,72.6,77.3,65.3,78.6,71.7,-1.19,1.2,0.1,0.06,129.85,126.25,123.01,126.32,1.7701412373028318,163.4861767540799,49.333934408489874,-18.005085822595106,21.60610253189517,0
1,107.8,44.0536929000641,-78.68168383218244,204.3,101.7,-174.3,-313.3,1679.0,1679.0,164.7,100.0,0.66,-1.75,0.18,383.2,-3.5,-3.34,-1.52,-0.99,-709.2,586.54,5.9,0.06,-0.89,7.06,-0.12,8.15,45.66,1.16,-1.05,-15.38,117.72,6279.0,164.7,52.6,52.6,92.8,92.8,34.0,16.1,-6.51,-0.0,6.4,-79.59,-20.1,36.5,36.0,15.5,21.4,4077.0,5851.0,1596.0,2941.0,313.6,308.6,350.7,347.1,24.59,23.01,25.32,24.54,99.68,99.6,99.67,99.63,2.04,2.13,1.68,1.92,-6.1,-10.4,-9.4,-7.4,79.7,69.8,78.0,73.1,82.1,68.7,80.8,74.3,79.4,66.7,79.3,72.6,77.5,65.5,78.6,71.7,-1.14,1.18,0.11,0.09,129.56,125.86,115.6,119.84,1.8789624796679685,160.60536304522563,49.69403610787106,-154.84373585512685,-21.60610310091897,0
2,110.0,44.0536741941747,-78.681677986592,-305.8,-103.0,200.1,245.5,1681.2,1681.0,161.7,100.0,0.81,-1.57,0.11,382.4,-3.18,-1.84,-2.89,-2.08,-708.55,584.46,5.9,0.07,-0.66,1.04,0.34,9.25,44.84,1.33,-0.84,-12.62,120.32,6418.0,161.7,65.5,65.5,72.1,72.1,34.0,-1.0,23.58,14.0,40.8,-79.64,-16.4,21.2,30.8,25.5,33.6,2282.0,6852.0,2647.0,3962.0,319.2,306.3,348.0,344.8,24.59,23.01,25.32,24.54,99.68,99.6,99.67,99.63,2.21,2.28,1.87,2.08,-14.7,-7.0,-5.0,-4.2,79.7,69.8,78.0,73.1,82.2,68.9,80.8,74.4,79.5,66.8,79.3,72.6,77.5,65.6,78.6,71.7,-0.99,0.99,0.08,0.05,119.12,128.25,119.34,121.29,1.7700564962734948,148.00180316856725,47.17332409839798,-111.631530222312,-7.202034556647448,0
3,112.2,44.0536559379461,-78.68167205106941,-156.9,52.1,-131.1,-61.4,1683.5,1683.0,159.4,100.0,0.78,-1.5,-0.19,385.7,-3.28,-0.97,-2.47,-0.5,-707.89,582.43,5.9,0.07,-0.66,-0.72,0.31,-10.71,44.2,1.32,-0.74,-6.25,114.94,6131.0,159.4,67.7,67.7,72.9,72.9,34.0,-0.54,19.6,-0.8,69.3,-79.69,-10.9,13.4,33.4,18.9,30.6,1335.0,8131.0,1814.0,5028.0,321.7,303.2,350.8,342.0,24.59,23.01,25.32,24.54,99.68,99.6,99.67,99.63,2.25,2.34,1.89,2.11,-13.8,-7.6,-11.9,-3.1,79.7,69.8,78.0,73.1,82.2,69.1,80.8,74.4,79.5,67.0,79.3,72.7,77.5,65.8,78.6,71.8,-0.69,0.68,0.11,0.06,118.18,125.92,108.99,120.89,1.7013230145977571,149.44221002299443,48.97383265220632,28.808136804030653,32.40915465137853,0
4,114.4,44.05363687232805,-78.68166575581817,185.1,-36.8,-5.8,-14.3,1685.6,1686.0,156.5,100.0,0.57,-1.77,-0.07,383.9,-2.5,-2.28,-1.72,-0.6,-707.19,580.31,5.9,0.07,-0.75,-2.32,-0.62,-19.08,43.39,1.13,-0.75,-4.96,112.32,5991.0,156.5,60.1,60.1,85.9,85.9,34.0,24.29,-3.0,-1.4,12.3,-79.74,-5.0,22.6,31.6,18.7,29.9,6335.0,5154.0,2904.0,1845.0,308.9,310.6,348.0,349.9,24.59,23.01,25.32,24.54,99.68,99.6,99.67,99.63,1.73,1.89,1.71,1.89,-6.4,-9.8,-10.8,-4.8,79.7,69.8,78.0,73.1,82.3,69.2,80.9,74.4,79.5,67.2,79.3,72.7,77.6,66.0,78.6,71.8,-0.32,0.34,0.1,0.07,124.63,119.36,109.16,115.49,1.86083314673831,150.88261684897032,50.41423956353583,-61.21729117089785,5.690237259159403e-07,0
5,116.5,44.05361825637081,-78.68165946056692,229.9,28.7,58.1,-69.7,1687.8,1688.0,152.9,100.0,0.68,-1.84,0.18,379.5,-3.15,-2.75,-1.61,-0.48,-706.49,578.24,5.9,0.07,-0.83,0.63,-0.96,2.79,42.39,1.04,-0.88,-8.56,112.27,5989.0,152.9,50.7,50.7,86.3,86.3,34.0,30.32,38.29,11.8,8.2,-79.79,-2.4,34.1,33.0,21.6,26.4,6282.0,7052.0,2542.0,2454.0,308.6,305.3,348.5,349.6,24.59,23.01,25.32,24.54,99.68,99.6,99.67,99.63,1.23,1.33,1.55,1.73,-4.6,-6.2,-5.3,-6.4,79.7,69.8,78.0,73.1,82.4,69.4,80.9,74.5,79.6,67.3,79.3,72.7,77.7,66.1,78.7,71.8,-0.14,0.16,0.1,0.08,123.31,122.68,112.48,112.07,1.9698730923589975,143.32048090590465,48.97383270910869,-68.41932487400896,-5.690236548616667e-07,0
6,118.6,44.05360107932814,-78.68165352504433,-160.2,23.4,63.3,38.7,1689.8,1690.0,149.7,100.0,0.66,-1.65,-0.08,381.2,-2.91,-1.65,-1.81,-0.62,-705.83,576.33,6.0,0.07,-0.81,-0.63,-0.51,9.7,41.52,1.0,-0.9,-5.9,112.17,5983.0,149.7,60.8,60.8,74.3,74.3,34.0,-0.56,33.39,11.4,61.9,-79.84,-1.7,26.1,34.2,24.7,28.3,2114.0,7139.0,2499.0,4833.0,319.3,305.9,348.7,342.6,24.59,23.01,25.32,24.54,99.68,99.6,99.67,99.63,1.18,1.26,1.39,1.62,-11.8,-6.3,-4.9,-3.0,79.7,69.8,78.0,73.1,82.5,69.5,80.9,74.5,79.7,67.4,79.3,72.7,77.7,66.2,78.6,71.8,-0.09,0.12,0.09,0.08,114.25,119.96,110.8,113.53,1.7789041570584965,144.04068436156942,50.41423950663346,14.404068828783352,28.80813651951918,0
7,120.6,44.05358228350657,-78.68164687006444,-54.6,-4.9,-171.0,46.8,1691.9,1692.0,146.7,100.0,0.58,-1.53,-0.01,384.3,-3.43,-1.67,-1.53,-1.18,-705.09,574.24,6.0,0.07,-0.9,-0.41,-0.41,-4.72,40.68,0.81,-0.94,-2.64,105.21,5612.0,146.7,58.2,58.2,88.6,88.6,34.0,-1.15,52.07,-0.1,28.7,-79.89,-2.8,23.4,33.9,16.2,30.6,4782.0,7574.0,333.0,2570.0,313.1,304.7,353.8,347.7,24.59,23.01,25.32,24.54,99.68,99.6,99.67,99.63,1.15,1.33,1.19,1.37,-13.3,-5.4,-12.2,-2.8,79.7,69.8,78.0,73.1,82.5,69.6,80.8,74.5,79.8,67.6,79.3,72.7,77.8,66.3,78.6,71.8,-0.14,0.17,0.11,0.07,107.4,118.44,99.39,111.03,1.636276260293475,144.76088778878298,51.85464636106061,-144.0406845891792,-28.808137088542907,0
8,122.6,44.05356492659958,-78.6816405748132,-41.4,-65.7,28.0,-153.3,1693.9,1694.0,143.9,100.0,0.35,-1.58,-0.27,389.1,-2.42,-2.72,-1.37,-1.29,-704.39,572.31,6.0,0.07,-0.77,2.38,-0.88,-11.55,39.92,0.69,-0.73,-2.69,103.9,5542.0,143.9,68.1,68.1,84.6,84.6,34.0,-0.44,-1.83,4.3,2.5,-79.94,-5.0,21.3,30.7,17.6,23.0,2713.0,3713.0,2445.0,2827.0,317.4,314.4,348.1,348.0,24.59,23.01,25.32,24.54,99.68,99.6,99.67,99.63,1.25,1.27,1.02,1.31,-10.1,-10.3,-6.8,-8.3,79.7,69.8,78.0,73.1,82.6,69.8,80.8,74.5,79.8,67.7,79.3,72.7,77.8,66.4,78.6,71.8,-0.25,0.26,0.11,0.09,108.12,108.53,104.37,103.44,1.6406705946045357,129.6366159026515,47.53342579777917,-176.44983867153385,-46.81322262662633,0
9,124.6,44.05354990792876,-78.68163499901925,-75.6,-201.3,174.2,23.0,1695.8,1696.0,141.6,100.0,0.27,-1.05,-0.39,392.3,-2.73,-2.58,-1.89,-2.02,-703.77,570.64,6.0,0.07,-0.84,-5.38,-1.18,-2.73,39.28,0.6,-0.66,-1.34,104.89,5595.0,141.6,78.3,78.3,82.2,82.2,34.0,-0.47,-1.47,6.7,8.9,-79.99,-9.0,17.6,20.6,26.3,24.1,2117.0,2575.0,2125.0,1704.0,320.0,318.0,349.5,350.3,24.59,23.01,25.32,24.54,99.68,99.6,99.67,99.63,1.33,1.36,0.86,1.05,-15.7,-12.6,-4.1,-5.0,79.7,69.8,78.0,73.1,82.7,69.8,80.8,74.5,79.9,67.7,79.3,72.7,77.9,66.5,78.6,71.8,-0.49,0.49,0.1,0.09,103.56,107.58,105.24,104.54,1.1521718621802912,127.1159039216296,47.17332409839798,28.808137088542765,18.005086107107005,0
10,126.5,44.05353318054689,-78.68162879370017,58.8,-27.9,-120.1,-82.0,1697.8,1698.0,139.1,100.0,0.34,-1.54,-0.22,391.2,-2.36,-3.0,-1.93,-0.71,-703.08,568.78,6.0,0.08,-1.22,-7.56,-1.17,5.68,38.59,0.5,-0.73,-3.61,100.62,5367.0,139.1,69.9,69.9,93.5,93.5,34.0,2.83,-3.11,1.5,1.6,-80.04,-17.3,20.5,19.2,20.3,20.0,5015.0,4688.0,1099.0,1904.0,311.9,312.4,351.6,350.2,24.59,23.01,25.32,24.54,99.68,99.6,99.67,99.63,1.4,1.53,0.72,0.91,-8.7,-10.3,-5.5,-8.0,79.7,69.8,78.0,73.1,82.7,69.9,80.8,74.5,79.9,67.8,79.3,72.7,77.9,66.6,78.6,71.8,-0.93,0.92,0.09,0.1,107.33,105.07,101.37,99.88,1.5923567439490436,132.51742961150578,49.333934408489874,25.207120094731152,21.60610310091897,0
11,128.4,44.05351681289366,-78.68162267831325,85.3,202.4,-210.5,-53.8,1699.7,1700.0,136.4,100.0,0.43,-1.6,-0.13,389.2,-3.5,-1.96,-0.86,-0.31,-702.4,566.96,6.0,0.08,-1.4,-0.43,-0.8,4.82,37.82,0.47,-0.75,-6.22,95.28,5082.0,136.4,61.4,61.4,96.2,96.2,34.0,-1.36,4.87,-0.1,-0.5,-80.09,-29.2,24.8,29.3,9.8,17.3,3835.0,6947.0,755.0,3727.0,315.6,306.3,353.1,345.9,24.59,23.01,25.32,24.54,99.68,99.6,99.67,99.63,1.91,2.03,0.74,1.02,-10.2,-8.6,-10.8,-9.9,79.7,69.8,78.0,73.1,82.8,70.1,80.8,74.5,80.0,67.9,79.2,72.7,78.0,66.7,78.6,71.8,-1.58,1.56,0.12,0.09,102.62,106.4,93.53,97.03,1.6618664206247145,129.6366159311027,49.333934408489874,-97.22746196255216,-14.404068544271452,0
12,130.3,44.05350080496908,-78.68161647299416,128.4,147.7,120.5,135.7,1701.5,1702.0,132.8,100.0,0.84,-2.0,0.42,379.3,-3.67,-1.65,-1.1,-0.64,-701.71,565.18,6.0,0.08,-1.34,3.38,-0.59,6.77,36.82,0.41,-0.81,-12.43,98.27,5242.0,132.8,50.8,50.8,86.1,86.1,34.0,9.07,50.13,2.6,37.1,-80.14,-39.5,31.2,36.7,15.8,24.1,5193.0,8245.0,1979.0,4397.0,311.4,302.6,349.3,343.7,24.59,23.01,25.32,24.54,99.68,99.6,99.67,99.63,2.28,2.38,0.87,1.15,-7.7,-6.1,-7.0,-3.9,79.7,69.8,78.0,73.1,82.9,70.2,80.8,74.5,80.1,68.1,79.2,72.8,78.1,66.8,78.5,71.9,-2.2,2.2,0.11,0.07,103.31,106.83,95.76,100.78,2.209524835796149,122.79468341525056,47.89352755406273,-104.42949623468864,-18.00508553808328,0
13,132.1,44.0534861460269,-78.68161071733589,-165.3,-60.5,-18.1,111.4,1703.3,1703.0,130.2,100.0,0.68,-1.73,-0.1,382.4,-3.03,-1.92,-0.89,0.66,-701.07,563.55,6.0,0.08,-1.15,2.78,-0.57,-6.01,36.1,0.47,-0.69,-12.24,96.86,5166.0,130.2,63.3,63.3,82.0,82.0,34.0,3.67,-7.75,4.3,72.1,-80.19,-48.1,22.9,33.7,14.9,29.7,3073.0,5750.0,3349.0,6277.0,317.4,309.6,346.5,339.3,24.59,23.01,25.32,24.54,99.68,99.6,99.67,99.63,3.03,3.03,1.1,1.36,-7.6,-11.8,-7.7,-2.8,79.7,69.8,78.0,73.1,83.0,70.4,80.8,74.5,80.2,68.2,79.2,72.8,78.2,67.0,78.5,71.9,-2.75,2.69,0.11,0.07,99.75,97.35,93.85,99.87,1.861531627450901,119.19366630763383,47.533425854681546,-64.81830816470989,0.0,0
14,133.9,44.05347103742392,-78.68160460194896,24.5,-43.5,127.1,36.2,1705.1,1705.0,127.3,100.0,0.89,-1.46,-0.03,382.3,-4.03,-2.86,-2.27,-1.14,-700.39,561.87,6.0,0.08,-1.17,-0.41,-0.78,-2.45,35.3,0.5,-0.74,-14.59,94.26,5028.0,127.3,60.6,60.6,83.7,83.7,34.0,-4.53,4.09,3.2,29.0,-80.24,-61.1,24.1,31.5,21.2,31.5,5334.0,5927.0,1672.0,2715.0,312.4,308.3,350.7,347.5,24.59,23.01,25.32,24.54,99.68,99.6,99.67,99.63,3.54,3.66,1.3,1.44,-14.0,-6.9,-6.5,-3.1,79.7,69.8,78.0,73.1,83.1,70.6,80.7,74.5,80.3,68.4,79.2,72.8,78.3,67.1,78.5,71.9,-3.45,3.36,0.11,0.07,91.86,99.58,92.3,96.22,1.7101461925812074,116.31285259877956,47.89352755406273,-54.01525689876195,7.202033987623722,0
15,135.6,44.05345709793903,-78.68159875635853,-12.3,-52.3,-115.2,-105.0,1706.8,1707.0,124.9,100.0,0.9,-1.45,-0.09,386.1,-2.36,-1.87,-1.05,-0.13,-699.74,560.32,6.0,0.08,-1.12,1.34,-0.7,2.26,34.65,0.66,-0.63,-17.61,90.64,4835.0,124.9,63.9,63.9,87.0,87.0,34.0,-3.44,-14.11,-0.2,31.2,-80.29,-75.0,23.5,28.9,15.5,26.3,2895.0,6549.0,1805.0,3769.0,317.0,307.5,350.5,345.5,24.59,23.01,25.32,24.54,99.68,99.6,99.67,99.63,4.58,4.52,1.63,1.82,-13.0,-9.3,-9.6,-4.6,79.7,69.8,78.0,73.1,83.2,70.7,80.7,74.5,80.4,68.5,79.2,72.8,78.3,67.3,78.5,71.9,-4.28,4.13,0.11,0.08,89.41,95.89,87.23,94.06,1.7089763017666455,113.79214061775764,48.25362925344392,-21.60610253189517,21.606102531895388,0
16,137.3,44.053442618861176,-78.68159255103944,-34.7,47.5,108.7,45.6,1708.5,1709.0,122.2,100.0,0.97,-1.37,0.09,383.7,-2.06,-1.36,-2.15,-0.71,-699.05,558.71,6.0,0.08,-1.16,-1.43,-0.61,3.06,33.9,0.75,-0.66,-19.49,89.74,4787.0,122.2,61.9,61.9,79.3,79.3,34.0,-3.7,-18.84,3.6,23.2,-80.34,-89.6,21.8,31.3,20.9,28.5,3136.0,7869.0,1291.0,3039.0,316.5,304.3,351.3,347.0,24.59,23.01,25.32,24.54,99.68,99.6,99.67,99.63,5.61,5.46,1.88,2.05,-16.4,-9.4,-6.4,-4.8,79.7,69.8,78.0,73.1,83.3,70.9,80.7,74.5,80.4,68.7,79.2,72.8,78.4,67.5,78.5,71.9,-5.17,4.96,0.1,0.08,88.44,93.64,87.86,91.62,1.681041343929411,114.15224234559004,50.05413780725227,-28.80813651951911,25.207119525707355,0
17,139.0,44.05342858944413,-78.6815862557882,40.6,46.6,-113.1,-8.5,1710.2,1710.0,119.7,100.0,1.02,-1.29,0.02,384.2,-2.7,-3.37,-1.83,-0.65,-698.35,557.15,6.0,0.08,-1.16,1.35,-0.62,-0.53,33.21,0.88,-0.65,-21.77,85.39,4555.0,119.7,60.2,60.2,87.4,87.4,34.0,-5.78,-16.0,-0.4,47.0,-80.39,-105.3,23.8,33.6,15.3,28.1,3915.0,6351.0,847.0,4157.0,315.2,307.1,352.6,344.4,24.59,23.01,25.32,24.54,99.68,99.61,99.67,99.63,6.62,6.42,2.3,2.45,-14.0,-9.9,-13.2,-3.7,79.7,69.8,78.0,73.1,83.4,71.2,80.7,74.6,80.5,69.0,79.2,72.8,78.5,67.7,78.5,71.9,-6.1,5.8,0.12,0.08,89.11,90.44,79.57,91.2,1.644658019163863,110.91132696580574,50.774341206014654,-90.02542769041696,-3.6010169938120384,0
18,140.6,44.05341491975571,-78.6815798706048,-30.1,-86.6,-42.6,144.7,1711.8,1712.0,117.5,100.0,0.89,-0.98,-0.02,386.1,-1.91,-2.13,-2.4,-0.23,-697.64,555.63,6.0,0.08,-1.13,-0.32,-0.48,1.13,32.58,1.0,-0.62,-21.48,84.16,4489.0,117.5,66.3,66.3,89.3,89.3,34.0,-1.9,-14.28,-0.3,50.0,-80.44,-121.9,22.3,29.3,13.1,35.3,1474.0,6693.0,666.0,4025.0,321.0,307.4,353.5,344.4,24.59,23.01,25.32,24.54,99.68,99.61,99.67,99.63,7.96,7.6,2.52,2.67,-15.5,-14.7,-13.0,-3.2,79.7,69.8,78.0,73.1,83.5,71.4,80.7,74.6,80.6,69.2,79.2,72.8,78.6,67.9,78.5,72.0,-7.14,6.72,0.11,0.06,84.14,88.92,79.77,88.54,1.323971298782568,105.14969957654836,49.69403610787106,-86.42441069660492,-3.601016424788241,0
19,142.2,44.05340232925323,-78.68157384515004,-70.4,48.1,77.8,-96.7,1713.4,1713.0,115.3,100.0,0.96,-1.28,-0.12,385.7,-1.72,-2.66,-2.13,-1.22,-696.97,554.23,6.0,0.09,-1.18,-0.89,-0.59,-2.75,31.96,1.1,-0.62,-22.93,82.95,4425.0,115.3,65.8,65.8,77.9,77.9,34.0,-2.85,-16.91,-1.0,10.3,-80.49,-140.2,18.8,31.7,17.0,30.5,2245.0,6907.0,2406.0,2716.0,319.2,306.4,348.6,348.0,24.59,23.01,25.32,24.54,99.68,99.61,99.67,99.63,9.23,8.78,2.85,2.96,-20.9,-13.4,-9.3,-5.9,79.7,69.8,78.0,73.1,83.6,71.7,80.7,74.6,80.7,69.4,79.2,72.9,78.6,68.1,78.5,72.0,-8.26,7.7,0.11,0.07,77.72,83.25,80.81,85.1,1.6044936896105264,102.26888589614524,50.41423956353583,-28.80813680403108,28.80813651951925,0
20,143.8,44.0533893790221,-78.68156728010231,42.3,2.1,-73.8,-46.1,1715.0,1715.0,113.1,100.0,1.23,-1.2,-0.03,384.9,-2.35,-2.7,-2.99,0.21,-696.24,552.79,6.0,0.09,-1.18,1.68,-0.56,0.64,31.34,1.27,-0.59,-26.85,82.45,5472.0,113.1,63.4,63.4,86.2,86.2,34.0,-6.34,-17.22,-1.0,51.0,-80.54,-163.3,20.9,31.8,13.3,28.2,3135.0,6787.0,1273.0,5478.0,316.9,306.3,351.7,341.1,24.59,23.01,25.32,24.54,99.68,99.61,99.67,99.63,10.71,10.08,3.42,3.52,-9.8,-13.9,-11.5,-3.8,79.7,69.8,78.0,73.1,83.7,72.0,80.7,74.7,80.8,69.7,79.2,72.9,78.8,68.4,78.5,72.0,-9.65,8.92,0.12,0.07,85.85,80.8,78.7,86.2,1.7186622704883003,102.26888589614524,52.57484975982299,-28.808137088542907,28.80813651951911,0
21,145.3,44.05337678851962,-78.6815607150546,27.1,-4.5,-28.8,96.9,1716.5,1717.0,110.9,100.0,1.32,-1.26,0.14,383.3,-2.27,-3.78,-2.01,-0.79,-695.51,551.39,6.0,0.09,-1.09,2.7,-0.56,-0.45,30.74,1.41,-0.55,-28.07,80.79,6211.0,110.9,61.5,61.5,88.0,88.0,34.0,-9.06,-16.54,-1.2,32.6,-80.59,-188.2,22.3,31.5,11.9,33.0,4075.0,6729.0,1720.0,5136.0,314.6,306.0,350.8,341.6,24.59,23.02,25.32,24.54,99.68,99.61,99.67,99.63,12.51,11.65,3.78,3.9,-9.5,-17.3,-8.7,-4.2,79.7,69.8,78.0,73.1,83.8,72.3,80.7,74.7,81.0,70.0,79.1,73.0,78.9,68.7,78.4,72.1,-11.22,10.26,0.11,0.07,79.36,80.44,77.5,84.08,1.8301912468373356,99.38807218729096,53.29505321548774,-82.8233934182812,3.6010175628356222,0
22,146.8,44.05336455774578,-78.68155397014255,-51.0,-23.0,68.0,22.7,1718.0,1718.0,108.8,100.0,1.16,-0.98,-0.07,385.0,-1.93,-2.85,-2.8,-0.35,-694.76,550.03,6.0,0.09,-0.98,0.86,-0.4,2.04,30.15,1.57,-0.52,-27.71,77.38,5970.0,108.8,67.3,67.3,81.0,81.0,34.0,-2.36,-20.18,-1.6,24.7,-80.64,-212.7,19.7,30.4,15.3,34.2,1559.0,6813.0,1811.0,4982.0,321.1,306.7,350.8,342.0,24.59,23.02,25.32,24.54,99.69,99.61,99.67,99.63,14.55,13.39,4.07,4.19,-17.5,-8.5,-12.5,-4.3,79.7,69.8,78.0,73.1,84.0,72.7,80.7,74.8,81.1,70.4,79.2,73.0,79.0,69.0,78.5,72.1,-12.89,11.64,0.11,0.07,74.11,85.17,72.66,82.1,1.520164464786623,93.98654655431712,52.93495151610655,-108.03051322850038,-10.803051550459486,0
23,148.3,44.0533533162257,-78.68154749502699,-77.3,86.9,56.7,16.6,1719.5,1720.0,107.1,70.3,1.42,-1.05,0.22,382.2,-1.29,-1.72,-2.51,-0.02,-694.04,548.78,6.0,0.09,-0.97,-0.41,-0.51,-6.47,29.66,1.57,-0.53,-23.53,79.69,5342.0,107.1,66.5,66.5,70.4,70.4,34.0,-3.33,-22.01,8.0,39.9,-80.69,-236.8,15.8,34.7,18.1,35.0,1890.0,7317.0,2887.0,5975.0,320.5,305.3,347.7,339.5,24.58,23.02,25.32,24.54,99.69,99.61,99.67,99.63,16.45,15.01,4.1,4.27,-13.7,-8.2,-5.7,-3.6,79.7,69.9,78.0,73.1,84.0,73.1,80.7,74.8,81.1,70.8,79.2,73.1,79.1,69.4,78.4,72.2,-14.48,12.85,0.1,0.07,75.6,83.33,77.89,81.49,1.7796909844127435,88.58502086444092,52.21474806044179,-28.808137088542765,36.01017107616684,0
24,149.8,44.05334243443428,-78.68154092997926,129.5,0.2,-25.8,-86.7,1721.0,1721.0,105.3,36.4,1.43,-1.0,0.09,382.5,-1.62,-2.91,-1.92,0.87,-693.31,547.57,6.0,0.09,-0.95,3.2,-0.76,-2.2,29.18,1.54,-0.55,-27.11,78.55,5265.0,105.3,61.0,61.0,81.6,81.6,34.0,-8.76,-19.19,0.5,41.1,-80.74,-255.9,22.3,34.7,16.8,30.7,3914.0,6612.0,1400.0,5085.0,314.9,306.8,351.4,341.9,24.58,23.02,25.31,24.54,99.69,99.61,99.67,99.63,17.48,15.86,4.28,4.34,-12.3,-10.9,-6.8,-2.6,79.7,69.9,78.0,73.1,84.2,73.6,80.7,74.9,81.3,71.2,79.1,73.1,79.2,69.8,78.4,72.2,-15.76,13.93,0.11,0.06,75.66,77.79,75.75,81.34,1.7472836060582724,91.10573284546284,56.53596862372324,2.8451182743083336e-07,54.01525661425026,0
25,151.2,44.05333056338908,-78.68153337567777,-28.9,-48.8,-81.1,117.9,1722.4,1722.0,103.7,11.1,1.43,-0.62,-0.0,384.2,-1.75,-3.51,-1.31,0.37,-692.47,546.25,6.0,0.09,-0.72,4.68,-0.74,-1.55,28.74,1.54,-0.45,-26.35,78.99,5295.0,103.7,68.5,68.5,84.5,84.5,34.0,-2.75,-13.88,5.3,81.2,-80.79,-270.0,20.9,32.3,12.8,36.6,1610.0,4890.0,1460.0,7518.0,321.2,311.3,351.2,335.7,24.58,23.02,25.31,24.54,99.69,99.62,99.67,99.64,18.64,16.68,4.3,4.41,-11.0,-6.7,-4.2,-1.3,79.7,69.9,78.0,73.1,84.4,74.0,80.7,75.0,81.5,71.5,79.1,73.2,79.4,70.1,78.4,72.3,-16.84,14.77,0.1,0.07,73.56,80.38,76.93,81.04,1.5586211855354717,88.5850208928921,57.61627372186682,-75.62135914614558,10.803050981435833,0
26,152.6,44.05332031112277,-78.68152654083357,-82.9,-185.0,138.7,70.0,1723.8,1724.0,102.7,2.0,1.48,-0.42,0.03,384.9,-2.02,-2.31,-2.41,0.15,-691.71,545.11,6.0,0.09,-0.66,-0.9,-0.65,7.5,28.48,1.43,-0.4,-21.19,79.65,5339.0,102.7,74.6,74.6,78.0,78.0,34.0,-3.53,-16.39,30.3,75.0,-80.84,-279.7,16.7,23.1,19.7,40.1,1861.0,5639.0,2594.0,5688.0,320.3,310.1,348.4,340.2,24.58,23.02,25.31,24.54,99.69,99.62,99.67,99.64,19.32,17.33,3.73,3.91,-7.2,-2.9,-0.4,-0.8,79.6,69.9,78.0,73.1,84.5,74.3,80.6,75.0,81.5,71.8,79.1,73.3,79.5,70.4,78.4,72.4,-17.56,15.38,0.11,0.05,76.27,82.27,78.87,80.43,1.538733245237783,83.5435969308483,57.61627372186682,-68.41932515852136,14.404068544271524,0
27,154.0,44.053309699127816,-78.68151898653208,-73.9,72.3,-103.2,17.4,1725.3,1725.0,101.9,0.3,1.31,-0.39,-0.11,387.6,-0.85,-2.79,-2.87,-0.51,-690.87,543.93,6.0,0.09,-0.76,-1.88,-0.36,-1.34,28.27,1.22,-0.45,-19.25,79.05,5299.0,101.9,74.1,74.1,82.5,82.5,34.0,-2.61,-18.74,7.1,73.1,-80.89,-287.8,13.0,26.7,14.5,40.9,1378.0,6146.0,814.0,4883.0,321.4,308.1,353.1,341.9,24.58,23.02,25.31,24.54,99.69,99.62,99.67,99.64,19.72,17.56,3.08,3.46,-4.0,-1.3,-0.5,-0.7,79.6,69.9,78.0,73.1,84.5,74.7,80.6,75.1,81.6,72.2,79.1,73.3,79.5,70.7,78.3,72.4,-18.2,15.8,0.12,0.05,78.01,82.5,78.38,79.72,1.371240314459869,81.74308837703997,59.05668057629397,-36.01017136067853,28.80813708854305,0
28,155.4,44.05329989652231,-78.68151179195924,6.3,-6.7,-11.5,-147.8,1726.7,1727.0,101.3,0.0,1.38,-0.35,-0.1,388.9,-0.49,-3.06,-2.19,0.22,-690.07,542.84,6.0,0.09,-0.79,0.12,-0.44,-1.41,28.09,1.09,-0.39,-19.98,78.71,5276.0,101.3,75.3,75.3,80.6,80.6,34.0,-1.81,-16.9,19.9,98.6,-80.94,-291.4,13.4,26.3,14.0,33.6,1073.0,5625.0,1712.0,5946.0,322.5,309.4,350.7,339.8,24.58,23.02,25.31,24.54,99.69,99.62,99.67,99.64,19.73,17.5,3.16,3.32,-1.9,-1.2,-0.3,-0.5,79.6,69.9,78.0,73.1,84.6,75.0,80.6,75.1,81.6,72.5,79.0,73.3,79.6,71.0,78.3,72.5,-18.52,16.03,0.12,0.06,78.98,82.19,77.99,79.43,1.4272000560538105,79.94257979478044,60.49708743072112,-39.61118835449071,28.808137088542622,0
29,156.8,44.05328973418817,-78.6815038779291,41.1,64.7,-1.2,50.2,1728.1,1728.0,100.5,0.0,1.45,-0.4,0.08,385.7,-0.49,-1.54,-2.4,-0.38,-689.19,541.71,6.0,0.09,-0.77,1.66,-0.5,-3.31,27.88,0.86,-0.4,-21.48,78.21,5243.0,100.5,69.8,69.8,75.3,75.3,34.0,-0.66,-27.56,23.4,85.7,-80.99,-294.3,15.4,29.6,13.9,36.1,404.0,8504.0,1884.0,4985.0,323.5,302.2,350.2,341.9,24.58,23.02,25.31,24.54,99.69,99.62,99.67,99.64,19.42,17.18,2.79,2.95,-0.9,-1.4,-0.2,-0.6,79.6,69.9,77.9,73.1,84.6,75.4,80.5,75.1,81.7,72.9,79.0,73.4,79.7,71.4,78.3,72.5,-18.67,16.13,0.11,0.06,79.27,81.75,77.47,78.95,1.5062868252759831,77.7819695415909,61.93749428514823,-43.21220506379064,28.80813708854255,0
30,158.2,44.053280471175626,-78.68149632362761,-51.7,29.6,52.6,-30.2,1729.5,1729.0,99.8,0.0,1.26,-0.29,-0.11,387.9,-0.58,-3.06,-1.71,-0.78,-688.35,540.68,6.0,0.09,-0.66,2.41,-0.81,-9.03,27.71,0.74,-0.33,-20.83,77.75,5212.0,99.8,74.4,74.4,73.5,73.5,34.0,-1.01,-15.3,29.4,74.8,-81.04,-300.8,12.8,31.1,16.5,34.6,681.0,5141.0,2184.0,4332.0,323.5,310.3,349.4,343.3,24.58,23.03,25.31,24.54,99.69,99.62,99.67,99.64,19.67,17.2,2.62,2.75,-0.2,-1.1,-0.2,-0.5,79.6,69.9,77.9,73.1,84.6,75.8,80.5,75.1,81.7,73.2,79.0,73.4,79.7,71.7,78.2,72.5,-19.12,16.43,0.1,0.07,79.18,81.32,77.04,78.46,1.2976131935210893,75.62135928840138,63.37790113957538,-18.00508553808328,50.414239620438224,0
31,159.6,44.05327084843445,-78.68148804986883,45.1,-86.1,128.7,66.3,1730.8,1731.0,99.2,0.0,1.39,-0.35,0.11,383.9,0.34,-3.87,-1.56,0.34,-687.43,539.61,6.0,0.09,-0.64,-0.49,-0.96,0.79,27.53,0.53,-0.34,-19.89,77.21,5176.0,99.2,73.8,73.8,73.0,73.0,34.0,-2.76,-16.54,18.1,147.8,-81.09,-312.2,15.1,26.7,23.0,37.9,1382.0,5488.0,1517.0,7379.0,321.3,309.5,350.9,336.1,24.58,23.03,25.31,24.54,99.69,99.62,99.67,99.64,19.93,17.36,2.07,2.24,-0.2,-1.2,-0.2,-0.3,79.6,69.9,77.9,73.1,84.7,76.1,80.5,75.2,81.8,73.5,78.9,73.4,79.8,72.0,78.2,72.5,-19.87,17.07,0.09,0.05,78.55,80.65,76.48,77.94,1.4376021702821682,75.98146098778257,66.97891824719206,-18.00508553808342,46.81322205760246,0
32,161.0,44.05326149548974,-78.68147959624574,48.2,-24.9,-126.9,69.2,1732.2,1732.0,98.5,0.0,1.34,-0.43,-0.11,385.3,0.54,-3.33,-2.22,-0.48,-686.49,538.57,6.0,0.1,-0.73,-0.98,-1.01,-1.55,27.34,0.4,-0.37,-23.29,76.67,5140.0,98.5,70.8,70.8,85.2,85.2,34.0,-8.33,-15.56,14.6,75.8,-81.14,-320.0,17.5,25.5,16.6,41.3,3271.0,5306.0,1427.0,4258.0,316.0,310.6,351.6,343.4,24.58,23.03,25.31,24.54,99.69,99.63,99.67,99.64,20.1,17.54,1.93,2.04,-0.5,-1.3,-0.2,-0.5,79.6,69.9,77.9,73.1,84.9,76.5,80.4,75.2,81.9,73.8,78.9,73.4,79.9,72.3,78.2,72.5,-20.5,17.56,0.11,0.05,77.58,80.08,75.94,77.41,1.4115948427222311,73.82085073459304,68.05922334533562,-43.21220506379064,25.207119525707213,0
33,162.3,44.05325241234152,-78.68147105269048,-9.4,12.9,3.8,-67.3,1733.6,1734.0,97.9,0.0,1.36,-0.29,0.08,385.6,0.55,-3.15,-1.67,-1.12,-685.54,537.56,6.0,0.1,-0.77,-0.23,-0.97,1.07,27.18,0.36,-0.37,-26.2,77.34,5185.0,97.9,71.3,71.3,81.1,81.1,34.0,-5.65,-18.16,16.5,92.9,-81.19,-320.0,17.0,26.1,16.8,38.0,2496.0,5971.0,1574.0,4870.0,318.8,308.6,350.8,341.7,24.58,23.03,25.31,24.54,99.69,99.63,99.67,99.64,19.9,17.27,1.97,2.11,-0.6,-1.4,1.8,-0.1,79.6,69.9,77.9,73.1,84.9,76.8,80.4,75.2,82.0,74.2,78.9,73.4,80.0,72.6,78.1,72.5,-20.53,17.57,0.11,0.05,77.01,79.85,77.19,77.49,1.392874725163753,71.6602404814035,69.49963019976278,-57.61627389257413,10.803051550459628,0
34,163.7,44.05324359898978,-78.68146223933874,38.7,83.9,8.4,-12.4,1734.9,1735.0,97.6,0.0,1.36,0.08,0.12,383.1,0.34,-3.11,-1.78,-0.75,-684.56,536.58,6.0,0.1,-0.7,3.84,-0.84,3.49,27.1,0.35,-0.39,-30.4,78.44,5259.0,97.6,68.9,68.9,74.3,74.3,34.0,-4.36,-18.37,26.7,97.1,-81.24,-320.0,18.9,30.3,17.2,37.3,1951.0,5992.0,3252.0,5286.0,319.6,308.4,346.3,341.2,24.58,23.03,25.31,24.54,99.69,99.63,99.67,99.64,19.55,16.94,2.07,2.23,-1.0,-1.6,4.6,1.1,79.6,70.0,77.9,73.1,85.1,77.2,80.4,75.2,82.2,74.5,78.8,73.4,80.1,72.9,78.1,72.6,-20.51,17.53,0.11,0.04,76.61,79.94,78.44,78.44,1.3676256797823008,68.05922334533562,69.13952850038159,-68.41932544303347,-14.404068544271524,0
35,165.0,44.05323541516317,-78.68145378571565,-89.9,-225.5,-31.6,43.2,1736.3,1736.0,97.8,0.0,1.05,0.35,-0.14,389.8,-0.42,-3.43,-2.2,-0.36,-683.62,535.67,6.0,0.1,-0.57,1.86,-0.75,-0.84,27.17,0.52,-0.27,-29.81,79.6,5336.0,97.8,82.6,82.6,84.8,84.8,34.0,-1.27,-8.05,11.9,104.7,-81.29,-320.0,14.5,19.1,15.7,39.5,786.0,3141.0,2315.0,6334.0,323.1,316.5,349.3,338.2,24.58,23.03,25.31,24.54,99.69,99.63,99.67,99.64,20.06,17.36,2.49,2.59,-0.9,-1.2,6.0,2.6,79.6,70.0,77.9,73.1,85.1,77.5,80.4,75.2,82.2,74.7,78.8,73.4,80.2,73.1,78.1,72.6,-20.58,17.66,0.11,0.04,76.55,80.02,79.6,79.6,1.115616421535646,64.81830793710016,68.05922334533562,-25.20711952570707,28.80813651951925,0
36,166.4,44.05322741120088,-78.6814452421604,-104.4,-130.9,59.4,131.7,1737.6,1738.0,98.4,0.0,1.06,0.45,-0.03,389.8,1.48,-2.67,-2.79,-0.33,-682.67,534.78,6.0,0.1,-0.67,-5.2,-0.69,-0.28,27.33,0.62,-0.25,-23.3,79.18,5308.0,98.4,89.8,89.8,77.9,77.9,34.0,0.0,-8.96,28.4,114.7,-81.34,-320.0,9.2,12.5,18.6,46.1,0.0,3454.0,3751.0,6522.0,325.0,315.8,345.6,337.6,24.58,23.04,25.31,24.54,99.69,99.63,99.67,99.64,0.0,18.05,2.35,2.58,0.0,-1.0,4.9,2.2,79.6,70.0,77.9,73.1,85.1,77.6,80.3,75.2,82.2,74.9,78.8,73.5,80.2,73.3,78.1,72.6,-20.65,17.73,0.11,0.04,76.55,79.88,79.18,79.18,1.1519548602267369,65.53851139276492,72.02034215233351,18.005085822595248,79.22237613995748,0
37,167.8,44.05321904750994,-78.68143579928353,8.5,68.6,6.4,-235.7,1739.0,1739.0,98.8,0.0,1.02,0.26,-0.18,392.4,0.14,-3.28,-2.16,-0.86,-681.62,533.85,6.0,0.1,-1.02,-5.65,-0.71,0.51,27.44,0.69,-0.31,-25.07,82.24,5513.0,98.8,83.3,83.3,80.3,80.3,34.0,-2.97,-13.62,5.0,31.8,-81.39,-320.0,9.7,16.0,18.9,34.3,1511.0,4781.0,2019.0,3683.0,321.2,312.0,349.6,345.5,24.58,23.04,25.31,24.54,99.69,99.63,99.67,99.64,20.74,18.12,2.58,2.64,-1.4,-1.6,8.0,5.0,79.6,70.0,77.9,73.1,85.1,77.9,80.3,75.3,82.2,75.1,78.8,73.5,80.2,73.5,78.1,72.7,-20.64,17.69,0.1,0.07,76.61,79.76,82.24,82.24,1.0678951259369995,66.61881651935968,75.98146095933137,-21.606102816407216,28.808137088542765,0
38,169.2,44.05321077375117,-78.68142626647452,61.5,34.1,-79.9,-111.3,1740.4,1740.0,99.2,0.0,0.79,0.3,-0.29,395.1,0.33,-4.24,-1.86,-0.11,-680.56,532.93,6.0,0.1,-1.2,-2.11,-0.44,4.92,27.56,0.9,-0.29,-30.91,82.66,5541.0,99.2,84.3,84.3,92.2,92.2,34.0,-1.6,-6.22,-0.0,49.1,-81.44,-320.0,12.7,17.7,14.9,28.7,912.0,2541.0,216.0,5714.0,322.6,317.8,354.9,340.3,24.58,23.04,25.31,24.54,99.69,99.63,99.67,99.64,20.76,18.04,3.23,3.29,-1.3,-1.7,11.2,5.2,79.6,70.0,77.9,73.1,85.2,78.2,80.3,75.3,82.3,75.4,78.8,73.5,80.3,73.7,78.0,72.7,-20.58,17.68,0.11,0.07,76.85,80.48,85.55,79.77,0.893420393767682,63.3779011111242,74.90115586118779,-50.41423962043815,3.6010175628356933,0
39,170.5,44.05320321944968,-78.68141709339413,67.8,35.8,-63.0,151.6,1741.8,1742.0,99.2,0.0,1.38,0.09,0.13,388.2,-0.78,-3.75,-2.63,-2.33,-679.54,532.09,6.0,0.1,-1.34,-2.07,-0.11,8.01,27.54,1.0,-0.31,-31.43,82.77,5548.0,99.2,74.0,74.0,90.2,90.2,34.0,-6.02,-19.8,1.9,47.1,-81.49,-320.0,16.1,19.4,11.8,36.3,2659.0,6497.0,1198.0,5472.0,318.0,307.6,351.9,340.6,24.58,23.04,25.3,24.54,99.69,99.63,99.67,99.64,20.86,18.39,3.4,3.5,-1.4,-1.6,8.2,4.6,79.6,70.0,77.9,73.1,85.3,78.4,80.3,75.4,82.5,75.6,78.7,73.6,80.4,73.9,78.0,72.7,-20.54,17.63,0.11,0.07,76.86,80.48,82.77,82.77,1.3890284374338775,61.57739255731587,76.34156271561494,-14.404068544271524,54.01525661425026,0
40,171.9,44.05319539535171,-78.68140720085647,35.7,138.7,7.0,36.7,1743.1,1743.0,99.5,0.0,1.24,0.15,-0.06,386.7,-1.36,-3.19,-2.55,-1.01,-678.44,531.22,6.0,0.1,-1.29,2.9,0.32,5.0,27.61,1.19,-0.36,-38.32,82.92,5558.0,99.5,71.2,71.2,86.8,86.8,34.0,-3.67,-19.01,-0.3,30.0,-81.54,-320.0,17.9,26.4,12.1,38.2,1849.0,6237.0,822.0,4870.0,320.3,308.0,352.9,342.0,24.58,23.04,25.3,24.54,99.69,99.63,99.67,99.64,20.94,18.23,4.16,4.15,-1.2,-1.7,10.8,4.8,79.6,70.0,77.9,73.1,85.5,78.8,80.3,75.4,82.6,76.0,78.7,73.7,80.6,74.3,78.0,72.8,-20.53,17.56,0.11,0.05,76.96,81.04,84.42,81.41,1.2504799078753726,61.93749425669704,80.30268152261282,-28.80813680403115,32.4091540823548,0
41,173.3,44.05318775111806,-78.68139703852232,-116.0,-121.8,81.3,36.4,1744.5,1745.0,99.7,0.0,1.29,0.46,-0.05,387.5,-0.99,-3.85,-3.58,-1.21,-677.31,530.37,5.9,0.1,-1.08,1.95,0.62,5.39,27.68,1.48,-0.24,-34.33,82.92,5558.0,99.7,83.0,83.0,79.5,79.5,34.0,-0.57,-9.65,1.5,40.6,-81.59,-320.0,12.1,20.3,16.2,40.0,478.0,3611.0,2753.0,8151.0,324.1,314.9,347.8,333.4,24.58,23.05,25.3,24.54,99.69,99.63,99.67,99.64,21.82,18.95,4.61,4.7,-0.8,-1.2,8.7,4.8,79.6,70.0,77.9,73.1,85.5,79.1,80.3,75.5,82.6,76.2,78.7,73.8,80.6,74.5,78.0,72.9,-20.61,17.64,0.12,0.04,76.92,81.03,82.91,82.91,1.3704743704279916,58.69657887691275,79.58247812385042,-118.83356420993586,25.20712009473087,0
42,174.7,44.05318073640953,-78.68138732584897,-61.2,-110.8,75.5,134.0,1745.9,1746.0,100.3,0.0,1.48,0.3,-0.22,385.3,-0.1,-2.89,-3.98,-0.73,-676.23,529.59,5.9,0.1,-1.19,-5.99,0.89,3.02,27.83,1.63,-0.26,-27.61,83.71,5612.0,100.3,81.5,81.5,74.8,74.8,34.0,-0.93,-25.15,1.0,29.3,-81.64,-320.0,9.1,14.8,20.0,46.7,668.0,7472.0,2059.0,7701.0,323.6,304.3,350.0,335.1,24.58,23.05,25.3,24.54,99.69,99.64,99.67,99.64,22.36,19.91,4.6,4.66,-1.0,-1.2,8.7,5.7,79.6,70.0,77.9,73.1,85.5,79.4,80.3,75.6,82.6,76.4,78.8,73.9,80.6,74.7,78.0,73.0,-20.63,17.68,0.09,0.03,76.93,80.54,83.71,83.71,1.5260406285548231,50.05413783570346,82.8233935320859,-234.06611199508384,50.41423905141457,0
43,175.9,44.05317525054773,-78.68137635412538,-101.2,-35.4,-204.4,-229.5,1747.1,1747.0,85.9,0.0,3.42,-1.12,-0.68,412.3,0.32,-2.15,-4.69,-0.21,-675.01,528.98,5.9,0.1,-1.1,-1.0,1.81,19.31,23.8,-1.58,-0.71,-219.25,80.49,5396.0,85.9,112.0,112.0,91.3,91.3,34.0,0.0,38.96,0.0,-12.1,-81.69,-320.0,4.0,13.0,9.8,35.2,0.0,2388.0,0.0,4795.0,325.0,317.9,355.0,342.3,24.58,23.05,25.3,24.54,99.69,99.64,99.67,99.64,0.0,2.22,0.0,6.87,0.0,0.2,0.0,5.1,79.6,70.1,77.9,73.1,85.5,79.5,80.3,75.7,82.6,76.6,78.8,73.9,80.6,74.8,78.0,73.1,-20.69,17.74,0.13,0.06,76.56,86.17,82.36,78.62,3.6624035823486194,35.28996767740437,84.62390202899188,-291.6823861721697,-57.61627417708567,0
44,177.1,44.05317192305779,-78.68136619179124,12.0,-23.3,-150.1,26.1,1748.3,1748.0,83.9,0.0,0.96,0.14,-0.27,438.2,-2.45,-0.59,-5.05,2.43,-673.88,528.61,5.9,0.1,-1.19,-19.63,4.26,38.08,23.18,2.23,-0.71,-233.73,83.87,5622.0,83.9,138.4,138.4,123.3,123.3,34.0,0.0,-8.76,0.0,-24.3,-81.74,-320.0,4.6,11.8,2.3,36.5,0.0,3424.0,0.0,7620.0,325.0,316.5,355.0,334.5,24.58,23.05,25.3,24.54,99.69,99.64,99.67,99.64,0.0,8.77,0.0,15.54,0.0,1.0,0.0,6.6,79.6,70.1,77.9,73.1,85.4,79.5,80.3,75.9,82.5,76.6,78.7,74.2,80.5,74.9,78.0,73.3,-20.69,17.75,0.15,0.05,76.56,82.05,87.53,80.21,1.0070253224224304,20.88589921848649,77.06176611437733,-212.46000974770047,-68.41932458949799,0
45,178.2,44.05317003448242,-78.68135710864301,21.3,-284.3,749.6,-195.3,1749.4,1749.0,81.8,0.0,0.05,0.03,-0.7,431.5,2.17,-3.77,-1.52,-1.69,-672.87,528.4,5.9,0.1,0.21,39.98,-0.5,-146.06,22.7,0.58,0.8,-32.28,82.28,5515.0,81.8,166.1,166.1,80.4,80.4,34.0,0.0,0.0,0.0,-0.3,-81.79,-320.0,5.7,-2.4,39.7,26.7,0.0,0.0,0.0,263.0,325.0,325.0,355.0,354.0,24.58,23.05,25.3,24.54,99.69,99.64,99.67,99.64,0.0,0.0,0.0,5.68,0.0,0.0,0.0,10.8,79.6,70.1,77.9,73.1,85.4,79.6,80.2,76.1,82.5,76.6,78.6,74.3,80.5,74.9,77.9,73.5,-20.68,17.95,0.07,0.07,76.56,78.44,90.79,73.76,0.7024243731534378,14.043966702634323,77.78196957004208,-90.02542769041693,64.8183081647096,0
46,179.3,44.05316841570353,-78.68134676644455,-94.1,186.3,1235.6,-271.8,1750.6,1751.0,82.6,0.0,1.41,0.58,2.94,417.0,7.61,-10.02,3.04,-6.58,-671.72,528.22,5.9,0.1,1.57,-4.39,-5.21,2.85,22.92,0.21,0.94,2.45,76.31,5115.0,82.6,188.6,188.6,34.2,34.2,34.0,0.0,0.0,657.1,0.0,-81.84,-320.0,1.0,6.9,101.5,13.2,0.0,0.0,24313.0,0.0,325.0,325.0,294.2,355.0,24.58,23.05,25.3,24.54,99.69,99.64,99.68,99.64,0.0,0.0,2.63,0.0,0.0,0.0,1.8,0.0,79.6,70.1,77.9,73.1,85.3,79.5,80.5,76.0,82.4,76.6,78.9,74.3,80.4,74.8,78.2,73.5,-20.72,17.8,-0.07,0.11,76.56,78.44,62.24,90.37,3.3118121927428192,11.883356449444792,83.5435969308483,-32.409153797842954,39.61118806997888,0
47,180.5,44.05316706672112,-78.68133624438175,37.1,-46.0,-773.7,-8.6,1751.7,1752.0,83.2,0.0,-0.38,0.31,-0.51,433.0,2.07,-5.97,0.42,-3.88,-670.55,528.07,5.9,0.11,0.35,-33.24,-1.84,91.17,23.12,-0.13,0.26,13.12,82.34,5519.0,83.2,172.5,172.5,70.8,70.8,34.0,0.0,0.0,-83.0,0.0,-81.89,-320.0,2.8,4.6,62.8,12.7,0.0,0.0,5826.0,0.0,325.0,325.0,339.1,355.0,24.58,23.06,25.31,24.54,99.69,99.64,99.68,99.64,0.0,0.0,-2.11,0.0,0.0,0.0,3.3,0.0,79.6,70.1,77.9,73.1,85.2,79.4,80.6,76.0,82.4,76.5,79.0,74.2,80.4,74.8,78.3,73.4,-20.7,17.86,0.03,0.1,76.56,78.44,68.65,96.02,0.7075309180523491,10.803051322850028,81.74308837703997,-10.803050981435812,-14.404068544271524,0
48,181.7,44.05316571773872,-78.68132635184409,8.1,-57.6,-1081.6,152.4,1752.9,1753.0,83.7,0.0,-0.14,0.5,-0.78,432.4,0.21,-1.12,-4.77,0.84,-669.45,527.92,5.9,0.11,-1.24,-32.64,2.42,78.72,23.27,-0.31,0.05,10.25,79.78,5348.0,83.7,132.3,132.3,112.3,112.3,34.0,0.0,0.0,0.0,4.5,-81.94,-320.0,3.2,1.7,8.8,20.3,0.0,0.0,0.0,4760.0,325.0,325.0,355.0,342.5,24.58,23.06,25.3,24.54,99.69,99.64,99.68,99.64,0.0,0.0,0.0,-2.66,0.0,0.0,0.0,15.4,79.6,70.1,77.9,73.1,85.2,79.4,80.5,76.1,82.3,76.5,79.0,74.3,80.3,74.7,78.3,73.5,-20.69,17.9,0.13,0.08,76.56,78.44,89.91,69.65,0.9370165420097984,10.80305135130121,82.10319007642114,-7.202033987623899,32.40915408235466,0
49,182.8,44.0531643687563,-78.68131573984914,89.5,920.2,-48.8,193.0,1754.1,1754.0,84.1,0.0,0.72,0.11,0.37,425.8,-4.23,1.0,-6.67,3.57,-668.27,527.77,5.8,0.11,-2.68,-22.12,5.12,22.41,23.34,-0.54,-0.54,-14.98,82.71,5545.0,84.1,86.1,86.1,148.6,148.6,34.0,0.0,-47.72,0.0,-42.7,-81.99,-320.0,7.7,47.8,6.3,30.0,0.0,13775.0,0.0,5602.0,325.0,288.1,355.0,340.4,24.58,23.06,25.3,24.54,99.69,99.64,99.68,99.64,0.0,15.16,0.0,-1.1,0.0,-1.9,0.0,5.7,79.6,70.1,77.9,73.1,85.1,79.8,80.5,76.1,82.2,76.9,78.9,74.4,80.2,75.1,78.2,73.5,-20.64,17.34,0.13,0.07,76.56,68.27,97.01,68.41,0.8169455306200041,10.082847924087638,84.98400378527543,-21.60610310091899,3.6010169938120384,0
50,184.0,44.05316319963821,-78.68130512785419,89.7,57.0,44.6,-194.3,1755.2,1755.0,83.9,0.0,0.75,-0.1,-0.17,428.4,-3.04,-0.46,-6.19,2.95,-667.09,527.64,5.8,0.11,-2.73,7.92,3.89,-50.88,23.28,-0.4,-0.92,-37.99,89.35,5990.0,83.9,85.1,85.1,153.7,153.7,34.0,0.0,-28.36,0.0,-0.4,-82.04,-320.0,12.2,50.6,8.5,20.3,0.0,8573.0,0.0,1350.0,325.0,300.8,355.0,351.3,24.58,23.07,25.3,24.54,99.69,99.64,99.68,99.64,0.0,15.25,0.0,1.93,0.0,-1.4,0.0,16.5,79.6,70.2,77.9,73.1,85.1,80.3,80.4,76.1,82.2,77.3,78.8,74.4,80.2,75.6,78.1,73.5,-20.59,17.36,0.12,0.1,76.56,69.61,100.4,78.31,0.7754998388136519,8.642441041209311,82.46329177580235,-18.005085822595195,-5.690235127531196e-07,0
51,185.2,44.05316221038445,-78.68129514538437,-39.2,-734.3,-75.1,-304.7,1756.4,1756.0,83.7,0.0,0.12,-0.04,-0.99,427.3,-1.18,-2.34,-3.6,-0.05,-665.98,527.53,5.8,0.11,-1.99,16.77,1.27,-57.31,23.24,0.27,-0.32,-44.77,91.72,6148.0,83.7,102.3,102.3,137.3,137.3,34.0,0.0,-1.02,0.0,0.0,-82.09,-320.0,10.2,13.9,4.8,5.0,0.0,503.0,0.0,0.0,325.0,322.7,355.0,355.0,24.58,23.07,25.3,24.54,99.69,99.64,99.68,99.64,0.0,16.55,0.0,0.0,0.0,-1.1,0.0,0.0,79.6,70.2,77.9,73.1,85.0,80.5,80.3,76.1,82.1,77.5,78.8,74.3,80.1,75.8,78.1,73.5,-20.61,17.75,0.13,0.11,76.56,69.83,95.85,87.59,0.9980480950335008,8.282339341828118,84.98400372837308,-10.803050981435822,32.40915408235466,0
52,186.3,44.05316113119852,-78.6812839038643,78.8,-234.1,330.9,-29.8,1757.5,1758.0,84.2,0.0,0.67,0.89,-0.13,403.4,1.06,-4.91,0.16,-3.31,-664.73,527.41,5.8,0.11,-1.03,18.99,-1.42,-31.83,23.37,1.11,0.55,-42.95,91.3,6120.0,84.2,101.8,101.8,87.6,87.6,34.0,-10.79,0.0,-12.0,-0.8,-82.14,-320.0,14.2,2.2,21.3,3.6,4120.0,0.0,9113.0,2042.0,314.5,325.0,331.9,350.4,24.58,23.07,25.3,24.54,99.69,99.64,99.68,99.64,21.03,0.0,5.54,5.6,6.4,0.0,24.9,55.4,79.6,70.2,77.9,73.1,85.0,80.4,80.5,76.0,82.2,77.5,79.0,74.3,80.2,75.7,78.3,73.5,-20.55,17.88,0.08,0.11,69.18,69.83,74.59,108.01,1.1215614116043755,7.562135943065729,85.70420718403781,-36.01017107616677,-36.01017050714319,0
53,187.5,44.053160321809074,-78.68127374153015,145.3,57.2,771.5,633.4,1758.7,1759.0,85.0,0.0,1.48,0.67,0.53,376.1,-0.19,-5.22,-1.33,-1.94,-663.6,527.32,5.7,0.11,-0.41,7.03,-0.8,49.73,23.57,1.32,0.61,-38.52,73.25,4910.0,85.0,90.8,90.8,42.9,42.9,34.0,-10.55,0.0,98.2,-9.4,-82.19,-320.0,21.4,5.0,59.9,35.2,4066.0,0.0,10702.0,7587.0,314.3,325.0,327.9,336.1,24.58,23.07,25.3,24.54,99.69,99.64,99.68,99.64,20.59,0.0,4.99,4.83,-1.5,0.0,2.3,23.6,79.6,70.2,77.9,73.1,85.3,80.3,80.6,76.4,82.4,77.4,79.1,74.6,80.4,75.7,78.4,73.8,-20.47,17.84,0.0,0.05,65.8,69.83,66.69,79.8,1.708859268635074,4.681322234211441,81.38298667765876,-64.81830816470963,-21.60610253189517,0
54,188.7,44.05315996208044,-78.681263579196,-109.2,901.1,-263.7,719.9,1759.9,1760.0,84.6,0.0,2.71,-0.49,1.43,353.8,-2.44,-0.79,-3.3,0.15,-662.47,527.28,5.7,0.11,-0.65,-11.56,2.12,30.38,23.48,0.6,-0.03,-11.07,65.31,5504.0,84.6,52.3,52.3,22.2,22.2,34.0,0.0,-49.66,25.5,325.6,-82.24,-320.0,16.0,50.1,46.7,71.2,0.0,13581.0,2219.0,13384.0,325.0,288.2,349.1,320.0,24.58,23.08,25.3,24.54,99.69,99.64,99.68,99.64,0.0,18.08,2.05,2.45,0.0,-1.2,0.0,-0.3,79.6,70.2,77.9,73.1,85.3,80.7,80.7,76.5,82.5,77.8,79.1,74.7,80.5,76.1,78.4,73.9,-20.53,17.32,0.04,-0.02,66.09,68.54,65.3,65.33,3.1030791159749698,1.0803051265947656,83.5435969308483,-25.207119810219098,39.61118806997874,0
55,189.8,44.05316005201259,-78.68125287726889,28.6,164.6,-428.3,-306.8,1761.1,1761.0,83.8,0.0,1.5,-0.37,0.47,366.3,-2.45,4.68,-3.82,-0.95,-661.28,527.29,5.7,0.11,-0.97,-2.57,1.36,-43.33,23.26,-0.02,-0.68,-15.78,65.53,7357.0,83.8,50.1,50.1,46.8,46.8,34.0,-1.9,-35.19,17.3,97.8,-82.29,-320.0,17.4,58.3,25.3,55.9,1053.0,12208.0,2167.0,5373.0,321.8,291.2,349.8,340.3,24.58,23.08,25.3,24.54,99.69,99.65,99.68,99.64,20.25,17.59,1.56,1.54,-0.4,-1.7,0.1,-0.2,79.6,70.3,77.9,73.1,85.3,81.3,80.6,76.5,82.4,78.4,79.1,74.7,80.4,76.8,78.4,73.9,-20.52,17.29,0.09,0.02,65.99,67.21,64.85,66.2,1.614868415692127,2.1606102531895317,85.34410548465664,28.80813708854289,-7.202034556647448,0
56,191.0,44.0531605016734,-78.68124226527394,-56.7,-771.9,88.7,-803.2,1762.2,1762.0,83.4,0.0,0.86,-0.16,-0.49,389.7,-0.42,6.78,-3.02,-1.93,-660.1,527.34,5.7,0.11,-0.96,0.24,-0.91,-33.33,23.16,-0.04,-0.56,-19.93,65.19,8763.0,83.4,86.9,86.9,69.5,69.5,34.0,-2.87,-4.44,65.4,82.9,-82.34,-320.0,14.6,19.7,29.7,15.7,1538.0,2542.0,5216.0,5143.0,321.5,317.6,341.8,342.1,24.58,23.08,25.3,24.54,99.69,99.65,99.68,99.64,19.8,17.31,1.63,1.11,-0.2,-1.4,0.0,0.1,79.6,70.3,77.9,73.1,85.3,81.5,80.6,76.5,82.4,78.7,79.1,74.7,80.4,77.1,78.3,73.9,-20.56,17.68,0.08,0.1,65.71,67.56,64.28,66.1,1.002646498024104,3.9611188354490543,82.82339347518355,25.207119810219098,-21.606103100919118,0
57,192.2,44.05316104126637,-78.68123219287196,28.1,-297.6,-47.0,187.2,1763.4,1763.0,83.8,0.0,0.34,0.48,-0.41,396.8,0.9,6.35,-1.74,5.37,-658.98,527.4,5.7,0.11,-1.18,-5.76,-1.74,-6.45,23.27,0.09,-0.49,-22.37,81.58,7011.0,83.8,100.3,100.3,96.1,96.1,34.0,-5.54,0.0,-0.6,-0.2,-82.39,-320.0,16.0,4.9,27.4,25.1,2349.0,0.0,3290.0,1901.0,318.6,325.0,346.6,349.6,24.58,23.09,25.3,24.54,99.7,99.65,99.68,99.64,19.44,0.0,1.53,1.79,-1.3,0.0,28.1,25.3,79.6,70.3,77.9,73.1,85.4,81.5,80.7,76.5,82.5,78.6,79.1,74.8,80.6,77.1,78.4,73.9,-20.54,17.84,0.08,0.08,65.37,67.66,80.97,82.18,0.717007670809734,4.681322234211441,83.18349517456473,10.8030509814358,28.808137088542622,0
58,193.3,44.05316167079148,-78.68122149094485,-130.6,-25.9,-252.1,-172.5,1764.6,1765.0,84.3,0.0,0.15,0.21,-0.91,407.3,1.61,6.61,-1.32,9.16,-657.79,527.47,5.7,0.11,-1.54,-6.76,-1.63,4.59,23.43,0.47,-0.27,-24.8,72.69,6247.0,84.3,109.1,109.1,111.5,111.5,34.0,-0.68,0.0,-0.4,0.4,-82.44,-320.0,9.4,3.6,14.8,16.5,451.0,0.0,926.0,761.0,323.8,325.0,352.7,353.0,24.58,23.09,25.3,24.54,99.7,99.65,99.68,99.64,20.15,0.0,2.42,2.5,-1.0,0.0,13.4,9.2,79.6,70.3,77.9,73.1,85.4,81.4,80.7,76.5,82.6,78.6,79.1,74.8,80.6,77.0,78.4,74.0,-20.62,17.87,0.12,0.1,65.52,67.66,72.56,72.8,0.9458858282054976,5.041423933592634,85.70420718403781,14.404068544271444,3.6010175628356933,0
59,194.5,44.05316230031661,-78.68121078901774,66.3,6.3,-68.9,20.4,1765.7,1766.0,84.8,0.0,0.92,0.4,-0.28,395.1,-0.29,7.11,-2.09,9.7,-656.6,527.54,5.7,0.11,-1.91,-6.62,-1.04,20.27,23.56,0.76,-0.1,-27.53,70.3,6041.0,84.8,91.0,91.0,102.9,102.9,34.0,-8.09,-5.41,5.4,33.3,-82.49,-320.0,12.7,3.9,11.3,17.5,3417.0,3220.0,2663.0,4863.0,316.8,316.9,348.3,342.5,24.58,23.09,25.3,24.54,99.7,99.65,99.68,99.64,20.43,17.95,2.93,3.14,-1.5,-2.5,8.5,3.6,79.6,70.3,77.9,73.1,85.5,81.4,80.7,76.5,82.7,78.6,79.1,74.8,80.7,77.0,78.4,74.0,-20.58,17.85,0.12,0.1,65.65,68.23,69.98,70.61,1.041537325303323,6.121729088638586,83.5435969308483,36.01017136067861,7.202034556647732,0
60,195.7,44.05316319963821,-78.68120062668359,158.3,269.2,-50.3,404.8,1766.9,1767.0,85.0,0.0,1.29,-0.31,0.08,384.4,-0.85,-3.93,-2.49,10.66,-655.47,527.64,5.6,0.11,-2.18,-4.4,0.23,24.88,23.57,0.88,-0.23,-37.25,71.68,6161.0,85.0,70.6,70.6,103.3,103.3,34.0,-8.95,-20.81,0.0,93.6,-82.54,-320.0,20.7,17.3,8.8,37.7,3653.0,6773.0,0.0,8069.0,315.6,307.3,355.0,334.2,24.58,23.09,25.3,24.54,99.7,99.65,99.68,99.65,19.97,17.62,0.0,3.71,-1.2,-1.8,0.0,0.5,79.6,70.3,77.9,73.1,85.7,81.6,80.7,76.5,82.8,78.8,79.1,74.8,80.9,77.3,78.4,74.0,-20.48,17.66,0.12,0.06,65.92,69.59,72.68,70.69,1.329135057095403,8.642441069660496,86.42441063970259,50.4142396204382,25.20712009473087,0
61,196.9,44.053164458688464,-78.68118920529919,76.1,464.0,-39.5,344.8,1768.1,1768.0,85.0,0.0,1.66,0.09,0.64,371.2,-1.79,-2.85,-2.94,11.14,-654.2,527.78,5.6,0.11,-2.15,3.92,0.92,-5.31,23.58,1.1,-0.51,-56.05,77.06,6623.0,85.0,54.4,54.4,91.4,91.4,34.0,-6.59,-32.93,0.0,69.8,-82.59,-320.0,24.5,40.5,6.9,55.0,2932.0,9600.0,0.0,10937.0,317.4,298.9,355.0,326.6,24.58,23.1,25.3,24.54,99.7,99.65,99.68,99.65,19.74,17.13,0.0,5.54,-0.8,-1.8,0.0,4.3,79.6,70.4,77.9,73.1,85.9,82.0,80.6,76.6,83.0,79.2,79.0,74.9,81.0,77.6,78.3,74.2,-20.41,17.41,0.12,0.01,65.58,70.68,82.0,72.13,1.7813758727455584,11.163153050682403,86.06430894032138,50.41423933592634,-36.010171645190354,0
62,198.1,44.0531659875352,-78.6811791328972,28.1,-54.8,167.7,-11.3,1769.3,1769.0,85.1,0.0,1.59,0.09,0.47,370.8,-2.14,-4.4,-2.69,10.33,-653.08,527.95,5.6,0.11,-1.77,9.3,0.17,-21.09,23.57,1.55,-0.6,-64.3,72.93,6268.0,85.1,60.2,60.2,81.0,81.0,34.0,-10.14,-16.12,-3.5,7.9,-82.64,-320.0,25.9,37.8,15.2,54.4,4262.0,5400.0,2847.0,8537.0,314.4,309.9,347.8,332.4,24.58,23.1,25.3,24.55,99.7,99.65,99.68,99.65,20.49,17.8,7.77,7.61,-0.9,-1.3,20.1,1.8,79.6,70.4,77.9,73.2,86.0,82.4,80.6,76.7,83.2,79.5,79.1,75.1,81.2,78.0,78.3,74.5,-20.39,17.45,0.11,0.01,64.91,71.0,74.87,71.0,1.6604517457607737,13.68386500325313,82.82339347518355,46.81322234211439,-36.010171645190354,0
63,199.2,44.05316787611056,-78.68116852090226,-58.9,-437.1,157.0,-156.0,1770.5,1770.0,85.0,0.0,1.23,0.19,-0.07,381.4,-0.6,-4.39,-2.53,9.96,-651.9,528.16,5.6,0.12,-1.34,6.58,-0.2,3.81,23.51,2.2,-0.45,-61.8,70.77,6082.0,85.0,79.3,79.3,85.1,85.1,34.0,-5.58,-5.85,-5.9,-10.2,-82.69,-320.0,22.9,15.9,23.1,46.6,2488.0,2464.0,3120.0,6875.0,318.4,318.4,347.0,337.1,24.58,23.1,25.3,24.55,99.7,99.65,99.68,99.65,21.97,19.27,8.95,8.56,-0.6,-0.7,12.4,2.7,79.6,70.4,77.9,73.2,86.2,82.6,80.7,76.8,83.3,79.7,79.1,75.3,81.4,78.1,78.4,74.7,-20.45,17.7,0.1,0.02,64.24,70.64,70.63,70.91,1.2465552534885889,15.844475284893845,82.46329177580235,39.611188354490544,-3.601016424788384,0
64,200.4,44.05316994455026,-78.68115853843243,-236.6,-51.0,-84.6,-79.0,1771.6,1772.0,85.0,0.0,0.88,0.12,-0.39,389.5,-0.13,-4.19,-3.18,10.25,-650.79,528.39,5.6,0.12,-1.17,0.98,0.18,5.17,23.43,2.89,-0.26,-57.21,70.3,6042.0,85.0,89.0,89.0,85.5,85.5,34.0,-0.45,-5.76,-2.4,-12.2,-82.74,-320.0,11.1,13.4,18.9,42.6,333.0,2462.0,1575.0,6379.0,324.1,318.5,351.1,338.3,24.58,23.11,25.3,24.55,99.7,99.65,99.68,99.65,24.07,21.14,10.33,9.95,0.3,-0.2,12.2,2.1,79.6,70.4,77.9,73.2,86.2,82.7,80.7,76.9,83.4,79.8,79.1,75.4,81.4,78.2,78.4,74.9,-20.61,17.73,0.1,0.04,63.84,69.71,70.68,69.92,0.97,17.644983838702185,82.46329183270471,36.01017079165492,-7.202033987623793,0
65,201.6,44.053172282786434,-78.68114792643748,-67.6,58.4,36.1,-133.9,1772.8,1773.0,84.9,0.0,1.08,0.14,-0.17,390.1,-0.72,-4.91,-3.09,10.63,-649.61,528.65,5.6,0.12,-1.22,-2.76,0.49,5.36,23.32,3.49,-0.19,-51.43,71.48,6144.0,84.9,89.1,89.1,70.2,70.2,34.0,0.0,-13.0,-5.7,-9.4,-82.79,-320.0,7.7,16.3,20.7,36.0,0.0,4651.0,2834.0,5564.0,325.0,312.1,347.7,340.5,24.58,23.11,25.3,24.55,99.7,99.65,99.68,99.65,0.0,22.95,11.53,11.14,0.0,-0.7,10.2,5.6,79.6,70.4,77.9,73.2,86.2,83.0,80.8,77.0,83.3,80.0,79.2,75.6,81.4,78.4,78.5,75.1,-20.65,17.67,0.1,0.06,63.65,67.9,72.1,70.87,1.102225022397877,19.445492364059337,81.74308837703997,39.6111880699787,-14.40406911329518,0
66,202.8,44.05317480088693,-78.68113812383197,-19.4,42.0,-26.1,-75.1,1774.0,1774.0,84.8,0.0,1.2,0.08,-0.19,391.7,-0.25,-3.09,-3.29,-2.71,-648.52,528.93,5.6,0.12,-1.39,-4.33,0.77,2.99,23.21,3.95,-0.18,-46.82,72.08,6195.0,84.8,84.7,84.7,73.1,73.1,34.0,0.0,-16.18,-3.7,-17.2,-82.84,-320.0,6.7,18.4,19.4,32.2,0.0,5603.0,2152.0,5451.0,325.0,310.0,349.7,340.5,24.58,23.11,25.3,24.55,99.7,99.65,99.68,99.65,0.0,24.4,12.46,11.97,0.0,-1.0,12.6,6.4,79.6,70.5,77.9,73.2,86.1,83.4,80.9,77.2,83.3,80.4,79.3,75.8,81.3,78.7,78.5,75.3,-20.66,17.66,0.11,0.06,63.65,66.54,72.08,72.08,1.217579566188592,21.60610264570005,81.0228849213752,46.81322262662622,7.202033987623793,0
67,203.9,44.05317767871607,-78.68112769170135,190.4,257.6,13.5,114.9,1775.2,1775.0,84.2,0.0,1.75,-0.16,0.45,380.5,-0.23,-3.6,-3.4,-0.61,-647.36,529.25,5.5,0.12,-1.56,-2.92,1.04,6.76,23.02,4.1,-0.37,-45.37,68.32,5872.0,84.2,66.2,66.2,71.2,71.2,34.0,-4.24,-26.13,-3.1,-22.5,-82.89,-320.0,16.3,31.3,20.0,37.9,1909.0,8175.0,1726.0,6782.0,319.2,302.9,350.4,337.3,24.58,23.12,25.3,24.55,99.7,99.66,99.68,99.65,27.89,24.9,12.81,12.36,0.7,-2.0,9.4,3.4,79.6,70.5,77.9,73.2,86.2,83.8,80.9,77.4,83.4,80.8,79.3,75.9,81.4,79.1,78.6,75.5,-20.54,17.51,0.11,0.06,61.81,65.35,68.32,68.32,1.8140011025354972,24.12681462672196,82.46329177580235,39.61118835449053,-25.207119525707213,0
68,205.1,44.05318082634169,-78.6811175293672,79.2,127.3,-148.0,-0.0,1776.3,1776.0,83.4,0.0,1.61,-0.13,0.29,380.2,-1.4,-3.77,-2.98,-0.6,-646.23,529.6,5.5,0.12,-1.49,4.66,0.99,-7.42,22.76,4.32,-0.46,-50.56,71.36,6133.0,83.4,59.4,59.4,79.5,79.5,34.0,-8.41,-25.9,-2.4,-15.9,-82.94,-320.0,20.2,37.7,12.6,37.9,3589.0,8103.0,1575.0,5351.0,315.6,302.9,351.1,341.0,24.58,23.12,25.3,24.55,99.7,99.66,99.68,99.65,28.38,25.27,13.98,13.34,-0.1,-2.2,16.7,7.4,79.6,70.5,77.9,73.2,86.4,84.4,80.9,77.6,83.5,81.3,79.3,76.1,81.5,79.6,78.6,75.7,-20.46,17.45,0.12,0.06,60.4,64.65,72.08,70.63,1.6410667262485097,25.567221481149108,78.50217296880447,39.611188354490565,-54.01525661425012,0
69,206.3,44.05318406389947,-78.68110808649034,4.2,-99.4,112.8,-28.2,1777.5,1777.0,82.8,0.0,1.38,-0.07,0.04,382.7,-2.12,-3.01,-2.96,-0.62,-645.18,529.96,5.5,0.12,-1.09,8.33,0.97,2.6,22.52,4.57,-0.41,-50.78,68.5,5887.0,82.8,67.9,67.9,73.6,73.6,34.0,-2.64,-18.68,-5.3,-15.7,-82.99,-320.0,20.4,32.7,18.3,36.5,1488.0,6300.0,2722.0,5222.0,321.2,308.2,348.6,341.6,24.58,23.13,25.3,24.55,99.7,99.66,99.68,99.65,28.99,25.72,14.59,13.91,-0.3,-1.6,11.7,4.7,79.6,70.5,77.9,73.2,86.5,84.9,81.0,77.8,83.7,81.8,79.4,76.3,81.7,80.0,78.6,75.9,-20.48,17.51,0.11,0.06,59.44,64.29,68.5,68.5,1.3823530663329104,28.087933462171016,77.06176611437733,57.61627360806212,-7.202033987623935,0
70,207.4,44.05318784105022,-78.68109828388484,-197.0,-46.9,80.5,102.9,1778.6,1779.0,82.2,0.0,1.41,0.04,0.12,384.6,-0.59,-2.49,-3.43,-1.59,-644.09,530.38,5.5,0.12,-0.69,4.94,1.14,-1.37,22.32,4.78,-0.33,-42.36,67.98,5842.0,82.2,79.0,79.0,61.0,61.0,34.0,0.0,-16.24,-6.2,-22.8,-83.04,-320.0,10.6,30.3,22.3,41.7,0.0,5560.0,3074.0,6810.0,325.0,309.5,347.4,337.0,24.58,23.13,25.3,24.55,99.7,99.66,99.68,99.65,0.0,26.86,14.79,14.25,0.0,-1.3,11.1,5.3,79.6,70.6,77.8,73.2,86.5,85.4,81.1,78.0,83.6,82.2,79.5,76.6,81.7,80.4,78.7,76.1,-20.62,17.52,0.1,0.04,59.32,63.03,67.98,67.98,1.415662389130968,31.32884884195532,77.78196957004208,39.61118806997874,-28.80813651951925,0
71,208.5,44.05319188799744,-78.68108866114365,-31.8,-162.6,30.1,45.6,1779.8,1780.0,81.8,0.0,1.22,0.09,-0.11,389.6,-0.6,-2.4,-2.81,-1.26,-643.02,530.83,5.5,0.12,-0.59,-1.93,1.06,-3.04,22.2,4.83,-0.3,-31.3,66.53,5718.0,81.8,89.1,89.1,61.2,61.2,34.0,0.0,-11.73,-7.4,-16.7,-83.09,-320.0,9.0,22.2,23.8,44.0,0.0,4364.0,3390.0,5312.0,325.0,313.2,346.7,340.7,24.58,23.14,25.3,24.55,99.7,99.66,99.68,99.65,0.0,27.97,14.39,13.98,0.0,-1.2,10.0,5.0,79.6,70.6,77.8,73.2,86.4,85.7,81.3,78.3,83.6,82.5,79.6,76.8,81.6,80.7,78.8,76.4,-20.63,17.62,0.08,0.04,59.32,61.7,66.53,66.53,1.2282507887235408,32.04905226916889,74.18095246242541,25.20711981021897,-46.81322262662604,0
72,105.0,44.05372833333537,-78.68171090176278,-80.5,-197.9,81.4,57.9,3457.8,3458.0,122.2,0.0,1.44,0.35,-0.1,385.9,-2.37,-1.57,-3.65,-0.7,-712.21,590.48,5.9,0.06,-0.16,-3.76,0.54,-1.5,33.73,3.8,-0.41,-53.6,101.64,6813.0,122.2,84.5,84.5,69.3,69.3,34.0,0.0,5.65,-9.0,-23.9,-165.34,-26.0,8.4,21.9,22.3,49.4,0.0,4052.0,4486.0,7122.0,325.0,313.6,344.9,337.3,24.86,22.58,27.22,26.15,100.0,99.84,100.0,100.0,0.0,5.72,8.56,8.39,0.0,-0.2,9.8,4.6,81.4,67.1,89.9,83.2,104.6,78.7,109.0,96.9,100.2,75.6,107.3,94.3,97.8,74.3,106.2,92.6,-1.71,1.66,0.11,0.02,100.32,105.28,101.64,101.64,1.4852945835759317,122.79468338679936,21.60610264570005,-7.202034556647732,46.81322262662633,0
73,106.7,44.05371304486808,-78.68170802393365,-34.4,-35.0,-15.5,-206.4,3459.5,3460.0,122.3,0.0,1.08,0.19,-0.24,392.2,-3.23,-1.37,-2.2,-1.43,-711.89,588.78,5.9,0.06,-0.49,-7.11,0.44,-2.88,33.65,4.65,-0.48,-44.55,102.6,6878.0,122.3,83.8,83.8,78.3,78.3,34.0,0.0,-2.28,-1.0,-12.0,-165.39,-1.5,6.7,20.1,21.5,39.1,0.0,4736.0,692.0,4158.0,325.0,311.9,352.7,344.5,24.87,22.58,27.23,26.16,100.0,99.84,100.0,100.0,0.0,6.21,9.74,9.45,0.0,-0.4,11.0,5.4,81.4,67.2,89.9,83.2,104.5,78.8,109.0,97.1,100.1,75.7,107.4,94.5,97.7,74.4,106.2,92.8,-0.28,0.28,0.1,0.04,100.32,104.61,102.27,102.92,1.1225417586887358,118.83356457980148,23.0465095001272,-10.803050981435833,46.813222626626256,0
74,108.4,44.05369865572238,-78.6817051461045,174.7,114.3,-231.0,-186.5,3461.2,3461.0,122.1,0.0,1.49,-0.02,-0.14,389.6,-3.99,-2.42,-1.89,-0.87,-711.57,587.18,5.9,0.06,-0.65,0.5,0.3,-1.63,33.47,5.36,-0.46,-50.42,100.41,6731.0,122.1,67.8,67.8,90.7,90.7,34.0,8.21,9.31,-1.8,-11.1,-165.44,24.2,15.4,25.9,10.0,29.7,3043.0,7496.0,1227.0,3965.0,317.1,304.6,352.6,345.5,24.87,22.59,27.23,26.16,100.0,99.84,100.0,100.0,5.83,5.76,11.05,10.89,-0.2,-0.6,9.4,3.1,81.5,67.2,90.0,83.3,104.5,79.0,108.9,97.2,100.1,75.8,107.3,94.6,97.7,74.5,106.1,92.9,1.21,-1.19,0.12,0.06,100.62,104.91,100.38,100.44,1.4966963619919706,121.71437828865578,26.28742490836268,18.005085538083705,61.217290601873984,0
75,110.1,44.05368264779779,-78.68170145888593,-2.1,186.2,205.7,151.6,3462.9,3463.0,121.8,0.0,1.72,0.1,0.19,381.4,-3.61,-1.68,-2.27,-1.06,-711.16,585.4,5.9,0.07,-0.39,5.76,0.36,2.88,33.27,6.04,-0.39,-48.14,96.53,6471.0,121.8,66.2,66.2,66.5,66.5,34.0,1.7,39.07,-7.4,-18.5,-165.49,52.2,15.3,35.2,20.2,37.3,666.0,8080.0,3226.0,5691.0,323.3,303.3,347.4,340.4,24.88,22.59,27.24,26.17,100.0,99.84,100.0,100.0,5.48,5.25,12.22,11.96,-0.2,-0.3,5.6,1.3,81.5,67.2,90.0,83.3,104.4,79.1,109.0,97.5,100.1,75.9,107.3,94.8,97.6,74.6,106.2,93.1,2.83,-2.84,0.1,0.04,100.58,104.82,96.35,96.72,1.7333493589002764,120.63407313360985,29.1682385603146,-93.62644496874084,39.61118806997867,0
76,111.8,44.05366852844858,-78.6816978615995,-39.0,51.0,120.6,283.2,3464.6,3465.0,121.2,0.0,1.88,-0.05,0.21,374.6,-5.63,-1.52,-3.09,0.39,-710.76,583.83,5.9,0.07,-0.13,4.04,0.58,1.37,33.04,6.37,-0.43,-40.69,92.84,6224.0,121.2,64.9,64.9,59.0,59.0,34.0,4.36,50.74,-6.4,-28.4,-165.54,69.3,13.4,37.7,26.3,51.5,1207.0,8628.0,2970.0,8277.0,322.5,301.6,348.4,334.5,24.88,22.6,27.24,26.17,100.0,99.84,100.0,100.0,5.3,5.13,12.64,12.38,-0.1,-0.3,1.4,-1.6,81.5,67.2,90.0,83.3,104.4,79.3,109.1,97.8,100.0,76.1,107.4,95.1,97.6,74.8,106.2,93.4,3.86,-3.88,0.09,0.02,100.53,104.01,92.65,93.04,1.892353032602532,112.3517337917817,30.248543715360547,-64.81830788019792,46.813222626626185,0
77,113.4,44.05365458896369,-78.68169390458444,-22.9,57.3,59.8,54.2,3466.3,3466.0,120.4,0.0,1.79,-0.09,0.4,375.7,-4.96,-0.5,-1.87,-1.38,-710.32,582.28,5.9,0.07,0.05,2.17,0.5,-5.69,32.8,6.45,-0.53,-31.92,91.18,6112.0,120.4,66.6,66.6,55.7,55.7,34.0,0.0,61.54,-1.7,-28.0,-165.59,82.6,12.2,40.6,29.3,54.2,0.0,8322.0,863.0,7883.0,325.0,301.4,352.1,335.3,24.89,22.6,27.25,26.17,100.0,99.84,100.0,100.0,0.0,5.0,12.61,12.32,0.0,-0.2,-0.4,-1.9,81.6,67.3,90.1,83.3,104.3,79.4,109.2,98.1,100.0,76.2,107.5,95.5,97.5,74.9,106.3,93.7,4.64,-4.67,0.08,0.02,100.4,103.08,90.56,91.8,1.8363550854886428,114.15224234559004,33.84956082297722,72.02034215233354,79.22237670898106,0
78,115.1,44.05364001995368,-78.6816894079764,-52.1,-264.9,3.3,-184.2,3467.9,3468.0,119.7,0.0,1.53,-0.13,-0.14,384.4,-4.25,-1.07,-2.58,0.77,-709.82,580.66,6.0,0.07,0.07,-2.25,-0.04,-7.44,32.61,6.43,-0.44,-18.02,90.1,6040.0,119.7,81.6,81.6,58.0,58.0,34.0,0.0,36.1,-12.2,-19.6,-165.64,99.1,9.6,27.3,29.4,45.0,0.0,4705.0,4640.0,6380.0,325.0,311.9,344.0,339.8,24.9,22.61,27.25,26.18,100.0,99.84,100.0,100.0,0.0,4.65,12.03,11.97,0.0,-0.2,-1.0,-2.3,81.6,67.3,90.1,83.4,104.2,79.5,109.3,98.4,99.9,76.3,107.6,95.7,97.4,75.0,106.4,94.0,5.55,-5.73,0.09,0.04,100.4,101.97,89.88,90.32,1.5418819669481838,119.55376800701504,38.17078138625865,7.202034272135904,54.01525661425019,0
79,116.7,44.05362473148637,-78.6816843717754,-52.0,-141.1,-128.7,-211.6,3469.6,3470.0,119.1,0.0,1.04,-0.07,-0.38,394.3,-3.84,-0.92,-2.03,-1.27,-709.26,578.96,6.0,0.07,-0.25,-6.91,-0.3,-4.25,32.5,6.16,-0.43,-5.53,89.16,5977.0,119.1,85.6,85.6,74.9,74.9,34.0,0.0,60.44,-2.3,-10.7,-165.69,115.1,7.0,20.3,23.0,34.4,0.0,4787.0,1322.0,3770.0,325.0,311.5,352.1,345.7,24.9,22.61,27.26,26.18,100.0,99.84,100.0,100.0,0.0,3.83,11.04,11.1,0.0,-0.2,-1.9,-2.5,81.6,67.3,90.1,83.4,104.1,79.6,109.3,98.5,99.8,76.4,107.6,95.9,97.3,75.1,106.4,94.1,6.49,-6.76,0.11,0.07,100.4,101.19,89.16,89.16,1.109459327780879,114.87244577280364,39.25108648440224,-126.03559876658366,3.6010164247883125,0
80,118.4,44.053611331594446,-78.6816796053709,69.0,97.7,-70.2,-105.2,3471.2,3471.0,118.6,0.0,1.18,-0.06,-0.13,391.6,-3.59,-1.52,-1.65,-1.17,-708.73,577.47,6.0,0.07,-0.53,-3.84,-0.44,-0.39,32.44,5.66,-0.46,-1.3,88.71,5947.0,118.6,74.6,74.6,80.9,80.9,34.0,16.21,115.83,-0.9,-9.0,-165.74,121.9,10.5,25.2,19.5,29.1,1455.0,6354.0,535.0,3375.0,321.0,307.6,353.4,347.2,24.91,22.62,27.26,26.19,100.0,99.84,100.0,100.0,2.85,2.74,9.93,10.07,-0.1,-0.1,-2.6,-2.6,81.7,67.4,90.2,83.4,104.0,79.6,109.3,98.6,99.7,76.4,107.6,96.0,97.2,75.1,106.4,94.2,6.92,-7.24,0.1,0.07,100.75,100.87,88.71,88.71,1.1886547017532043,106.95020813035669,38.530883028737485,-54.0152566142504,21.606102531895388,0
81,120.0,44.05359802163468,-78.68167474903423,53.4,57.2,-47.1,5.2,3472.9,3473.0,118.1,0.0,1.35,-0.14,-0.08,389.0,-3.68,-2.07,-2.53,-1.49,-708.19,575.99,6.0,0.07,-0.57,0.13,-0.52,0.28,32.39,5.05,-0.41,4.19,88.89,5958.0,118.1,74.1,74.1,78.6,78.6,34.0,12.78,88.29,-7.2,-16.0,-165.79,114.6,13.1,28.0,17.1,29.4,1324.0,4848.0,3073.0,5109.0,321.9,311.2,347.7,342.5,24.91,22.62,27.27,26.19,100.0,99.84,100.0,100.0,2.27,2.12,8.63,8.93,-0.0,0.0,-2.6,-2.3,81.7,67.4,90.2,83.4,104.0,79.6,109.3,98.7,99.6,76.4,107.6,96.1,97.2,75.1,106.4,94.3,6.63,-6.93,0.1,0.07,100.77,100.42,88.88,88.88,1.3595955280891447,109.4709201113786,41.411696737591775,10.80305126594766,50.41424018946181,0
82,121.7,44.053583992217625,-78.68166926317244,-23.4,-59.6,78.8,163.7,3474.5,3474.0,117.5,0.0,1.35,-0.14,0.02,386.9,-4.56,-0.76,-2.94,-1.81,-707.58,574.43,6.0,0.07,-0.65,-3.62,-0.22,8.43,32.37,4.09,-0.45,15.85,89.24,5983.0,117.5,77.1,77.1,77.7,77.7,34.0,6.32,83.97,-1.5,-18.6,-165.84,91.8,12.0,25.0,21.1,37.6,710.0,4816.0,2348.0,6326.0,322.7,311.8,349.4,339.3,24.92,22.62,27.27,26.2,100.0,99.84,100.0,100.0,2.23,2.17,6.44,6.74,-0.0,-0.0,-2.5,-1.1,81.7,67.4,90.2,83.5,103.9,79.6,109.3,98.9,99.6,76.4,107.6,96.2,97.1,75.1,106.4,94.5,5.46,-5.66,0.09,0.05,100.83,99.32,89.24,89.24,1.357387196049823,108.03051325695144,43.57230704768367,-28.80813680403122,39.61118863900225,0
83,123.3,44.0535710419865,-78.68166386724279,97.1,35.0,-137.0,53.2,3476.1,3476.0,117.0,0.0,1.45,-0.17,0.08,384.9,-3.79,-1.71,-2.35,-0.39,-706.98,572.99,6.0,0.07,-0.83,-2.04,-0.01,3.96,32.36,2.95,-0.54,20.26,89.28,5985.0,117.0,68.4,68.4,87.4,87.4,34.0,30.83,125.67,7.6,41.9,-165.89,60.7,16.8,26.8,14.2,40.2,2537.0,6549.0,1379.0,5216.0,317.9,306.9,351.4,342.0,24.93,22.63,27.28,26.2,100.0,99.84,100.0,100.0,2.16,2.37,4.34,4.62,-0.1,-0.1,-2.8,-1.0,81.8,67.4,90.2,83.5,103.8,79.7,109.2,98.9,99.5,76.5,107.5,96.3,97.1,75.2,106.3,94.5,3.74,-3.83,0.12,0.04,100.92,98.72,89.28,89.28,1.4621217459568818,106.59010643097548,45.372815601492,7.202034272135762,46.81322205760253,0
84,124.9,44.05355737229809,-78.6816579317202,28.0,159.8,0.2,-86.6,3477.7,3478.0,116.6,0.0,1.25,-0.16,0.04,384.2,-2.89,-1.86,-2.18,-0.47,-706.32,571.47,6.0,0.07,-0.75,5.1,0.09,-0.34,32.32,1.72,-0.52,18.29,89.95,6030.0,116.6,63.7,63.7,81.7,81.7,34.0,16.62,151.78,5.4,91.7,-165.94,26.9,18.2,34.8,14.2,35.9,1521.0,7481.0,668.0,5079.0,320.8,303.7,353.2,342.7,24.93,22.63,27.28,26.21,100.0,99.84,100.0,100.0,2.0,2.17,2.29,2.57,0.1,-0.1,-2.0,-0.5,81.8,67.5,90.3,83.5,103.8,79.7,109.2,98.9,99.5,76.5,107.5,96.3,97.0,75.2,106.2,94.5,1.82,-1.81,0.12,0.05,100.49,98.61,89.95,89.95,1.260833057942248,108.75071668416504,48.25362925344392,-21.606102816407,28.80813651951918,0
85,126.5,44.053543882474,-78.68165181633327,-150.3,-165.7,183.7,19.6,3479.4,3479.0,116.2,0.0,0.78,-0.11,-0.11,386.6,-2.51,-1.83,-1.2,-0.75,-705.64,569.97,6.0,0.07,-0.49,2.59,-0.2,-9.43,32.26,0.72,-0.31,18.48,90.38,6059.0,116.2,78.9,78.9,71.2,71.2,34.0,0.0,75.96,14.8,102.9,-165.99,0.8,10.7,26.5,23.4,36.9,0.0,4364.0,2654.0,6868.0,325.0,312.9,348.8,338.1,24.94,22.64,27.29,26.21,100.0,99.84,100.0,100.0,0.0,2.0,0.7,1.0,0.0,-0.0,-0.7,-0.1,81.9,67.5,90.3,83.6,103.7,79.7,109.1,98.9,99.4,76.5,107.4,96.2,96.9,75.2,106.1,94.5,0.25,-0.25,0.09,0.06,100.25,98.06,91.03,89.74,0.795361553005927,104.42949614933478,48.25362925344392,-50.414239335926254,10.803050981435902,0
86,128.1,44.05353129197152,-78.68164588081068,12.1,-122.9,181.0,60.9,3481.0,3481.0,116.0,0.0,0.35,-0.14,-0.05,385.6,-2.16,-2.12,-1.73,-1.25,-704.98,568.57,6.0,0.08,-0.6,-6.08,-0.91,-15.74,32.2,0.04,-0.34,12.73,90.08,6038.0,116.0,81.1,81.1,66.4,66.4,34.0,17.94,48.1,-31.7,4.0,-166.04,-20.1,11.3,20.4,32.5,39.9,1602.0,2974.0,4341.0,3524.0,320.6,316.3,344.6,345.9,24.94,22.64,27.29,26.21,100.0,99.84,100.0,100.0,1.86,1.91,-0.26,-0.11,0.1,-0.1,-0.4,-0.2,81.9,67.5,90.3,83.6,103.6,79.7,109.0,98.8,99.3,76.5,107.3,96.2,96.9,75.2,106.1,94.4,-1.01,1.0,0.08,0.06,99.32,97.89,90.5,89.66,0.3802630668366308,103.7092927505724,49.33393435158751,18.00508553808342,28.808137088542978,0
