,Time,Distance,GPS Latitude,GPS Longitude,Damper Velocity (Calc) FL,Damper Velocity (Calc) FR,Damper Velocity (Calc) RL,Damper Velocity (Calc) RR,Corr Dist,Corr Dist (Unstretched),Corr Speed,ABS Active,ABS Enabled,AID Allow Tire Blankets,AID Auto Blip,AID Auto Clutch,AID Auto Shift,AID Fuel Rate,AID Ideal Line,AID Mech Damage,AID Stability,AID Tire Wear Rate,Air Density,Air Temp,Ballast,Best Lap Delta,Best Lap Time,Brake Bias,Brake Pos,Brake Temp FL,Brake Temp FR,Brake Temp RL,Brake Temp RR,CG Accel Lateral,CG Accel Longitudinal,CG Accel Vertical,CG Height,Camber FL,Camber FR,Camber RL,Camber RR,Car Coord X,Car Coord Y,Car Coord Z,Car Damage Front,Car Damage Left,Car Damage Rear,Car Damage Right,Car Pos Norm,Caster FL,Caster FR,Chassis Pitch Angle,Chassis Pitch Rate,Chassis Roll Angle,Chassis Roll Rate,Chassis Velocity X,Chassis Velocity Y,Chassis Velocity Z,Chassis Yaw Rate,Clutch Pos,DRS Active,DRS Available,Drive Train Speed,ERS Heat Charging,ERS Is Charging,ERS Max Energy,ERS Power Level,ERS Recovery Level,Engine Brake Setting,Engine Limiter,Engine RPM,Flags,Fuel Level,Gear,Ground Speed,HR Sample Clock,In Pit,KERS Charge,KERS Deployed Energy,KERS Input,KERS Max Energy,LR Sample Clock,Lap Invalidated,Lap Time,Lap Time2,Last Lap Time,Last Sector Time,MR Sample Clock,Max Fuel,Max Power,Max RPM,Max Sus Travel FL,Max Sus Travel FR,Max Sus Travel RL,Max Sus Travel RR,Max Torque,Max Turbo Boost,Num Tires Off Track,Penalties Enabled,Position,Raw Data Sample Rate,Ride Height FL,Ride Height FR,Ride Height RL,Ride Height RR,Road Temp,Self Align Torque FL,Self Align Torque FR,Self Align Torque RL,Self Align Torque RR,Session Lap Count,Session Time Left,Steering Angle,Surface Grip,Suspension Travel FL,Suspension Travel FR,Suspension Travel RL,Suspension Travel RR,TC Active,TC Enabled,Throttle Pos,Tire Dirt Level FL,Tire Dirt Level FR,Tire Dirt Level RL,Tire Dirt Level RR,Tire Load FL,Tire Load FR,Tire Load RL,Tire Load RR,Tire Loaded Radius FL,Tire Loaded Radius FR,Tire Loaded Radius RL,Tire Loaded Radius RR,Tire Pressure FL,Tire Pressure FR,Tire Pressure RL,Tire Pressure RR,Tire Radius FL,Tire Radius FR,Tire Radius RL,Tire Radius RR,Tire Rubber Grip FL,Tire Rubber Grip FR,Tire Rubber Grip RL,Tire Rubber Grip RR,Tire Slip Angle FL,Tire Slip Angle FR,Tire Slip Angle RL,Tire Slip Angle RR,Tire Slip Ratio FL,Tire Slip Ratio FR,Tire Slip Ratio RL,Tire Slip Ratio RR,Tire Temp Core FL,Tire Temp Core FR,Tire Temp Core RL,Tire Temp Core RR,Tire Temp Inner FL,Tire Temp Inner FR,Tire Temp Inner RL,Tire Temp Inner RR,Tire Temp Middle FL,Tire Temp Middle FR,Tire Temp Middle RL,Tire Temp Middle RR,Tire Temp Outer FL,Tire Temp Outer FR,Tire Temp Outer RL,Tire Temp Outer RR,Toe In FL,Toe In FR,Toe In RL,Toe In RR,Turbo Boost,Wheel Angular Speed FL,Wheel Angular Speed FR,Wheel Angular Speed RL,Wheel Angular Speed RR,Wind Direction,Wind Speed,CG Distance,Lateral Velocity,Longitudinal Velocity,Lateral Acceleration,Longitudinal Acceleration,level
957,47.8,591.4,44.05269645172474,-78.67937239579092,29.1,-23.2,24.4,-52.9,2162.7,2163.0,75.2,0.0,1.0,1.0,0.0,1.0,1.0,0.0,0.0,0.0,100.0,1.0,1.186,26.0,0.0,8.733,74.678,66.0,0.0,26.0,26.0,26.0,26.0,-1.0,-0.15,-0.01,387.2,-2.14,-2.75,-0.78,-2.23,-452.18,475.74,2.4,0.0,0.0,0.0,0.0,0.31,-7.49,-7.49,0.07,-2.08,-0.31,-0.12,20.88,-0.04,-0.24,22.95,100.0,0.0,0.0,58.47,0.0,0.0,0.0,0.0,0.0,0.0,0.0,5025.0,0.0,30.0,2.0,75.2,0.0,0.0,0.0,0.0,0.0,0.0,1.0,0.0,47.836,47.836,74.679,35.607,0.0,110.0,435.8,8750.0,0.0,0.0,110.0,110.0,433.0,0.0,0.0,0.0,1.0,166.7,74.9,74.9,76.4,76.4,34.0,-102.13,-18.27,-93.8,-17.8,1.0,-125.09,53.1,100.0,23.4,13.2,37.7,20.0,0.0,1.0,0.0,0.0,0.0,0.31,0.22,5455.0,1799.0,5090.0,1778.0,310.5,320.2,342.5,350.6,23.6,22.88,26.43,25.91,325.0,325.0,355.0,355.0,99.78,99.72,99.91,99.86,-1.73,-1.68,-1.68,-1.57,-0.1,-0.0,-0.5,-0.3,73.5,69.0,85.0,81.7,70.1,65.8,99.2,96.3,67.7,63.7,96.7,93.7,66.0,62.6,95.2,92.3,3.05,-3.15,0.06,0.09,0.0,65.08,63.07,59.33,57.6,356.7,7.7,1.011236866416568,30.248543715360547,68.41932504471684,-61.217290886385776,-46.81322319564998,0
958,47.85,592.5,44.0526931242348,-78.67938021988888,24.6,33.0,-35.9,-22.8,2163.7,2164.0,75.4,0.0,1.0,1.0,0.0,1.0,1.0,0.0,0.0,0.0,100.0,1.0,1.186,26.0,0.0,8.754,74.678,66.0,0.0,26.0,26.0,26.0,26.0,-0.86,0.56,0.06,386.8,-2.29,-2.68,-0.79,-2.17,-453.05,475.37,2.4,0.0,0.0,0.0,0.0,0.32,-7.49,-7.49,0.04,1.02,-0.25,2.54,20.96,-0.01,-0.27,24.51,100.0,0.0,0.0,63.06,0.0,0.0,0.0,0.0,0.0,0.0,0.0,5420.0,0.0,30.0,2.0,75.4,1.0,0.0,0.0,0.0,0.0,0.0,1.0,0.0,47.88,47.88,74.679,35.607,1.0,110.0,435.8,8750.0,0.0,0.0,110.0,110.0,433.0,0.0,0.0,0.0,1.0,333.3,73.3,73.3,77.2,77.2,34.0,-94.31,-21.61,-56.9,-4.8,1.0,-125.14,51.3,100.0,24.7,14.9,36.0,18.9,0.0,1.0,100.0,0.0,0.0,0.29,0.21,5248.0,2206.0,5021.0,2368.0,310.9,319.0,342.7,349.2,23.59,22.87,26.44,25.92,325.0,325.0,355.0,355.0,99.78,99.72,99.91,99.86,-1.51,-1.47,-1.67,-1.55,-0.1,-0.1,4.2,8.2,73.5,69.0,85.0,81.7,70.1,65.7,99.2,96.3,67.7,63.7,96.7,93.6,66.0,62.6,95.2,92.3,2.96,-3.05,0.07,0.09,0.0,65.44,63.3,63.06,63.06,356.7,7.7,1.0280077820717117,27.72783173433864,66.97891819028969,-14.404068544271382,43.21220563281415,0
959,47.9,593.6,44.05268952694838,-78.67938912317278,-30.3,-2.7,-15.3,39.5,2164.8,2165.0,76.6,0.0,1.0,1.0,0.0,1.0,1.0,0.0,0.0,0.0,100.0,1.0,1.186,26.0,0.0,8.754,74.678,66.0,0.0,26.0,26.0,26.0,26.0,-0.82,0.71,0.07,387.4,-2.34,-2.5,-0.9,-2.0,-454.04,474.97,2.4,0.0,0.0,0.0,0.0,0.32,-7.49,-7.49,0.2,3.8,-0.12,0.92,21.3,-0.09,-0.23,25.42,100.0,0.0,0.0,63.44,0.0,0.0,0.0,0.0,0.0,0.0,0.0,5452.0,0.0,30.0,2.0,76.6,0.0,0.0,0.0,0.0,0.0,0.0,1.0,0.0,47.931,47.931,74.679,35.607,0.0,110.0,435.8,8750.0,0.0,0.0,110.0,110.0,433.0,0.0,0.0,0.0,1.0,333.3,77.1,77.1,74.7,74.7,34.0,-59.69,-14.42,-69.1,-11.1,1.0,-125.19,47.5,100.0,23.1,14.8,35.2,20.8,0.0,1.0,100.0,0.0,0.0,0.28,0.19,3741.0,1663.0,5420.0,3518.0,315.0,320.4,341.7,346.3,23.59,22.87,26.44,25.92,325.0,325.0,355.0,355.0,99.78,99.72,99.91,99.86,-1.37,-1.35,-1.93,-1.79,-0.1,-0.2,4.1,7.8,73.4,68.9,85.0,81.7,70.1,65.7,99.2,96.3,67.7,63.6,96.7,93.6,66.0,62.5,95.2,92.3,2.76,-2.84,0.07,0.09,0.0,66.64,64.35,63.44,63.44,356.7,7.7,1.0869222603295967,28.80813686093341,72.74054560799826,-7.202034272135727,54.015257183273775,0
960,47.95,594.6,44.052685929661955,-78.67939838618533,-54.1,-37.7,28.0,54.8,2165.9,2166.0,77.9,0.0,1.0,1.0,0.0,1.0,1.0,0.0,0.0,0.0,100.0,1.0,1.186,26.0,0.0,8.775,74.678,66.0,0.0,26.0,26.0,26.0,26.0,-0.8,0.69,-0.02,387.8,-2.19,-2.55,-0.86,-2.09,-455.07,474.57,2.4,0.0,0.0,0.0,0.0,0.32,-7.49,-7.49,0.34,1.38,-0.17,-1.58,21.65,-0.13,-0.18,21.6,100.0,0.0,0.0,63.83,0.0,0.0,0.0,0.0,0.0,0.0,0.0,5486.0,0.0,30.0,2.0,77.9,1.0,0.0,0.0,0.0,0.0,0.0,1.0,0.0,47.981,47.981,74.679,35.607,1.0,110.0,435.8,8750.0,0.0,0.0,110.0,110.0,433.0,0.0,0.0,0.0,1.0,333.3,80.8,80.8,72.1,72.1,34.0,-53.33,-6.62,-88.6,-15.7,1.0,-125.24,40.1,100.0,20.4,12.9,36.6,23.6,0.0,1.0,98.4,0.0,0.0,0.26,0.17,3479.0,912.0,6002.0,3511.0,315.7,322.5,340.3,346.2,23.59,22.87,26.45,25.92,325.0,325.0,355.0,355.0,99.78,99.72,99.91,99.86,-1.33,-1.33,-1.78,-1.64,-0.1,-0.2,3.3,6.4,73.4,68.9,85.0,81.8,70.1,65.7,99.1,96.3,67.7,63.6,96.6,93.6,65.9,62.5,95.1,92.3,2.38,-2.44,0.07,0.08,0.0,67.48,65.43,63.83,63.83,356.7,7.7,1.0566456359631644,27.007628307125067,72.38044390861707,-28.80813680403108,10.803050981435973,0
961,48.0,595.7,44.052682782036335,-78.67940719953707,-18.2,-25.2,19.2,13.1,2167.0,2167.0,79.0,0.0,1.0,1.0,0.0,1.0,1.0,0.0,0.0,0.0,100.0,1.0,1.186,26.0,0.0,8.793,74.678,66.0,0.0,26.0,26.0,26.0,26.0,-0.75,0.59,-0.07,387.9,-2.14,-2.63,-0.92,-2.06,-456.05,474.22,2.5,0.0,0.0,0.0,0.0,0.32,-7.49,-7.49,0.34,-0.67,-0.19,0.47,21.95,-0.13,-0.18,18.35,100.0,0.0,0.0,64.22,0.0,0.0,0.0,0.0,0.0,0.0,0.0,5520.0,0.0,30.0,2.0,79.0,0.0,0.0,0.0,0.0,0.0,0.0,1.0,0.0,48.03,48.03,74.679,35.607,0.0,110.0,435.8,8750.0,0.0,0.0,110.0,110.0,433.0,0.0,0.0,0.0,1.0,333.3,80.4,80.4,72.7,72.7,34.0,-58.68,-8.58,-80.4,-15.0,1.0,-125.29,30.4,100.0,19.5,11.6,37.5,24.2,0.0,1.0,82.8,0.0,0.0,0.24,0.16,4029.0,1375.0,5498.0,3067.0,314.3,321.3,341.5,347.3,23.58,22.86,26.45,25.93,325.0,325.0,355.0,355.0,99.78,99.72,99.91,99.86,-1.1,-1.05,-1.58,-1.44,-0.1,-0.2,2.9,5.5,73.4,68.9,85.1,81.8,70.0,65.7,99.1,96.3,67.7,63.6,96.6,93.6,65.9,62.5,95.1,92.2,1.85,-1.89,0.06,0.08,0.0,68.21,66.47,64.22,64.22,356.7,7.7,0.9568176419778223,25.9273231805303,73.82085070614185,-7.202033987623864,50.41423905141457,0
962,48.05,596.8,44.05267945454639,-78.67941682227824,4.9,17.7,-14.4,7.6,2168.1,2168.0,80.0,0.0,1.0,1.0,0.0,1.0,1.0,0.0,0.0,0.0,100.0,1.0,1.186,26.0,0.0,8.793,74.678,66.0,0.0,26.0,26.0,26.0,26.0,-0.62,0.55,0.04,387.3,-2.13,-2.61,-0.97,-1.92,-457.12,473.85,2.5,0.0,0.0,0.0,0.0,0.32,-7.49,-7.49,0.33,-0.0,-0.12,1.71,22.23,-0.11,-0.2,14.77,100.0,0.0,0.0,64.58,0.0,0.0,0.0,0.0,0.0,0.0,0.0,5550.0,0.0,30.0,2.0,80.0,1.0,0.0,0.0,0.0,0.0,0.0,1.0,0.0,48.081,48.081,74.679,35.607,1.0,110.0,435.8,8750.0,0.0,0.0,110.0,110.0,433.0,0.0,0.0,0.0,1.0,333.3,78.8,78.8,73.1,73.1,34.0,-46.05,-6.29,-72.0,-17.7,1.0,-125.34,18.9,100.0,19.8,12.5,36.8,24.6,0.0,1.0,66.8,0.0,0.0,0.23,0.14,4118.0,2066.0,5092.0,3344.0,314.0,319.4,342.5,346.7,23.58,22.86,26.45,25.93,325.0,325.0,355.0,355.0,99.78,99.72,99.91,99.86,-0.66,-0.6,-1.35,-1.21,-0.1,-0.1,2.4,4.5,73.4,68.9,85.1,81.8,70.0,65.6,99.1,96.2,67.6,63.6,96.6,93.5,65.9,62.5,95.1,92.2,1.18,-1.21,0.07,0.08,0.0,68.94,67.54,64.58,64.58,356.7,7.7,0.8297590011563599,26.28742490836268,77.42186781375852,-10.803051265947694,21.606103100918972,0
963,48.1,598.0,44.05267621698861,-78.67942653495159,-5.0,20.6,-26.3,18.8,2169.2,2169.0,80.9,0.0,1.0,1.0,0.0,1.0,1.0,0.0,0.0,0.0,100.0,1.0,1.186,26.0,0.0,8.811,74.678,66.0,0.0,26.0,26.0,26.0,26.0,-0.44,0.45,0.02,387.5,-2.21,-2.62,-1.11,-1.85,-458.2,473.49,2.5,0.0,0.0,0.0,0.0,0.32,-7.49,-7.49,0.34,0.43,-0.03,1.56,22.47,-0.1,-0.21,9.51,100.0,0.0,0.0,64.75,0.0,0.0,0.0,0.0,0.0,0.0,0.0,5565.0,0.0,30.0,2.0,80.9,0.0,0.0,0.0,0.0,0.0,0.0,0.0,0.0,48.131,48.131,74.679,35.607,0.0,110.0,435.8,8750.0,0.0,0.0,110.0,110.0,433.0,0.0,0.0,0.0,1.0,333.3,78.8,78.8,73.4,73.4,34.0,-28.87,-0.23,-61.5,-16.0,1.0,-125.39,10.1,100.0,19.5,13.5,35.5,25.6,0.0,1.0,48.0,0.0,0.0,0.21,0.12,3638.0,2229.0,4805.0,3560.0,315.3,318.9,343.2,346.1,23.58,22.86,26.46,25.93,325.0,325.0,355.0,355.0,99.78,99.72,99.91,99.86,-0.37,-0.31,-1.01,-0.84,-0.0,-0.1,1.8,3.2,73.4,68.9,85.1,81.8,70.0,65.6,99.1,96.2,67.6,63.5,96.6,93.5,65.9,62.4,95.1,92.2,0.64,-0.65,0.07,0.08,0.0,69.46,68.56,64.75,64.75,356.7,7.7,0.6296824596572467,24.847018053935532,75.98146101623375,-18.005085822595248,-3.6010169938118963,0
964,48.15,599.1,44.05267324922731,-78.67943579796413,-7.7,18.0,-17.7,20.6,2170.3,2170.0,81.6,0.0,1.0,1.0,0.0,1.0,1.0,0.0,0.0,0.0,100.0,1.0,1.186,26.0,0.0,8.829,74.678,66.0,0.0,26.0,26.0,26.0,26.0,-0.31,0.36,0.05,387.2,-2.24,-2.61,-1.17,-1.72,-459.23,473.16,2.5,0.0,0.0,0.0,0.0,0.32,-7.49,-7.49,0.36,0.14,0.05,1.52,22.66,-0.06,-0.21,5.36,100.0,0.0,0.0,64.95,0.0,0.0,0.0,0.0,0.0,0.0,0.0,5582.0,0.0,30.0,2.0,81.6,1.0,0.0,0.0,0.0,0.0,0.0,0.0,0.0,48.18,48.18,74.679,35.607,1.0,110.0,435.8,8750.0,0.0,0.0,110.0,110.0,433.0,0.0,0.0,0.0,1.0,166.7,78.3,78.3,73.4,73.4,34.0,-23.71,3.38,-46.9,-8.8,1.0,-125.44,5.8,100.0,19.1,14.4,34.6,26.6,0.0,1.0,42.1,0.0,0.0,0.19,0.11,3503.0,2510.0,4628.0,3768.0,315.7,318.2,343.6,345.6,23.58,22.86,26.46,25.94,325.0,325.0,355.0,355.0,99.78,99.72,99.91,99.87,-0.27,-0.2,-0.66,-0.5,-0.0,-0.1,1.5,2.3,73.4,68.9,85.1,81.8,70.0,65.6,99.0,96.1,67.6,63.5,96.5,93.5,65.9,62.4,95.0,92.1,0.37,-0.37,0.07,0.07,0.0,69.86,69.36,64.95,64.95,356.7,7.7,0.47770283649984746,24.486916326103156,77.06176611437733,0.0,43.212205063790634,0
965,48.2,600.2,44.05267010160169,-78.67944578043395,-6.3,23.6,-25.4,20.9,2171.5,2171.0,82.3,0.0,1.0,1.0,0.0,1.0,1.0,0.0,0.0,0.0,100.0,1.0,1.186,26.0,0.0,8.829,74.678,66.0,0.0,26.0,26.0,26.0,26.0,-0.19,0.42,-0.01,387.1,-2.3,-2.51,-1.23,-1.66,-460.34,472.81,2.5,0.0,0.0,0.0,0.0,0.32,-7.49,-7.49,0.36,0.15,0.13,1.37,22.86,-0.03,-0.22,3.0,100.0,0.0,0.0,65.73,0.0,0.0,0.0,0.0,0.0,0.0,0.0,5649.0,0.0,30.0,2.0,82.3,0.0,0.0,0.0,0.0,0.0,0.0,0.0,0.0,48.231,48.231,74.679,35.607,0.0,110.0,435.8,8750.0,0.0,0.0,110.0,110.0,433.0,0.0,0.0,0.0,1.0,333.3,77.7,77.7,73.9,73.9,34.0,-20.13,4.94,-29.7,0.9,1.0,-125.49,4.5,100.0,18.8,15.6,33.4,27.6,0.0,1.0,48.8,0.0,0.0,0.17,0.09,3261.0,2799.0,4318.0,3852.0,316.3,317.4,344.4,345.4,23.57,22.85,26.46,25.94,325.0,325.0,355.0,355.0,99.78,99.72,99.91,99.87,-0.22,-0.15,-0.4,-0.23,-0.1,-0.1,1.9,2.4,73.3,68.8,85.1,81.9,69.9,65.5,99.0,96.1,67.6,63.5,96.5,93.4,65.8,62.4,95.0,92.1,0.27,-0.28,0.07,0.07,0.0,70.32,70.07,65.73,65.73,356.7,7.7,0.4610856753359401,24.847018053935532,80.30268152261282,-3.6010169938119674,14.404068544271382,0
966,48.25,601.4,44.05266704390823,-78.67945585283594,-10.6,16.1,-20.3,15.2,2172.6,2173.0,83.0,0.0,1.0,1.0,0.0,1.0,1.0,0.0,0.0,0.0,100.0,1.0,1.186,26.0,0.0,8.844,74.678,66.0,0.0,26.0,26.0,26.0,26.0,-0.12,0.47,0.06,387.0,-2.39,-2.49,-1.33,-1.63,-461.46,472.47,2.5,0.0,0.0,0.0,0.0,0.32,-7.49,-7.49,0.38,0.62,0.17,0.41,23.08,-0.01,-0.22,2.27,100.0,0.0,0.0,66.42,0.0,0.0,0.0,0.0,0.0,0.0,0.0,5709.0,0.0,30.0,2.0,83.0,1.0,0.0,0.0,0.0,0.0,0.0,0.0,0.0,48.281,48.281,74.679,35.607,1.0,110.0,435.8,8750.0,0.0,0.0,110.0,110.0,433.0,0.0,0.0,0.0,1.0,333.3,77.5,77.5,73.8,73.8,34.0,-19.25,6.57,-23.5,6.7,1.0,-125.54,4.5,100.0,18.3,16.4,32.3,28.4,0.0,1.0,53.1,0.0,0.0,0.16,0.07,3221.0,2936.0,4382.0,4026.0,316.4,317.0,344.3,345.0,23.57,22.85,26.47,25.94,325.0,325.0,355.0,355.0,99.78,99.72,99.91,99.87,-0.19,-0.12,-0.26,-0.1,-0.1,-0.1,2.1,2.4,73.3,68.8,85.2,81.9,69.9,65.5,98.9,96.1,67.5,63.4,96.4,93.4,65.8,62.4,94.9,92.0,0.27,-0.26,0.08,0.07,0.0,70.98,70.8,66.43,66.43,356.7,7.7,0.48877397639399744,24.12681462672196,78.50217296880447,-7.202034272135727,-7.202033987623935,0
967,48.3,602.6,44.05266407614693,-78.67946538564496,-7.0,3.9,0.9,16.5,2173.8,2174.0,83.8,0.0,1.0,1.0,0.0,1.0,1.0,0.0,0.0,0.0,100.0,1.0,1.186,26.0,0.0,8.856,74.678,66.0,0.0,26.0,26.0,26.0,26.0,-0.1,0.45,0.05,386.9,-2.45,-2.43,-1.34,-1.56,-462.52,472.14,2.6,0.0,0.0,0.0,0.0,0.32,-7.49,-7.49,0.42,0.71,0.18,-0.23,23.3,0.0,-0.22,2.08,100.0,0.0,0.0,67.02,0.0,0.0,0.0,0.0,0.0,0.0,0.0,5760.0,0.0,30.0,2.0,83.8,0.0,0.0,0.0,0.0,0.0,0.0,0.0,0.0,48.33,48.33,74.679,35.607,0.0,110.0,435.8,8750.0,0.0,0.0,110.0,110.0,433.0,0.0,0.0,0.0,1.0,333.3,77.8,77.8,73.3,73.3,34.0,-17.86,6.31,-20.9,8.7,1.0,-125.59,4.5,100.0,17.9,16.6,32.4,29.2,0.0,1.0,53.1,0.0,0.0,0.14,0.05,3105.0,2882.0,4386.0,4110.0,316.7,317.1,344.3,344.8,23.57,22.85,26.47,25.95,325.0,325.0,355.0,355.0,99.78,99.72,99.91,99.87,-0.17,-0.11,-0.2,-0.05,-0.1,-0.1,2.1,2.3,73.3,68.8,85.2,81.9,69.9,65.5,98.9,96.0,67.5,63.4,96.4,93.3,65.8,62.3,94.9,92.0,0.26,-0.27,0.08,0.07,0.0,71.63,71.47,67.02,67.02,356.7,7.7,0.46368092477478523,24.12681462672196,79.58247812385042,7.202034272135727,43.21220563281429,0
968,48.35,603.7,44.05266101845347,-78.67947572784344,-7.5,-3.2,-1.4,9.5,2175.0,2175.0,84.7,0.0,1.0,1.0,0.0,1.0,1.0,0.0,0.0,0.0,100.0,1.0,1.186,26.0,0.0,8.856,74.678,66.0,0.0,26.0,26.0,26.0,26.0,-0.09,0.47,-0.02,387.2,-2.42,-2.44,-1.39,-1.59,-463.67,471.8,2.6,0.0,0.0,0.0,0.0,0.32,-7.49,-7.49,0.45,0.54,0.16,-0.32,23.53,0.0,-0.21,2.08,100.0,0.0,0.0,67.82,0.0,0.0,0.0,0.0,0.0,0.0,0.0,5829.0,0.0,30.0,2.0,84.7,1.0,0.0,0.0,0.0,0.0,0.0,0.0,0.0,48.381,48.381,74.679,35.607,1.0,110.0,435.8,8750.0,0.0,0.0,110.0,110.0,433.0,0.0,0.0,0.0,1.0,166.7,78.5,78.5,73.4,73.4,34.0,-16.65,6.28,-19.7,9.1,1.0,-125.64,4.7,100.0,17.6,16.4,32.3,29.7,0.0,1.0,60.5,0.0,0.0,0.12,0.03,2942.0,2775.0,4339.0,4000.0,317.1,317.4,344.4,345.0,23.56,22.85,26.47,25.95,325.0,325.0,355.0,355.0,99.78,99.72,99.91,99.87,-0.17,-0.11,-0.19,-0.03,-0.1,-0.1,2.3,2.5,73.3,68.8,85.2,81.9,69.9,65.5,98.8,96.0,67.5,63.4,96.3,93.3,65.8,62.3,94.9,92.0,0.27,-0.28,0.08,0.07,0.0,72.32,72.14,67.82,67.82,356.7,7.7,0.47895720059312186,24.847018053935532,82.8233935320859,10.80305126594773,39.61118806997874,0
969,48.4,604.9,44.05265787082785,-78.6794860700419,-6.4,-2.3,3.6,6.1,2176.1,2176.0,85.5,0.0,1.0,1.0,0.0,1.0,1.0,0.0,0.0,0.0,100.0,1.0,1.186,26.0,0.0,8.871,74.678,66.0,0.0,26.0,26.0,26.0,26.0,-0.11,0.53,0.04,386.9,-2.46,-2.45,-1.43,-1.61,-464.82,471.45,2.6,0.0,0.0,0.0,0.0,0.32,-7.49,-7.49,0.47,0.48,0.14,-0.41,23.78,0.01,-0.21,2.35,100.0,0.0,0.0,68.7,0.0,0.0,0.0,0.0,0.0,0.0,0.0,5905.0,0.0,30.0,2.0,85.5,0.0,0.0,0.0,0.0,0.0,0.0,0.0,0.0,48.431,48.431,74.679,35.607,0.0,110.0,435.8,8750.0,0.0,0.0,110.0,110.0,433.0,0.0,0.0,0.0,1.0,166.7,78.4,78.4,72.8,72.8,34.0,-19.79,4.37,-20.3,9.3,1.0,-125.69,6.3,100.0,17.3,16.3,32.5,30.0,0.0,1.0,72.7,0.0,0.0,0.1,0.02,3120.0,2838.0,4493.0,4087.0,316.7,317.2,344.0,344.8,23.56,22.84,26.48,25.95,325.0,325.0,355.0,355.0,99.78,99.72,99.91,99.87,-0.22,-0.17,-0.19,-0.03,-0.1,-0.1,2.5,2.8,73.3,68.8,85.2,82.0,69.8,65.4,98.8,95.9,67.4,63.4,96.3,93.3,65.7,62.3,94.8,91.9,0.36,-0.36,0.07,0.07,0.0,73.11,72.92,68.7,68.7,356.7,7.7,0.5427706698044765,25.207119753316732,83.5435969308483,-3.6010169938118963,-7.20203455664759,0
970,48.45,606.1,44.05265472320223,-78.6794965921047,-3.3,-2.8,4.4,5.0,2177.3,2177.0,86.5,0.0,1.0,1.0,0.0,1.0,1.0,0.0,0.0,0.0,100.0,1.0,1.186,26.0,0.0,8.886,74.678,66.0,0.0,26.0,26.0,26.0,26.0,-0.14,0.56,0.02,387.1,-2.44,-2.4,-1.41,-1.58,-465.99,471.1,2.6,0.0,0.0,0.0,0.0,0.32,-7.49,-7.49,0.5,0.61,0.12,-0.62,24.05,0.01,-0.21,3.04,100.0,0.0,0.0,69.57,0.0,0.0,0.0,0.0,0.0,0.0,0.0,5979.0,0.0,30.0,2.0,86.5,1.0,0.0,0.0,0.0,0.0,0.0,0.0,0.0,48.483,48.483,74.679,35.607,1.0,110.0,435.8,8750.0,0.0,0.0,110.0,110.0,433.0,0.0,0.0,0.0,1.0,166.7,78.8,78.8,72.8,72.8,34.0,-21.81,1.34,-20.2,7.9,1.0,-125.74,8.6,100.0,17.1,16.2,32.7,30.2,0.0,1.0,75.0,0.0,0.0,0.08,0.0,3041.0,2717.0,4476.0,4093.0,316.9,317.6,344.0,344.8,23.56,22.84,26.48,25.96,325.0,325.0,355.0,355.0,99.78,99.72,99.91,99.87,-0.3,-0.24,-0.21,-0.05,-0.1,-0.1,2.6,3.0,73.2,68.7,85.2,82.0,69.8,65.4,98.7,95.9,67.4,63.3,96.3,93.2,65.7,62.3,94.8,91.9,0.49,-0.49,0.07,0.06,0.0,73.97,73.72,69.57,69.57,356.7,7.7,0.5775811631277461,24.486916354554342,82.10319007642114,-7.202033987623899,-3.6010175628356933,0
971,48.5,607.3,44.05265175544093,-78.67950657457452,-4.6,-5.6,4.5,1.0,2178.6,2179.0,87.4,0.0,1.0,1.0,0.0,1.0,1.0,0.0,0.0,0.0,100.0,1.0,1.186,26.0,0.0,8.901,74.678,66.0,0.0,26.0,26.0,26.0,26.0,-0.17,0.54,0.02,387.1,-2.41,-2.42,-1.42,-1.62,-467.1,470.77,2.6,0.0,0.0,0.0,0.0,0.32,-7.49,-7.49,0.53,0.38,0.08,-0.89,24.31,0.02,-0.21,3.98,100.0,0.0,0.0,70.25,0.0,0.0,0.0,0.0,0.0,0.0,0.0,6038.0,0.0,30.0,2.0,87.4,0.0,0.0,0.0,0.0,0.0,0.0,0.0,0.0,48.531,48.531,74.679,35.607,0.0,110.0,435.8,8750.0,0.0,0.0,110.0,110.0,433.0,0.0,0.0,0.0,1.0,333.3,79.2,79.2,72.5,72.5,34.0,-24.31,-1.23,-23.1,7.1,1.0,-125.79,11.3,100.0,16.9,15.9,32.9,30.3,0.0,1.0,73.8,0.0,0.0,0.06,0.0,3085.0,2576.0,4623.0,4064.0,316.8,318.0,343.7,344.9,23.56,22.84,26.48,25.96,325.0,325.0,355.0,355.0,99.78,99.72,99.91,99.87,-0.37,-0.32,-0.24,-0.07,-0.1,-0.1,2.5,3.0,73.2,68.7,85.3,82.0,69.8,65.4,98.7,95.9,67.4,63.3,96.2,93.2,65.7,62.2,94.7,91.9,0.64,-0.64,0.07,0.07,0.0,74.77,74.48,70.25,70.25,356.7,7.7,0.5664803615307419,24.486916354554342,83.18349517456473,-2.8451186295797015e-07,21.606102531895317,0
972,48.55,608.6,44.05264860781531,-78.67951736643379,1.6,-4.2,9.7,-1.5,2179.8,2180.0,88.4,0.0,1.0,1.0,0.0,1.0,1.0,0.0,0.0,0.0,100.0,1.0,1.186,26.0,0.0,8.901,74.678,66.0,0.0,26.0,26.0,26.0,26.0,-0.23,0.52,0.01,387.0,-2.43,-2.44,-1.38,-1.62,-468.3,470.42,2.7,0.0,0.0,0.0,0.0,0.32,-7.49,-7.49,0.54,0.16,0.03,-0.92,24.57,0.02,-0.21,5.18,100.0,0.0,0.0,70.97,0.0,0.0,0.0,0.0,0.0,0.0,0.0,6100.0,0.0,30.0,2.0,88.4,1.0,0.0,0.0,0.0,0.0,0.0,0.0,0.0,48.581,48.581,74.679,35.607,1.0,110.0,435.8,8750.0,0.0,0.0,110.0,110.0,433.0,0.0,0.0,0.0,1.0,333.3,79.0,79.0,72.4,72.4,34.0,-29.99,-4.19,-26.5,4.1,1.0,-125.84,14.3,100.0,16.9,15.7,33.4,30.2,0.0,1.0,71.1,0.0,0.0,0.05,0.0,3297.0,2569.0,4656.0,3957.0,316.2,318.0,343.6,345.1,23.55,22.83,26.49,25.96,325.0,325.0,355.0,355.0,99.78,99.72,99.91,99.87,-0.47,-0.43,-0.3,-0.14,-0.1,-0.1,2.4,3.0,73.2,68.7,85.3,82.0,69.7,65.3,98.7,95.8,67.4,63.3,96.2,93.2,65.6,62.2,94.7,91.8,0.8,-0.82,0.08,0.07,0.0,75.64,75.21,70.97,70.97,356.7,7.7,0.5686826883245173,24.486916326103156,84.26380032961067,-3.6010172783238303,18.005086107107076,0
973,48.6,609.8,44.05264564005401,-78.67952761870009,5.0,-4.2,4.9,-7.9,2181.0,2181.0,89.3,0.0,1.0,1.0,0.0,1.0,1.0,0.0,0.0,0.0,100.0,1.0,1.186,26.0,0.0,8.913,74.678,66.0,0.0,26.0,26.0,26.0,26.0,-0.28,0.51,-0.0,387.2,-2.4,-2.42,-1.34,-1.66,-469.44,470.09,2.7,0.0,0.0,0.0,0.0,0.33,-7.49,-7.49,0.55,0.21,-0.01,-1.19,24.82,0.02,-0.21,6.42,100.0,0.0,0.0,71.68,0.0,0.0,0.0,0.0,0.0,0.0,0.0,6160.0,0.0,30.0,2.0,89.3,0.0,0.0,0.0,0.0,0.0,0.0,1.0,0.0,48.63,48.63,74.679,35.607,0.0,110.0,435.8,8750.0,0.0,0.0,110.0,110.0,433.0,0.0,0.0,0.0,1.0,333.3,79.1,79.1,72.8,72.8,34.0,-33.86,-6.69,-29.0,1.9,1.0,-125.89,17.5,100.0,17.2,15.5,33.7,29.8,0.0,1.0,69.1,0.0,0.0,0.03,0.0,3365.0,2462.0,4624.0,3859.0,316.0,318.2,343.7,345.4,23.55,22.83,26.49,25.97,325.0,325.0,355.0,355.0,99.78,99.72,99.91,99.87,-0.57,-0.53,-0.35,-0.2,-0.1,-0.1,2.3,3.0,73.2,68.7,85.3,82.0,69.7,65.3,98.6,95.8,67.3,63.3,96.1,93.1,65.6,62.2,94.7,91.8,0.98,-1.0,0.07,0.07,0.0,76.46,75.9,71.68,71.68,356.7,7.7,0.5818075283115542,24.12681462672196,84.98400378527543,2.8451186295797015e-07,43.21220563281429,0
974,48.65,611.1,44.05264258236055,-78.67953859042369,6.1,-6.1,7.8,-8.9,2182.3,2182.0,90.2,0.0,1.0,1.0,0.0,1.0,1.0,0.0,0.0,0.0,100.0,1.0,1.186,26.0,0.0,8.931,74.678,66.0,0.0,26.0,26.0,26.0,26.0,-0.36,0.5,0.03,387.1,-2.37,-2.45,-1.32,-1.73,-470.66,469.75,2.7,0.0,0.0,0.0,0.0,0.33,-7.49,-7.49,0.56,0.13,-0.08,-1.31,25.07,0.02,-0.22,7.95,100.0,0.0,0.0,72.39,0.0,0.0,0.0,0.0,0.0,0.0,0.0,6222.0,0.0,30.0,2.0,90.2,1.0,0.0,0.0,0.0,0.0,0.0,1.0,0.0,48.681,48.681,74.679,35.607,1.0,110.0,435.8,8750.0,0.0,0.0,110.0,110.0,433.0,0.0,0.0,0.0,1.0,333.3,79.0,79.0,72.6,72.6,34.0,-40.26,-9.48,-34.9,-0.4,1.0,-125.94,21.1,100.0,17.5,15.2,34.1,29.4,0.0,1.0,68.4,0.0,0.0,0.01,0.0,3522.0,2368.0,4825.0,3800.0,315.6,318.5,343.2,345.5,23.55,22.83,26.49,25.97,325.0,325.0,355.0,355.0,99.78,99.72,99.91,99.87,-0.71,-0.67,-0.43,-0.28,-0.1,-0.1,2.2,3.1,73.2,68.7,85.3,82.1,69.7,65.3,98.6,95.7,67.3,63.2,96.1,93.1,65.6,62.2,94.6,91.7,1.2,-1.22,0.07,0.07,0.0,77.28,76.61,72.39,72.39,356.7,7.7,0.6168468205316454,24.486916354554342,88.5850208928921,-7.20203427213562,21.60610253189546,0
975,48.7,612.3,44.052639524667086,-78.6795497420116,9.6,-4.7,10.1,-11.4,2183.5,2184.0,91.1,0.0,1.0,1.0,0.0,1.0,1.0,0.0,0.0,0.0,100.0,1.0,1.186,26.0,0.0,8.931,74.678,66.0,0.0,26.0,26.0,26.0,26.0,-0.39,0.49,-0.0,387.1,-2.37,-2.5,-1.26,-1.73,-471.9,469.41,2.7,0.0,0.0,0.0,0.0,0.33,-7.49,-7.49,0.56,0.13,-0.13,-0.97,25.32,0.02,-0.22,9.48,100.0,0.0,0.0,73.17,0.0,0.0,0.0,0.0,0.0,0.0,0.0,6288.0,0.0,30.0,2.0,91.1,0.0,0.0,0.0,0.0,0.0,0.0,1.0,0.0,48.731,48.731,74.679,35.607,0.0,110.0,435.8,8750.0,0.0,0.0,110.0,110.0,433.0,0.0,0.0,0.0,1.0,333.3,78.9,78.9,72.8,72.8,34.0,-43.67,-9.96,-39.5,-3.0,1.0,-125.99,22.4,100.0,18.0,14.9,34.6,28.8,0.0,1.0,68.4,0.0,0.0,0.0,0.0,3642.0,2235.0,4853.0,3687.0,315.3,318.9,343.1,345.8,23.54,22.83,26.5,25.97,325.0,325.0,355.0,355.0,99.78,99.72,99.91,99.87,-0.77,-0.72,-0.52,-0.36,-0.1,-0.1,2.2,3.2,73.2,68.7,85.3,82.1,69.7,65.3,98.5,95.7,67.3,63.2,96.1,93.0,65.6,62.1,94.6,91.7,1.29,-1.32,0.07,0.07,0.0,78.14,77.32,73.17,73.17,356.7,7.7,0.6262587324740471,23.406611199508397,87.14461403846498,-14.404068544271418,-3.601017562835551,0
976,48.75,613.6,44.05263673677011,-78.67956035400655,4.3,-5.5,4.4,-7.6,2184.8,2185.0,92.0,0.0,1.0,1.0,0.0,1.0,1.0,0.0,0.0,0.0,100.0,1.0,1.186,26.0,0.0,8.943,74.678,66.0,0.0,26.0,26.0,26.0,26.0,-0.42,0.5,-0.01,387.2,-2.33,-2.49,-1.22,-1.77,-473.08,469.1,2.8,0.0,0.0,0.0,0.0,0.33,-7.49,-7.49,0.57,0.2,-0.16,-0.58,25.56,-0.0,-0.22,10.23,100.0,0.0,0.0,73.87,0.0,0.0,0.0,0.0,0.0,0.0,0.0,6349.0,0.0,30.0,2.0,92.0,1.0,0.0,0.0,0.0,0.0,0.0,1.0,0.0,48.78,48.78,74.679,35.607,1.0,110.0,435.8,8750.0,0.0,0.0,110.0,110.0,433.0,0.0,0.0,0.0,1.0,333.3,79.0,79.0,72.9,72.9,34.0,-43.02,-9.2,-43.3,-5.5,1.0,-126.04,21.6,100.0,18.2,14.7,34.8,28.4,0.0,1.0,68.4,0.0,0.0,0.0,0.0,3656.0,2181.0,4861.0,3694.0,315.2,319.0,343.1,345.8,23.54,22.82,26.5,25.98,325.0,325.0,355.0,355.0,99.78,99.72,99.91,99.87,-0.74,-0.7,-0.61,-0.45,-0.1,-0.1,2.2,3.4,73.1,68.6,85.4,82.1,69.7,65.3,98.5,95.7,67.3,63.2,96.0,93.0,65.6,62.1,94.5,91.7,1.27,-1.28,0.07,0.07,0.0,78.9,78.0,73.87,73.87,356.7,7.7,0.6530696746902278,23.0465095001272,88.22491913660855,0.0,50.41423962043808,0
977,48.8,614.9,44.05263376900881,-78.67957177539094,4.1,-4.4,5.5,0.3,2186.1,2186.0,92.9,0.0,1.0,1.0,0.0,1.0,1.0,0.0,0.0,0.0,100.0,1.0,1.186,26.0,0.0,8.958,74.678,66.0,0.0,26.0,26.0,26.0,26.0,-0.42,0.5,0.03,387.1,-2.33,-2.53,-1.24,-1.8,-474.35,468.77,2.8,0.0,0.0,0.0,0.0,0.33,-7.49,-7.49,0.58,0.19,-0.18,-0.28,25.81,-0.03,-0.22,10.22,100.0,0.0,0.0,74.58,0.0,0.0,0.0,0.0,0.0,0.0,0.0,6410.0,0.0,30.0,2.0,92.9,0.0,0.0,0.0,0.0,0.0,0.0,1.0,0.0,48.831,48.831,74.679,35.607,0.0,110.0,435.8,8750.0,0.0,0.0,110.0,110.0,433.0,0.0,0.0,0.0,1.0,333.3,78.8,78.8,72.7,72.7,34.0,-41.46,-7.82,-47.3,-7.2,1.0,-126.09,18.9,100.0,18.4,14.4,35.1,28.4,0.0,1.0,68.8,0.0,0.0,0.0,0.0,3713.0,2253.0,4913.0,3703.0,315.1,318.8,343.0,345.8,23.54,22.82,26.5,25.98,325.0,325.0,355.0,355.0,99.78,99.72,99.91,99.87,-0.67,-0.63,-0.67,-0.51,-0.1,-0.1,2.1,3.3,73.1,68.6,85.4,82.1,69.6,65.2,98.5,95.6,67.3,63.2,96.0,93.0,65.5,62.1,94.5,91.6,1.12,-1.14,0.07,0.07,0.0,79.69,78.75,74.58,74.58,356.7,7.7,0.6536818798161687,23.406611199508397,92.18603800050879,-10.803051550459521,21.606103100919114,0
978,48.85,616.2,44.052630891179675,-78.67958337663967,1.5,-2.5,2.3,1.2,2187.4,2187.0,93.8,0.0,1.0,1.0,0.0,1.0,1.0,0.0,0.0,0.0,100.0,1.0,1.186,26.0,0.0,8.97,74.678,66.0,0.0,26.0,26.0,26.0,26.0,-0.39,0.51,0.0,387.1,-2.3,-2.53,-1.23,-1.77,-475.64,468.45,2.8,0.0,0.0,0.0,0.0,0.33,-7.49,-7.49,0.6,0.3,-0.17,0.17,26.06,-0.05,-0.23,9.36,100.0,0.0,0.0,75.31,0.0,0.0,0.0,0.0,0.0,0.0,0.0,6473.0,0.0,30.0,2.0,93.8,1.0,0.0,0.0,0.0,0.0,0.0,1.0,0.0,48.881,48.881,74.679,35.607,1.0,110.0,435.8,8750.0,0.0,0.0,110.0,110.0,433.0,0.0,0.0,0.0,1.0,333.3,79.0,79.0,72.8,72.8,34.0,-36.43,-5.25,-46.6,-8.1,1.0,-126.14,15.2,100.0,18.5,14.3,35.2,28.5,0.0,1.0,68.8,0.0,0.0,0.0,0.0,3633.0,2240.0,4834.0,3730.0,315.3,318.9,343.2,345.7,23.54,22.82,26.51,25.98,325.0,325.0,355.0,355.0,99.78,99.72,99.91,99.87,-0.56,-0.51,-0.68,-0.53,-0.1,-0.1,2.2,3.3,73.1,68.6,85.4,82.1,69.6,65.2,98.4,95.6,67.2,63.1,95.9,92.9,65.5,62.1,94.5,91.6,0.91,-0.93,0.07,0.07,0.0,80.44,79.57,75.31,75.31,356.7,7.7,0.6420280367709809,21.96620434508125,90.38552944670046,-21.606102531895388,-10.803051550459344,0
979,48.9,617.5,44.052628283147016,-78.67959434836325,-3.0,-1.6,-1.5,5.0,2188.7,2189.0,94.6,0.0,1.0,1.0,0.0,1.0,1.0,0.0,0.0,0.0,100.0,1.0,1.186,26.0,0.0,8.97,74.678,66.0,0.0,26.0,26.0,26.0,26.0,-0.36,0.51,0.02,387.1,-2.27,-2.55,-1.27,-1.76,-476.86,468.16,2.8,0.0,0.0,0.0,0.0,0.33,-7.49,-7.49,0.61,0.2,-0.16,0.25,26.3,-0.07,-0.22,8.0,100.0,0.0,0.0,75.97,0.0,0.0,0.0,0.0,0.0,0.0,0.0,6529.0,0.0,30.0,2.0,94.6,0.0,0.0,0.0,0.0,0.0,0.0,1.0,0.0,48.93,48.93,74.679,35.607,0.0,110.0,435.8,8750.0,0.0,0.0,110.0,110.0,433.0,0.0,0.0,0.0,1.0,333.3,79.1,79.1,72.6,72.6,34.0,-31.75,-3.21,-45.3,-7.4,1.0,-126.19,11.7,100.0,18.3,14.2,35.1,28.8,0.0,1.0,69.9,0.0,0.0,0.0,0.0,3528.0,2308.0,4837.0,3856.0,315.6,318.7,343.2,345.4,23.53,22.81,26.51,25.99,325.0,325.0,355.0,355.0,99.78,99.72,99.91,99.87,-0.47,-0.42,-0.65,-0.49,-0.1,-0.1,2.2,3.2,73.1,68.6,85.4,82.2,69.6,65.2,98.4,95.6,67.2,63.1,95.9,92.9,65.5,62.0,94.4,91.6,0.71,-0.72,0.07,0.07,0.0,81.09,80.37,75.96,75.96,356.7,7.7,0.6245798587850876,21.24600094631886,91.10573284546285,2.8451182743083336e-07,46.81322262662633,0
980,48.95,618.8,44.0526255851822,-78.6796061294763,-1.8,2.7,-1.8,7.4,2190.1,2190.0,95.5,0.0,1.0,1.0,0.0,1.0,1.0,0.0,0.0,0.0,100.0,1.0,1.186,26.0,0.0,8.982,74.678,66.0,0.0,26.0,26.0,26.0,26.0,-0.31,0.51,0.02,387.0,-2.29,-2.56,-1.28,-1.72,-478.17,467.86,2.9,0.0,0.0,0.0,0.0,0.33,-7.49,-7.49,0.62,0.17,-0.14,0.53,26.55,-0.07,-0.23,6.45,100.0,0.0,0.0,76.7,0.0,0.0,0.0,0.0,0.0,0.0,0.0,6592.0,0.0,30.0,2.0,95.5,1.0,0.0,0.0,0.0,0.0,0.0,1.0,0.0,48.981,48.981,74.679,35.607,1.0,110.0,435.8,8750.0,0.0,0.0,110.0,110.0,433.0,0.0,0.0,0.0,1.0,333.3,79.0,79.0,72.5,72.5,34.0,-29.03,-1.44,-40.5,-5.4,1.0,-126.24,8.9,100.0,18.2,14.4,35.0,29.1,0.0,1.0,71.9,0.0,0.0,0.0,0.0,3514.0,2414.0,4765.0,3884.0,315.6,318.4,343.3,345.3,23.53,22.81,26.51,25.99,325.0,325.0,355.0,355.0,99.78,99.72,99.91,99.87,-0.39,-0.35,-0.58,-0.42,-0.1,-0.1,2.3,3.1,73.1,68.6,85.5,82.2,69.6,65.1,98.3,95.5,67.2,63.1,95.9,92.9,65.5,62.0,94.4,91.5,0.54,-0.55,0.07,0.08,0.0,81.79,81.2,76.7,76.7,356.7,7.7,0.5971599450733447,21.96620437353243,95.06685170936309,0.0,21.606102531895175,0
981,49.0,620.2,44.05262279728522,-78.67961809045366,-3.4,5.2,-9.0,7.0,2191.4,2191.0,96.5,0.0,1.0,1.0,0.0,1.0,1.0,0.0,0.0,0.0,100.0,1.0,1.186,26.0,0.0,8.997,74.678,66.0,0.0,26.0,26.0,26.0,26.0,-0.25,0.51,-0.01,387.1,-2.28,-2.52,-1.31,-1.7,-479.5,467.55,2.9,0.0,0.0,0.0,0.0,0.33,-7.49,-7.49,0.63,0.23,-0.1,0.6,26.81,-0.06,-0.23,5.13,100.0,0.0,0.0,77.44,0.0,0.0,0.0,0.0,0.0,0.0,0.0,6655.0,0.0,30.0,2.0,96.5,0.0,0.0,0.0,0.0,0.0,0.0,1.0,0.0,49.031,49.031,74.679,35.607,0.0,110.0,435.8,8750.0,0.0,0.0,110.0,110.0,433.0,0.0,0.0,0.0,1.0,333.3,79.1,79.1,72.6,72.6,34.0,-25.68,-0.09,-36.1,-2.9,1.0,-126.29,7.6,100.0,18.0,14.6,34.6,29.5,0.0,1.0,72.7,0.0,0.0,0.0,0.0,3325.0,2485.0,4676.0,3972.0,316.1,318.2,343.6,345.1,23.53,22.81,26.52,25.99,325.0,325.0,355.0,355.0,99.78,99.72,99.91,99.87,-0.35,-0.29,-0.51,-0.34,-0.1,-0.1,2.4,3.0,73.0,68.6,85.5,82.2,69.5,65.1,98.3,95.5,67.2,63.1,95.8,92.8,65.5,62.0,94.4,91.5,0.45,-0.45,0.08,0.07,0.0,82.53,82.06,77.44,77.44,356.7,7.7,0.5680668974689512,21.24600094631886,93.26634309865237,-7.202034272135727,21.60610196287152,0
982,49.05,621.5,44.05262027918472,-78.67962942190589,-4.2,4.5,-2.8,7.9,2192.7,2193.0,97.3,0.0,1.0,1.0,0.0,1.0,1.0,0.0,0.0,0.0,100.0,1.0,1.186,26.0,0.0,9.006,74.678,66.0,0.0,26.0,26.0,26.0,26.0,-0.24,0.51,0.01,387.0,-2.31,-2.51,-1.35,-1.69,-480.76,467.27,2.9,0.0,0.0,0.0,0.0,0.33,-7.49,-7.49,0.64,0.12,-0.08,0.14,27.06,-0.05,-0.23,4.43,100.0,0.0,0.0,78.11,0.0,0.0,0.0,0.0,0.0,0.0,0.0,6713.0,0.0,30.0,2.0,97.3,1.0,0.0,0.0,0.0,0.0,0.0,1.0,0.0,49.08,49.08,74.679,35.607,1.0,110.0,435.8,8750.0,0.0,0.0,110.0,110.0,433.0,0.0,0.0,0.0,1.0,333.3,78.9,78.9,72.4,72.4,34.0,-26.36,-0.58,-32.5,-0.5,1.0,-126.34,7.6,100.0,17.8,14.9,34.4,29.9,0.0,1.0,73.8,0.0,0.0,0.0,0.0,3353.0,2555.0,4687.0,4027.0,316.0,318.0,343.5,345.0,23.53,22.81,26.52,26.0,325.0,325.0,355.0,355.0,99.78,99.72,99.91,99.87,-0.36,-0.31,-0.43,-0.27,-0.1,-0.1,2.4,2.9,73.0,68.5,85.5,82.2,69.5,65.1,98.3,95.5,67.1,63.0,95.8,92.8,65.4,62.0,94.3,91.5,0.45,-0.45,0.07,0.08,0.0,83.24,82.84,78.11,78.11,356.7,7.7,0.5637375275782162,21.24600094631886,97.22746190565024,3.6010169938119674,79.22237670898113,0
983,49.1,622.9,44.05261749128774,-78.67964237213701,-1.8,5.0,-2.2,5.9,2194.1,2194.0,98.3,0.0,1.0,1.0,0.0,1.0,1.0,0.0,0.0,0.0,100.0,1.0,1.186,26.0,0.0,9.018,74.678,66.0,0.0,26.0,26.0,26.0,26.0,-0.23,0.52,0.01,386.9,-2.32,-2.49,-1.35,-1.66,-482.2,466.96,2.9,0.0,0.0,0.0,0.0,0.33,-7.49,-7.49,0.65,0.24,-0.07,0.16,27.33,-0.04,-0.23,4.25,100.0,0.0,0.0,78.92,0.0,0.0,0.0,0.0,0.0,0.0,0.0,6783.0,0.0,30.0,2.0,98.3,0.0,0.0,0.0,0.0,0.0,0.0,0.0,0.0,49.134,49.134,74.679,35.607,0.0,110.0,435.8,8750.0,0.0,0.0,110.0,110.0,433.0,0.0,0.0,0.0,1.0,166.7,78.8,78.8,72.4,72.4,34.0,-26.48,-0.6,-30.2,1.1,1.0,-126.39,7.9,100.0,17.7,15.1,34.3,30.2,0.0,1.0,74.2,0.0,0.0,0.0,0.0,3353.0,2586.0,4637.0,4021.0,316.0,317.9,343.7,345.0,23.52,22.8,26.52,26.0,325.0,325.0,355.0,355.0,99.78,99.72,99.91,99.87,-0.36,-0.31,-0.39,-0.22,-0.1,-0.1,2.4,2.9,73.0,68.5,85.5,82.2,69.5,65.1,98.2,95.4,67.1,63.0,95.8,92.8,65.4,61.9,94.3,91.4,0.46,-0.47,0.08,0.06,0.0,84.09,83.69,78.92,78.92,356.7,7.7,0.5686826883245173,21.606102645700055,101.18858076955048,-10.803051550459486,-10.803050981435831,0
984,49.15,624.3,44.05261488325509,-78.67965469284302,-3.2,0.7,-1.2,4.3,2195.5,2195.0,99.3,0.0,1.0,1.0,0.0,1.0,1.0,0.0,0.0,0.0,100.0,1.0,1.186,26.0,0.0,9.027,74.678,66.0,0.0,26.0,26.0,26.0,26.0,-0.21,0.53,0.02,387.0,-2.34,-2.49,-1.35,-1.67,-483.57,466.67,3.0,0.0,0.0,0.0,0.0,0.33,-7.49,-7.49,0.66,0.24,-0.07,-0.05,27.59,-0.03,-0.23,4.34,100.0,0.0,0.0,79.64,0.0,0.0,0.0,0.0,0.0,0.0,0.0,6844.0,0.0,30.0,2.0,99.3,1.0,0.0,0.0,0.0,0.0,0.0,0.0,0.0,49.186,49.186,74.679,35.607,1.0,110.0,435.8,8750.0,0.0,0.0,110.0,110.0,433.0,0.0,0.0,0.0,1.0,166.7,79.0,79.0,72.2,72.2,34.0,-26.07,-0.66,-29.6,1.7,1.0,-126.44,8.3,100.0,17.6,15.2,34.2,30.4,0.0,1.0,74.2,0.0,0.0,0.0,0.0,3305.0,2551.0,4695.0,4075.0,316.2,318.0,343.5,344.9,23.52,22.8,26.53,26.0,325.0,325.0,355.0,355.0,99.78,99.72,99.91,99.87,-0.36,-0.31,-0.36,-0.21,-0.1,-0.1,2.4,2.9,73.0,68.5,85.5,82.3,69.5,65.0,98.2,95.4,67.1,63.0,95.7,92.7,65.4,61.9,94.2,91.4,0.49,-0.49,0.07,0.07,0.0,84.87,84.5,79.64,79.64,356.7,7.7,0.5704384278780664,20.16569579127291,96.14715680750666,-21.606102531895353,-72.02034272135734,0
985,49.2,625.7,44.05261245508675,-78.67966638402389,-1.1,0.7,2.2,4.6,2196.9,2197.0,100.1,0.0,1.0,1.0,0.0,1.0,1.0,0.0,0.0,0.0,100.0,1.0,1.186,26.0,0.0,9.027,74.678,66.0,0.0,26.0,26.0,26.0,26.0,-0.22,0.51,0.02,386.9,-2.34,-2.48,-1.35,-1.65,-484.87,466.4,3.0,0.0,0.0,0.0,0.0,0.33,-7.49,-7.49,0.67,0.17,-0.07,-0.03,27.83,-0.03,-0.23,4.44,100.0,0.0,0.0,80.31,0.0,0.0,0.0,0.0,0.0,0.0,0.0,6903.0,0.0,30.0,2.0,100.1,0.0,0.0,0.0,0.0,0.0,0.0,0.0,0.0,49.233,49.233,74.679,35.607,0.0,110.0,435.8,8750.0,0.0,0.0,110.0,110.0,433.0,0.0,0.0,0.0,1.0,166.7,78.9,78.9,72.1,72.1,34.0,-25.97,-0.56,-29.2,2.0,1.0,-126.49,8.1,100.0,17.5,15.2,34.4,30.6,0.0,1.0,74.2,0.0,0.0,0.0,0.0,3349.0,2604.0,4670.0,4074.0,316.0,317.9,343.6,344.9,23.52,22.8,26.53,26.01,325.0,325.0,355.0,355.0,99.78,99.72,99.91,99.87,-0.35,-0.3,-0.36,-0.2,-0.1,-0.1,2.4,2.8,73.0,68.5,85.6,82.3,69.4,65.0,98.1,95.3,67.1,63.0,95.7,92.7,65.4,61.9,94.2,91.4,0.48,-0.49,0.07,0.07,0.0,85.61,85.23,80.32,80.32,356.7,7.7,0.5557877292636102,19.44549239251052,93.98654649741475,2.845117919036966e-07,18.00508553808328,0
986,49.25,627.1,44.052610026918416,-78.67967816513692,-0.7,0.4,-1.2,2.1,2198.3,2198.0,101.0,0.0,1.0,1.0,0.0,1.0,1.0,0.0,0.0,0.0,100.0,1.0,1.186,26.0,0.0,9.039,74.678,66.0,0.0,26.0,26.0,26.0,26.0,-0.2,0.5,0.01,386.9,-2.34,-2.5,-1.36,-1.65,-486.18,466.13,3.0,0.0,0.0,0.0,0.0,0.34,-7.49,-7.49,0.68,0.22,-0.06,0.08,28.07,-0.03,-0.23,4.34,100.0,0.0,0.0,81.03,0.0,0.0,0.0,0.0,0.0,0.0,0.0,6964.0,0.0,30.0,2.0,101.0,1.0,0.0,0.0,0.0,0.0,0.0,0.0,0.0,49.281,49.281,74.679,35.607,1.0,110.0,435.8,8750.0,0.0,0.0,110.0,110.0,433.0,0.0,0.0,0.0,1.0,166.7,79.0,79.0,72.2,72.2,34.0,-24.2,1.06,-29.1,1.7,1.0,-126.54,7.1,100.0,17.5,15.2,34.3,30.7,0.0,1.0,74.2,0.0,0.0,0.0,0.0,3317.0,2591.0,4629.0,4042.0,316.1,317.9,343.7,345.0,23.51,22.79,26.53,26.01,325.0,325.0,355.0,355.0,99.78,99.72,99.91,99.87,-0.31,-0.26,-0.36,-0.21,-0.1,-0.1,2.4,2.9,73.0,68.5,85.6,82.3,69.4,65.0,98.1,95.3,67.0,62.9,95.7,92.7,65.3,61.9,94.2,91.3,0.42,-0.43,0.07,0.06,0.0,86.36,85.95,81.03,81.03,356.7,7.7,0.5386093203798092,20.16569581972409,97.94766536131499,3.601016993812003,50.41424018946216,0
987,49.3,628.5,44.052607418885756,-78.67969084557157,-1.6,0.1,0.3,3.8,2199.7,2200.0,101.9,0.0,1.0,1.0,0.0,1.0,1.0,0.0,0.0,0.0,100.0,1.0,1.186,26.0,0.0,9.051,74.678,66.0,0.0,26.0,26.0,26.0,26.0,-0.19,0.51,0.01,386.8,-2.34,-2.49,-1.37,-1.63,-487.59,465.84,3.0,0.0,0.0,0.0,0.0,0.34,-7.49,-7.49,0.69,0.14,-0.05,0.23,28.33,-0.04,-0.23,3.89,100.0,0.0,0.0,81.7,0.0,0.0,0.0,0.0,0.0,0.0,0.0,7022.0,0.0,30.0,2.0,101.9,0.0,0.0,0.0,0.0,0.0,0.0,0.0,0.0,49.331,49.331,74.679,35.607,0.0,110.0,435.8,8750.0,0.0,0.0,110.0,110.0,433.0,0.0,0.0,0.0,1.0,333.3,78.9,78.9,72.0,72.0,34.0,-22.15,2.82,-29.2,2.1,1.0,-126.59,5.4,100.0,17.4,15.2,34.3,30.9,0.0,1.0,73.8,0.0,0.0,0.0,0.0,3299.0,2652.0,4650.0,4150.0,316.2,317.7,343.6,344.7,23.51,22.79,26.53,26.01,325.0,325.0,355.0,355.0,99.78,99.72,99.91,99.87,-0.26,-0.21,-0.35,-0.2,-0.1,-0.1,2.4,2.8,72.9,68.5,85.6,82.3,69.4,65.0,98.1,95.3,67.0,62.9,95.6,92.6,65.3,61.8,94.1,91.3,0.33,-0.34,0.07,0.07,0.0,87.12,86.77,81.7,81.7,356.7,7.7,0.5443344560102732,19.80559409189172,99.02797051636097,-7.202034272135691,21.60610253189546,0
988,49.35,629.9,44.052605080649585,-78.67970289648109,-0.0,3.6,-1.9,4.8,2201.1,2201.0,102.8,0.0,1.0,1.0,0.0,1.0,1.0,0.0,0.0,0.0,100.0,1.0,1.186,26.0,0.0,9.06,74.678,66.0,0.0,26.0,26.0,26.0,26.0,-0.16,0.5,0.01,386.8,-2.35,-2.5,-1.4,-1.65,-488.93,465.58,3.1,0.0,0.0,0.0,0.0,0.34,-7.49,-7.49,0.7,0.13,-0.04,0.22,28.56,-0.04,-0.24,3.25,100.0,0.0,0.0,82.36,0.0,0.0,0.0,0.0,0.0,0.0,0.0,7078.0,0.0,30.0,2.0,102.8,1.0,0.0,0.0,0.0,0.0,0.0,0.0,0.0,49.38,49.38,74.679,35.607,1.0,110.0,435.8,8750.0,0.0,0.0,110.0,110.0,433.0,0.0,0.0,0.0,1.0,333.3,78.8,78.8,72.0,72.0,34.0,-21.12,3.93,-27.6,3.3,1.0,-126.64,4.5,100.0,17.4,15.4,34.2,31.1,0.0,1.0,72.7,0.0,0.0,0.0,0.0,3284.0,2695.0,4589.0,4139.0,316.2,317.6,343.8,344.7,23.51,22.79,26.54,26.02,325.0,325.0,355.0,355.0,99.78,99.72,99.92,99.87,-0.23,-0.18,-0.33,-0.18,-0.1,-0.1,2.3,2.7,72.9,68.4,85.6,82.3,69.3,64.9,98.0,95.2,67.0,62.9,95.6,92.6,65.3,61.8,94.1,91.3,0.27,-0.28,0.07,0.07,0.0,87.82,87.52,82.36,82.36,356.7,7.7,0.5250714237130031,19.44549239251052,100.10827561450454,3.6010172783236882,50.41423905141457,0
989,49.4,631.3,44.05260256254908,-78.67971584671221,-1.1,2.2,-3.6,3.2,2202.6,2203.0,103.7,0.0,1.0,1.0,0.0,1.0,1.0,0.0,0.0,0.0,100.0,1.0,1.186,26.0,0.0,9.069,74.678,66.0,0.0,26.0,26.0,26.0,26.0,-0.14,0.49,0.01,386.8,-2.35,-2.48,-1.4,-1.62,-490.37,465.3,3.1,0.0,0.0,0.0,0.0,0.34,-7.49,-7.49,0.71,0.15,-0.02,0.3,28.81,-0.04,-0.24,2.68,100.0,0.0,0.0,83.03,0.0,0.0,0.0,0.0,0.0,0.0,0.0,7136.0,0.0,30.0,2.0,103.7,0.0,0.0,0.0,0.0,0.0,0.0,0.0,0.0,49.431,49.431,74.679,35.607,0.0,110.0,435.8,8750.0,0.0,0.0,110.0,110.0,433.0,0.0,0.0,0.0,1.0,333.3,78.9,78.9,72.0,72.0,34.0,-18.78,5.1,-26.3,4.7,1.0,-126.69,3.0,100.0,17.4,15.5,34.0,31.3,0.0,1.0,71.1,0.0,0.0,0.0,0.0,3207.0,2721.0,4584.0,4189.0,316.4,317.5,343.8,344.6,23.51,22.79,26.54,26.02,325.0,325.0,355.0,355.0,99.78,99.72,99.92,99.87,-0.18,-0.14,-0.3,-0.14,-0.1,-0.1,2.3,2.6,72.9,68.4,85.6,82.4,69.3,64.9,98.0,95.2,67.0,62.9,95.5,92.6,65.3,61.8,94.1,91.2,0.2,-0.2,0.07,0.06,0.0,88.57,88.31,83.03,83.03,356.7,7.7,0.5097057974949863,20.16569581972409,104.06939442150242,0.0,14.404068544271524,0
990,49.45,632.8,44.05260004444859,-78.6797288868755,-1.0,5.0,-2.1,5.8,2204.0,2204.0,104.5,0.0,1.0,1.0,0.0,1.0,1.0,0.0,0.0,0.0,100.0,1.0,1.186,26.0,0.0,9.069,74.678,66.0,0.0,26.0,26.0,26.0,26.0,-0.11,0.47,0.02,386.7,-2.36,-2.49,-1.43,-1.61,-491.82,465.02,3.1,0.0,0.0,0.0,0.0,0.34,-7.49,-7.49,0.71,0.07,-0.0,0.51,29.05,-0.04,-0.24,1.85,100.0,0.0,0.0,83.63,0.0,0.0,0.0,0.0,0.0,0.0,0.0,7188.0,0.0,30.0,2.0,104.5,1.0,0.0,0.0,0.0,0.0,0.0,0.0,0.0,49.481,49.481,74.679,35.607,1.0,110.0,435.8,8750.0,0.0,0.0,110.0,110.0,433.0,0.0,0.0,0.0,1.0,333.3,78.6,78.6,72.0,72.0,34.0,-16.32,8.13,-24.9,6.6,1.0,-126.74,1.1,100.0,17.3,15.8,33.9,31.6,0.0,1.0,68.0,0.0,0.0,0.0,0.0,3231.0,2824.0,4519.0,4232.0,316.4,317.3,343.9,344.5,23.5,22.78,26.54,26.02,325.0,325.0,355.0,355.0,99.78,99.72,99.92,99.87,-0.11,-0.06,-0.27,-0.1,-0.1,-0.1,2.3,2.5,72.9,68.4,85.6,82.4,69.3,64.9,98.0,95.2,66.9,62.8,95.5,92.5,65.2,61.8,94.0,91.2,0.08,-0.09,0.08,0.07,0.0,89.26,89.08,83.63,83.63,356.7,7.7,0.4831148931672465,19.44549239251052,101.54868246893169,-7.202034272135691,-14.40406797524787,0
991,49.5,634.3,44.05259770621241,-78.6797412075815,-0.5,5.9,-7.2,4.9,2205.5,2205.0,105.3,0.0,1.0,1.0,0.0,1.0,1.0,0.0,0.0,0.0,100.0,1.0,1.186,26.0,0.0,9.078,74.678,66.0,0.0,26.0,26.0,26.0,26.0,-0.07,0.45,0.01,386.7,-2.37,-2.47,-1.45,-1.57,-493.19,464.76,3.2,0.0,0.0,0.0,0.0,0.34,-7.49,-7.49,0.71,0.06,0.03,0.52,29.27,-0.03,-0.25,0.95,100.0,0.0,0.0,84.17,0.0,0.0,0.0,0.0,0.0,0.0,0.0,7234.0,0.0,30.0,2.0,105.3,0.0,0.0,0.0,0.0,0.0,0.0,0.0,0.0,49.53,49.53,74.679,35.607,0.0,110.0,435.8,8750.0,0.0,0.0,110.0,110.0,433.0,0.0,0.0,0.0,1.0,333.3,78.5,78.5,72.1,72.1,34.0,-13.76,10.29,-22.3,8.8,1.0,-126.79,-0.4,100.0,17.3,16.1,33.6,31.8,0.0,1.0,62.9,0.0,0.0,0.0,0.0,3131.0,2899.0,4427.0,4249.0,316.6,317.1,344.2,344.4,23.5,22.78,26.55,26.02,325.0,325.0,355.0,355.0,99.78,99.72,99.92,99.87,-0.06,-0.01,-0.22,-0.06,-0.1,-0.1,2.2,2.3,72.9,68.4,85.7,82.4,69.3,64.8,97.9,95.1,66.9,62.8,95.5,92.5,65.2,61.7,94.0,91.1,-0.01,0.0,0.07,0.07,0.0,89.89,89.78,84.17,84.17,356.7,7.7,0.45552167895721496,19.44549239251052,102.62898762397764,7.202033987623899,50.41423962043794,0
992,49.55,635.7,44.052595188111916,-78.67975451754127,-1.6,7.5,-5.4,6.2,2207.0,2207.0,106.1,0.0,1.0,1.0,0.0,1.0,1.0,0.0,0.0,0.0,100.0,1.0,1.186,26.0,0.0,9.087,74.678,66.0,0.0,26.0,26.0,26.0,26.0,-0.03,0.43,0.02,386.5,-2.39,-2.46,-1.49,-1.55,-494.67,464.48,3.2,0.0,0.0,0.0,0.0,0.34,-7.49,-7.49,0.71,-0.04,0.05,0.63,29.49,-0.03,-0.25,0.08,100.0,0.0,0.0,84.67,0.0,0.0,0.0,0.0,0.0,0.0,0.0,7277.0,0.0,30.0,2.0,106.1,1.0,0.0,0.0,0.0,0.0,0.0,0.0,0.0,49.581,49.581,74.679,35.607,1.0,110.0,435.8,8750.0,0.0,0.0,110.0,110.0,433.0,0.0,0.0,0.0,1.0,333.3,78.1,78.1,72.1,72.1,34.0,-11.29,13.09,-19.3,12.4,1.0,-126.84,-1.8,100.0,17.2,16.4,33.3,32.2,0.0,1.0,58.2,0.0,0.0,0.0,0.0,3134.0,3024.0,4378.0,4327.0,316.6,316.7,344.3,344.3,23.5,22.78,26.55,26.03,325.0,325.0,355.0,355.0,99.78,99.72,99.92,99.87,0.0,0.05,-0.15,0.01,-0.1,-0.1,2.1,2.1,72.9,68.4,85.7,82.4,69.2,64.8,97.9,95.1,66.9,62.8,95.4,92.5,65.2,61.7,93.9,91.1,-0.09,0.08,0.07,0.06,0.0,90.51,90.51,84.67,84.67,356.7,7.7,0.43150898020782835,20.16569579127291,106.59010643097548,3.601016993812003,10.803050981435689,0
993,49.6,637.2,44.05259267001142,-78.67976782750104,-0.4,10.2,-8.9,6.0,2208.4,2208.0,106.9,0.0,1.0,1.0,0.0,1.0,1.0,0.0,0.0,0.0,100.0,1.0,1.186,26.0,0.0,9.096,74.678,66.0,0.0,26.0,26.0,26.0,26.0,0.02,0.4,0.01,386.5,-2.42,-2.45,-1.5,-1.51,-496.15,464.2,3.2,0.0,0.0,0.0,0.0,0.34,-7.49,-7.49,0.71,0.03,0.08,0.55,29.7,-0.02,-0.26,-0.62,100.0,0.0,0.0,85.18,0.0,0.0,0.0,0.0,0.0,0.0,0.0,7321.0,0.0,30.0,2.0,106.9,0.0,0.0,0.0,0.0,0.0,0.0,1.0,0.0,49.631,49.631,74.679,35.607,0.0,110.0,435.8,8750.0,0.0,0.0,110.0,110.0,433.0,0.0,0.0,0.0,1.0,333.3,77.8,77.8,72.3,72.3,34.0,-9.43,15.54,-16.6,14.8,1.0,-126.89,-3.0,100.0,17.2,16.9,32.9,32.5,0.0,1.0,52.7,0.0,0.0,0.0,0.0,3077.0,3122.0,4263.0,4334.0,316.8,316.4,344.6,344.2,23.49,22.78,26.55,26.03,325.0,325.0,355.0,355.0,99.78,99.72,99.92,99.87,0.05,0.11,-0.1,0.05,-0.1,-0.1,2.0,2.0,72.8,68.4,85.7,82.4,69.2,64.8,97.8,95.0,66.8,62.8,95.4,92.4,65.1,61.7,93.9,91.1,-0.16,0.15,0.08,0.06,0.0,91.14,91.17,85.18,85.18,356.7,7.7,0.40062451248020264,19.80559409189172,103.7092927221212,2.845117919036966e-07,-18.00508553808328,0
994,49.65,638.7,44.052590241843085,-78.67978041800352,-1.7,5.5,-6.8,4.9,2209.9,2210.0,107.6,0.0,1.0,1.0,0.0,1.0,1.0,0.0,0.0,0.0,100.0,1.0,1.186,26.0,0.0,9.102,74.678,66.0,0.0,26.0,26.0,26.0,26.0,0.06,0.39,0.01,386.4,-2.43,-2.44,-1.53,-1.48,-497.55,463.93,3.3,0.0,0.0,0.0,0.0,0.34,-7.49,-7.49,0.72,0.06,0.11,0.6,29.88,-0.01,-0.26,-1.34,100.0,0.0,0.0,85.61,0.0,0.0,0.0,0.0,0.0,0.0,0.0,7358.0,0.0,30.0,2.0,107.6,1.0,0.0,0.0,0.0,0.0,0.0,1.0,0.0,49.68,49.68,74.679,35.607,1.0,110.0,435.8,8750.0,0.0,0.0,110.0,110.0,433.0,0.0,0.0,0.0,1.0,333.3,77.7,77.7,72.3,72.3,34.0,-5.98,18.69,-14.7,17.0,1.0,-126.94,-5.0,100.0,17.1,17.2,32.5,32.7,0.0,1.0,48.8,0.0,0.0,0.0,0.0,3039.0,3214.0,4244.0,4408.0,316.9,316.2,344.6,344.1,23.49,22.77,26.56,26.03,325.0,325.0,355.0,355.0,99.78,99.72,99.92,99.87,0.13,0.17,-0.06,0.09,-0.1,-0.1,2.0,1.8,72.8,68.3,85.7,82.5,69.2,64.8,97.8,95.0,66.8,62.7,95.3,92.4,65.1,61.7,93.9,91.0,-0.27,0.25,0.07,0.06,0.0,91.66,91.77,85.61,85.61,356.7,7.7,0.394715087119811,20.16569581972409,104.78959787716715,10.80305155045945,46.81322262662633,0
995,49.7,640.2,44.052587633810425,-78.67979399775977,-0.2,8.8,-7.5,7.6,2211.4,2211.0,108.2,0.0,1.0,1.0,0.0,1.0,1.0,0.0,0.0,0.0,100.0,1.0,1.186,26.0,0.0,9.108,74.678,66.0,0.0,26.0,26.0,26.0,26.0,0.12,0.33,0.02,386.4,-2.45,-2.44,-1.57,-1.45,-499.06,463.64,3.3,0.0,0.0,0.0,0.0,0.34,-7.49,-7.49,0.72,-0.0,0.15,0.88,30.07,-0.01,-0.27,-2.5,100.0,0.0,0.0,85.94,0.0,0.0,0.0,0.0,0.0,0.0,0.0,7386.0,0.0,30.0,2.0,108.2,0.0,0.0,0.0,0.0,0.0,0.0,1.0,0.0,49.731,49.731,74.679,35.607,0.0,110.0,435.8,8750.0,0.0,0.0,110.0,110.0,433.0,0.0,0.0,0.0,1.0,333.3,77.4,77.4,72.4,72.4,34.0,-0.56,24.9,-12.6,20.8,1.0,-126.99,-8.5,100.0,17.1,17.6,32.1,33.1,0.0,1.0,43.3,0.0,0.0,0.0,0.0,2958.0,3338.0,4116.0,4451.0,317.1,315.9,344.9,343.9,23.49,22.77,26.56,26.04,325.0,325.0,355.0,355.0,99.78,99.72,99.92,99.87,0.27,0.31,-0.01,0.15,-0.0,-0.1,1.8,1.6,72.8,68.3,85.7,82.5,69.1,64.7,97.7,95.0,66.8,62.7,95.3,92.3,65.1,61.6,93.8,91.0,-0.46,0.45,0.08,0.06,0.0,92.18,92.36,85.94,85.94,356.7,7.7,0.35171010790137947,20.885899246937665,108.39061498478384,3.6010169938119674,7.202033987623793,0
996,49.75,641.7,44.052585025777766,-78.67980748758386,-2.4,10.1,-13.5,7.9,2213.0,2213.0,108.8,0.0,1.0,1.0,0.0,1.0,1.0,0.0,0.0,0.0,100.0,1.0,1.186,26.0,0.0,9.117,74.678,66.0,0.0,26.0,26.0,26.0,26.0,0.2,0.26,0.0,386.4,-2.47,-2.42,-1.62,-1.4,-500.56,463.35,3.3,0.0,0.0,0.0,0.0,0.34,-7.49,-7.49,0.71,-0.21,0.2,1.17,30.22,-0.01,-0.27,-4.08,100.0,0.0,0.0,86.09,0.0,0.0,0.0,0.0,0.0,0.0,0.0,7399.0,0.0,30.0,2.0,108.8,1.0,0.0,0.0,0.0,0.0,0.0,1.0,0.0,49.781,49.781,74.679,35.607,1.0,110.0,435.8,8750.0,0.0,0.0,110.0,110.0,433.0,0.0,0.0,0.0,1.0,166.7,77.0,77.0,72.7,72.7,34.0,3.69,31.69,-9.2,26.0,1.0,-127.04,-11.6,100.0,17.0,18.2,31.5,33.5,0.0,1.0,34.9,0.0,0.0,0.0,0.0,2845.0,3532.0,3973.0,4534.0,317.4,315.3,345.3,343.7,23.49,22.77,26.56,26.04,325.0,325.0,355.0,355.0,99.78,99.72,99.92,99.87,0.4,0.45,0.06,0.21,-0.0,-0.1,1.5,1.2,72.8,68.3,85.8,82.5,69.1,64.7,97.7,94.9,66.7,62.7,95.2,92.3,65.1,61.6,93.8,90.9,-0.65,0.65,0.08,0.06,0.0,92.56,92.9,86.09,86.09,356.7,7.7,0.3280243893371345,20.525797519105286,105.50980127592953,-2.845117919036966e-07,-21.606102531895175,0
997,49.8,643.2,44.05258250767727,-78.67982034788282,-0.3,17.4,-14.7,8.7,2214.5,2214.0,109.2,0.0,1.0,1.0,0.0,1.0,1.0,0.0,0.0,0.0,100.0,1.0,1.186,26.0,0.0,9.117,74.678,66.0,0.0,26.0,26.0,26.0,26.0,0.26,0.22,0.01,386.2,-2.52,-2.4,-1.66,-1.35,-501.99,463.07,3.4,0.0,0.0,0.0,0.0,0.35,-7.49,-7.49,0.7,-0.31,0.25,0.96,30.33,0.0,-0.29,-5.43,100.0,0.0,0.0,86.28,0.0,0.0,0.0,0.0,0.0,0.0,0.0,7416.0,0.0,30.0,2.0,109.2,0.0,0.0,0.0,0.0,0.0,0.0,1.0,0.0,49.83,49.83,74.679,35.607,0.0,110.0,435.8,8750.0,0.0,0.0,110.0,110.0,433.0,0.0,0.0,0.0,1.0,333.3,76.3,76.3,73.0,73.0,34.0,5.1,36.19,-5.2,31.1,1.0,-127.09,-12.6,100.0,16.9,19.0,30.7,33.9,0.0,1.0,30.2,0.0,0.0,0.0,0.0,2854.0,3757.0,3795.0,4543.0,317.4,314.7,345.7,343.7,23.48,22.77,26.56,26.04,325.0,325.0,355.0,355.0,99.78,99.72,99.92,99.87,0.44,0.5,0.14,0.3,-0.0,-0.1,1.4,0.9,72.8,68.3,85.8,82.5,69.1,64.7,97.6,94.9,66.7,62.7,95.2,92.2,65.0,61.6,93.7,90.9,-0.73,0.72,0.08,0.06,0.0,92.85,93.32,86.28,86.28,356.7,7.7,0.3407345007480164,20.885899218486486,106.23000473159432,18.005085538083385,39.61118806997874,0
998,49.85,644.8,44.052579809712455,-78.67983401757124,0.2,14.4,-16.2,4.5,2216.0,2216.0,109.5,0.0,1.0,1.0,0.0,1.0,1.0,0.0,0.0,0.0,100.0,1.0,1.186,26.0,0.0,9.123,74.678,66.0,0.0,26.0,26.0,26.0,26.0,0.29,0.2,0.0,386.1,-2.56,-2.37,-1.69,-1.32,-503.51,462.77,3.4,0.0,0.0,0.0,0.0,0.35,-7.49,-7.49,0.69,-0.08,0.28,0.47,30.43,0.03,-0.3,-6.17,100.0,0.0,0.0,86.5,0.0,0.0,0.0,0.0,0.0,0.0,0.0,7434.0,0.0,30.0,2.0,109.5,1.0,0.0,0.0,0.0,0.0,0.0,1.0,0.0,49.881,49.881,74.679,35.607,1.0,110.0,435.8,8750.0,0.0,0.0,110.0,110.0,433.0,0.0,0.0,0.0,1.0,333.3,75.8,75.8,73.4,73.4,34.0,4.65,36.92,-1.6,35.9,1.0,-127.14,-12.2,100.0,17.0,19.7,29.9,34.1,0.0,1.0,27.4,0.0,0.0,0.0,0.0,2816.0,3858.0,3730.0,4538.0,317.5,314.4,345.9,343.7,23.48,22.76,26.57,26.05,325.0,325.0,355.0,355.0,99.78,99.72,99.92,99.87,0.44,0.49,0.22,0.38,-0.0,-0.1,1.4,0.8,72.7,68.3,85.8,82.5,69.0,64.7,97.6,94.8,66.7,62.7,95.1,92.2,65.0,61.6,93.7,90.8,-0.71,0.7,0.08,0.06,0.0,93.15,93.67,86.5,86.5,356.7,7.7,0.35227829907617075,22.326306072913624,109.4709200829274,14.404068544271382,3.6010164247880994,0
999,49.9,646.3,44.052576931883316,-78.67984768725964,1.6,9.5,-4.7,4.2,2217.5,2218.0,109.9,0.0,1.0,1.0,0.0,1.0,1.0,0.0,0.0,0.0,100.0,1.0,1.186,26.0,0.0,9.132,74.678,66.0,0.0,26.0,26.0,26.0,26.0,0.31,0.2,0.02,386.0,-2.59,-2.36,-1.71,-1.3,-505.03,462.45,3.4,0.0,0.0,0.0,0.0,0.35,-7.49,-7.49,0.69,0.16,0.29,0.07,30.52,0.04,-0.3,-6.14,100.0,0.0,0.0,86.76,0.0,0.0,0.0,0.0,0.0,0.0,0.0,7457.0,0.0,30.0,2.0,109.9,0.0,0.0,0.0,0.0,0.0,0.0,1.0,0.0,49.931,49.931,74.679,35.607,0.0,110.0,435.8,8750.0,0.0,0.0,110.0,110.0,433.0,0.0,0.0,0.0,1.0,333.3,75.4,75.4,73.4,73.4,34.0,3.83,36.7,0.1,38.9,1.0,-127.19,-11.0,100.0,17.0,20.2,29.7,34.4,0.0,1.0,27.4,0.0,0.0,0.0,0.0,2834.0,3910.0,3717.0,4557.0,317.4,314.3,345.9,343.7,23.48,22.76,26.57,26.05,325.0,325.0,355.0,355.0,99.78,99.72,99.92,99.87,0.42,0.47,0.26,0.44,-0.0,-0.0,1.4,0.8,72.7,68.3,85.8,82.6,69.0,64.7,97.5,94.8,66.7,62.6,95.1,92.1,65.0,61.6,93.6,90.8,-0.65,0.64,0.08,0.06,0.0,93.41,93.96,86.76,86.76,356.7,7.7,0.3694590640382233,22.326306072913624,106.59010637407313,3.6010169938119674,-28.808136519519252,0
1000,49.95,647.8,44.0525742339185,-78.67986063749076,-0.5,0.5,-1.4,1.4,2219.0,2219.0,110.2,0.0,1.0,1.0,0.0,1.0,1.0,0.0,0.0,0.0,100.0,1.0,1.186,26.0,0.0,9.138,74.678,66.0,0.0,26.0,26.0,26.0,26.0,0.3,0.19,0.0,386.1,-2.59,-2.36,-1.7,-1.3,-506.47,462.15,3.5,0.0,0.0,0.0,0.0,0.35,-7.49,-7.49,0.71,0.32,0.28,-0.12,30.61,0.06,-0.3,-5.84,100.0,0.0,0.0,87.01,0.0,0.0,0.0,0.0,0.0,0.0,0.0,7478.0,0.0,30.0,2.0,110.2,1.0,0.0,0.0,0.0,0.0,0.0,1.0,0.0,49.98,49.98,74.679,35.607,1.0,110.0,435.8,8750.0,0.0,0.0,110.0,110.0,433.0,0.0,0.0,0.0,1.0,333.3,75.6,75.6,73.4,73.4,34.0,4.01,35.9,0.8,39.5,1.0,-127.24,-10.8,100.0,17.0,20.3,29.6,34.4,0.0,1.0,27.4,0.0,0.0,0.0,0.0,2788.0,3842.0,3761.0,4554.0,317.5,314.5,345.8,343.7,23.47,22.76,26.57,26.05,325.0,325.0,355.0,355.0,99.78,99.72,99.92,99.87,0.42,0.47,0.28,0.45,-0.0,-0.1,1.4,0.8,72.7,68.2,85.8,82.6,69.0,64.7,97.5,94.7,66.6,62.6,95.0,92.1,65.0,61.6,93.6,90.8,-0.63,0.61,0.08,0.06,0.0,93.72,94.23,87.01,87.01,356.7,7.7,0.35510561809129404,22.68640777229482,106.59010643097548,25.207119810219076,68.41932572754487,0
1001,50.0,649.4,44.0525712661572,-78.67987430717918,-0.1,-0.7,3.4,3.3,2220.6,2221.0,110.5,0.0,1.0,1.0,0.0,1.0,1.0,0.0,0.0,0.0,100.0,1.0,1.186,26.0,0.0,9.144,74.678,66.0,0.0,26.0,26.0,26.0,26.0,0.3,0.18,0.02,385.9,-2.59,-2.36,-1.71,-1.3,-507.99,461.82,3.5,0.0,0.0,0.0,0.0,0.35,-7.49,-7.49,0.73,0.25,0.28,-0.02,30.7,0.06,-0.3,-5.64,100.0,0.0,0.0,87.22,0.0,0.0,0.0,0.0,0.0,0.0,0.0,7496.0,0.0,30.0,2.0,110.5,0.0,0.0,0.0,0.0,0.0,0.0,1.0,0.0,50.031,50.031,74.679,35.607,0.0,110.0,435.8,8750.0,0.0,0.0,110.0,110.0,433.0,0.0,0.0,0.0,1.0,333.3,75.6,75.6,73.1,73.1,34.0,4.51,37.23,0.5,38.9,1.0,-127.29,-10.8,100.0,17.0,20.2,29.8,34.6,0.0,1.0,25.8,0.0,0.0,0.0,0.0,2803.0,3872.0,3788.0,4585.0,317.5,314.4,345.7,343.6,23.47,22.76,26.58,26.06,325.0,325.0,355.0,355.0,99.78,99.72,99.92,99.87,0.44,0.5,0.27,0.43,-0.0,-0.0,1.3,0.8,72.7,68.2,85.8,82.6,69.0,64.7,97.4,94.7,66.6,62.6,95.0,92.0,64.9,61.6,93.5,90.7,-0.62,0.62,0.08,0.05,0.0,94.0,94.49,87.22,87.22,356.7,7.7,0.3504283093587046,24.847018053935532,113.43203894682762,14.404068544271382,7.202033987623935,0
1002,50.05,650.9,44.05256802859942,-78.67988896612135,-1.4,0.1,0.2,1.3,2222.1,2222.0,110.8,0.0,1.0,1.0,0.0,1.0,1.0,0.0,0.0,0.0,100.0,1.0,1.186,26.0,0.0,9.153,74.678,66.0,0.0,26.0,26.0,26.0,26.0,0.31,0.17,0.01,385.9,-2.59,-2.35,-1.71,-1.3,-509.62,461.46,3.5,0.0,0.0,0.0,0.0,0.35,-7.49,-7.49,0.74,0.18,0.27,0.04,30.79,0.06,-0.3,-5.57,100.0,0.0,0.0,87.43,0.0,0.0,0.0,0.0,0.0,0.0,0.0,7514.0,0.0,30.0,2.0,110.8,1.0,0.0,0.0,0.0,0.0,0.0,1.0,0.0,50.086,50.086,74.679,35.607,1.0,110.0,435.8,8750.0,0.0,0.0,110.0,110.0,433.0,0.0,0.0,0.0,1.0,166.7,75.5,75.5,73.2,73.2,34.0,4.52,37.75,0.1,39.6,1.0,-127.34,-10.8,100.0,16.9,20.2,29.8,34.6,0.0,1.0,25.0,0.0,0.0,0.0,0.0,2827.0,3907.0,3758.0,4580.0,317.4,314.3,345.8,343.6,23.47,22.75,26.58,26.06,325.0,325.0,355.0,355.0,99.78,99.72,99.92,99.87,0.44,0.5,0.26,0.44,-0.0,-0.0,1.2,0.7,72.7,68.2,85.9,82.6,68.9,64.6,97.3,94.6,66.6,62.6,94.9,92.0,64.9,61.5,93.4,90.7,-0.62,0.61,0.08,0.06,0.0,94.28,94.75,87.43,87.43,356.7,7.7,0.3536947836765479,24.12681462672196,107.31030982973788,-10.803051265947659,-97.22746224706412,0
1003,50.1,652.4,44.05256524070244,-78.67990110696303,3.0,3.4,1.0,2.2,2223.7,2224.0,111.1,0.0,1.0,1.0,0.0,1.0,1.0,0.0,0.0,0.0,100.0,1.0,1.186,26.0,0.0,9.159,74.678,66.0,0.0,26.0,26.0,26.0,26.0,0.3,0.16,0.02,385.8,-2.6,-2.36,-1.71,-1.3,-510.97,461.15,3.6,0.0,0.0,0.0,0.0,0.35,-7.49,-7.49,0.75,0.18,0.27,-0.07,30.86,0.05,-0.31,-5.56,100.0,0.0,0.0,87.56,0.0,0.0,0.0,0.0,0.0,0.0,0.0,7525.0,0.0,30.0,2.0,111.1,0.0,0.0,0.0,0.0,0.0,0.0,0.0,0.0,50.13,50.13,74.679,35.607,0.0,110.0,435.8,8750.0,0.0,0.0,110.0,110.0,433.0,0.0,0.0,0.0,1.0,333.3,75.3,75.3,73.1,73.1,34.0,4.37,37.85,-0.3,38.7,1.0,-127.39,-10.8,100.0,17.1,20.4,29.8,34.8,0.0,1.0,22.2,0.0,0.0,0.0,0.0,2833.0,3923.0,3735.0,4563.0,317.4,314.2,345.9,343.7,23.47,22.75,26.58,26.06,325.0,325.0,355.0,355.0,99.78,99.72,99.92,99.87,0.43,0.5,0.25,0.42,-0.0,-0.0,1.1,0.6,72.7,68.2,85.9,82.6,68.9,64.6,97.3,94.6,66.6,62.6,94.9,92.0,64.9,61.5,93.4,90.6,-0.62,0.62,0.08,0.06,0.0,94.49,94.99,87.55,87.55,356.7,7.7,0.340587727318528,23.766712927340766,103.7092927221212,18.005085822595248,32.4091540823548,0
1004,50.15,654.0,44.052562093076816,-78.6799148665836,3.3,2.2,-0.3,-0.6,2225.2,2225.0,111.3,0.0,1.0,1.0,0.0,1.0,1.0,0.0,0.0,0.0,100.0,1.0,1.186,26.0,0.0,9.168,74.678,66.0,0.0,26.0,26.0,26.0,26.0,0.32,0.09,0.02,385.7,-2.59,-2.36,-1.71,-1.3,-512.5,460.8,3.6,0.0,0.0,0.0,0.0,0.35,-7.49,-7.49,0.76,0.17,0.26,-0.05,30.92,0.05,-0.31,-5.58,100.0,0.0,0.0,87.55,0.0,0.0,0.0,0.0,0.0,0.0,0.0,7524.0,0.0,30.0,2.0,111.3,1.0,0.0,0.0,0.0,0.0,0.0,0.0,0.0,50.181,50.181,74.679,35.607,1.0,110.0,435.8,8750.0,0.0,0.0,110.0,110.0,433.0,0.0,0.0,0.0,1.0,333.3,75.0,75.0,73.2,73.2,34.0,5.49,39.08,-0.5,38.8,1.0,-127.44,-11.5,100.0,17.3,20.5,29.8,34.7,0.0,1.0,16.3,0.0,0.0,0.0,0.0,2906.0,3969.0,3763.0,4543.0,317.2,314.1,345.8,343.7,23.46,22.75,26.58,26.07,325.0,325.0,355.0,355.0,99.78,99.72,99.92,99.87,0.46,0.51,0.25,0.42,-0.0,-0.1,1.0,0.4,72.6,68.2,85.9,82.7,68.9,64.6,97.2,94.5,66.5,62.6,94.8,91.9,64.8,61.5,93.3,90.6,-0.66,0.64,0.08,0.06,0.0,94.68,95.13,87.54,87.54,356.7,7.7,0.3330165161069342,25.927323208981484,110.55122523797336,21.606102531895353,36.0101710761667,0
1005,50.2,655.5,44.05255876558687,-78.67992871613633,4.3,4.6,-0.7,1.5,2226.8,2227.0,111.4,0.0,1.0,1.0,0.0,1.0,1.0,0.0,0.0,0.0,100.0,1.0,1.186,26.0,0.0,9.174,74.678,66.0,0.0,26.0,26.0,26.0,26.0,0.35,0.06,0.01,385.7,-2.59,-2.38,-1.72,-1.29,-514.04,460.43,3.6,0.0,0.0,0.0,0.0,0.35,-7.49,-7.49,0.76,-0.01,0.27,0.44,30.96,0.05,-0.31,-5.98,100.0,0.0,0.0,87.37,0.0,0.0,0.0,0.0,0.0,0.0,0.0,7509.0,0.0,30.0,2.0,111.4,0.0,0.0,0.0,0.0,0.0,0.0,0.0,0.0,50.231,50.231,74.679,35.607,0.0,110.0,435.8,8750.0,0.0,0.0,110.0,110.0,433.0,0.0,0.0,0.0,1.0,166.7,74.7,74.7,73.4,73.4,34.0,8.68,44.12,-0.2,38.7,1.0,-127.49,-14.2,100.0,17.5,20.7,29.8,34.8,0.0,1.0,8.3,0.0,0.0,0.0,0.0,2898.0,4037.0,3627.0,4487.0,317.3,313.9,346.1,343.9,23.46,22.75,26.59,26.07,325.0,325.0,355.0,355.0,99.78,99.72,99.92,99.87,0.56,0.62,0.26,0.42,-0.0,-0.0,0.8,0.2,72.6,68.2,85.9,82.7,68.8,64.6,97.2,94.5,66.5,62.6,94.7,91.8,64.8,61.5,93.3,90.5,-0.79,0.78,0.08,0.06,0.0,94.76,95.25,87.13,87.61,356.7,7.7,0.3552463933666322,25.9273231805303,107.31030982973788,3.6010167093001044,-36.0101710761667,0
1006,50.25,657.1,44.052555617961254,-78.67994166636745,7.3,13.3,-6.6,2.5,2228.3,2228.0,111.4,0.0,1.0,1.0,0.0,1.0,1.0,0.0,0.0,0.0,100.0,1.0,1.186,26.0,0.0,9.186,74.678,66.0,0.0,26.0,26.0,26.0,26.0,0.4,-0.16,0.02,385.4,-2.61,-2.38,-1.75,-1.26,-515.48,460.08,3.7,0.0,0.0,0.0,0.0,0.35,-7.49,-7.49,0.76,-0.39,0.29,0.81,30.93,0.04,-0.33,-7.44,100.0,0.0,0.0,86.5,0.0,0.0,0.0,0.0,0.0,0.0,0.0,7434.0,0.0,30.0,2.0,111.4,1.0,0.0,0.0,0.0,0.0,0.0,0.0,0.0,50.28,50.28,74.679,35.607,1.0,110.0,435.8,8750.0,0.0,0.0,110.0,110.0,433.0,0.0,0.0,0.0,1.0,333.3,73.8,73.8,73.7,73.7,34.0,12.17,51.56,1.1,40.2,1.0,-127.54,-17.9,100.0,17.8,21.4,29.5,34.9,0.0,1.0,0.0,0.0,0.0,0.0,0.0,2916.0,4258.0,3456.0,4522.0,317.2,313.3,346.5,343.8,23.46,22.75,26.59,26.07,325.0,325.0,355.0,355.0,99.78,99.72,99.92,99.87,0.68,0.73,0.29,0.45,0.0,-0.0,-0.2,-0.5,72.6,68.2,85.9,82.7,68.8,64.6,97.1,94.4,66.5,62.6,94.7,91.8,64.8,61.5,93.2,90.5,-1.01,0.99,0.08,0.06,0.0,94.63,95.24,86.3,86.7,356.7,7.7,0.43127717305695656,26.287424879911494,106.95020813035669,25.207119810219112,57.616274177085955,0
1007,50.3,658.6,44.052552200539154,-78.67995542598803,11.4,25.2,-22.5,0.4,2229.8,2230.0,111.0,0.0,1.0,1.0,0.0,1.0,1.0,0.0,0.0,0.0,100.0,1.0,1.186,26.0,0.0,9.186,74.678,66.0,0.0,26.0,26.0,26.0,26.0,0.49,-0.22,0.02,385.1,-2.66,-2.38,-1.79,-1.21,-517.01,459.7,3.7,0.0,0.0,0.0,0.0,0.35,-7.49,-7.49,0.73,-0.61,0.34,1.25,30.82,0.05,-0.35,-9.29,100.0,0.0,0.0,86.23,0.0,0.0,0.0,0.0,0.0,0.0,0.0,7411.0,0.0,30.0,2.0,111.0,0.0,0.0,0.0,0.0,0.0,0.0,0.0,0.0,50.331,50.331,74.679,35.607,0.0,110.0,435.8,8750.0,0.0,0.0,110.0,110.0,433.0,0.0,0.0,0.0,1.0,333.3,72.1,72.1,74.7,74.7,34.0,16.85,63.46,4.3,42.8,1.0,-127.59,-21.2,100.0,18.4,22.7,28.3,34.9,0.0,1.0,0.0,0.0,0.0,0.0,0.0,3023.0,4634.0,3183.0,4421.0,316.9,312.3,347.2,344.0,23.45,22.74,26.59,26.07,325.0,325.0,355.0,355.0,99.78,99.72,99.92,99.87,0.82,0.89,0.38,0.54,0.0,-0.0,-0.2,-0.7,72.6,68.2,85.9,82.7,68.8,64.6,97.0,94.4,66.5,62.6,94.6,91.8,64.8,61.5,93.2,90.4,-1.22,1.19,0.08,0.06,0.0,94.21,95.0,86.04,86.43,356.7,7.7,0.5374941860150675,28.448035161552212,113.07193724744647,14.404068544271453,-10.803050981435689,0
1008,50.35,660.2,44.052548513320566,-78.67996990506589,6.8,28.6,-26.4,2.6,2231.4,2231.0,110.6,0.0,1.0,1.0,0.0,1.0,1.0,0.0,0.0,0.0,100.0,1.0,1.186,26.0,0.0,9.192,74.678,66.0,0.0,26.0,26.0,26.0,26.0,0.56,-0.22,0.03,384.9,-2.73,-2.36,-1.85,-1.13,-518.62,459.29,3.7,0.0,0.0,0.0,0.0,0.35,-7.49,-7.49,0.71,0.09,0.41,1.27,30.7,0.07,-0.37,-11.35,100.0,0.0,0.0,85.91,0.0,0.0,0.0,0.0,0.0,0.0,0.0,7384.0,0.0,30.0,2.0,110.6,1.0,0.0,0.0,0.0,0.0,0.0,0.0,0.0,50.384,50.384,74.679,35.607,1.0,110.0,435.8,8750.0,0.0,0.0,110.0,110.0,433.0,0.0,0.0,0.0,1.0,166.7,70.9,70.9,75.3,75.3,34.0,18.9,72.11,8.2,49.9,1.0,-127.64,-24.4,100.0,18.7,24.1,27.0,35.1,0.0,1.0,0.0,0.0,0.0,0.0,0.0,2939.0,4914.0,2980.0,4552.0,317.1,311.5,347.7,343.7,23.45,22.74,26.59,26.08,325.0,325.0,355.0,355.0,99.78,99.72,99.92,99.87,0.93,0.99,0.51,0.66,-0.0,-0.0,-0.3,-0.7,72.6,68.1,86.0,82.7,68.8,64.6,97.0,94.3,66.4,62.6,94.6,91.7,64.8,61.5,93.1,90.4,-1.39,1.37,0.09,0.06,0.0,93.76,94.73,85.65,86.17,356.7,7.7,0.6024118192731613,27.72783173433864,105.86990303221312,-3.6010172783237593,-111.63153079133608,0
1009,50.4,661.7,44.05254527576279,-78.67998186604325,-2.1,12.9,-14.3,7.0,2232.9,2233.0,110.2,0.0,1.0,1.0,0.0,1.0,1.0,0.0,0.0,0.0,100.0,1.0,1.186,26.0,0.0,9.201,74.678,66.0,0.0,26.0,26.0,26.0,26.0,0.65,-0.21,0.04,384.9,-2.76,-2.34,-1.89,-1.08,-519.95,458.93,3.8,0.0,0.0,0.0,0.0,0.36,-7.49,-7.49,0.74,0.54,0.45,0.85,30.6,0.09,-0.38,-12.94,100.0,0.0,0.0,85.66,0.0,0.0,0.0,0.0,0.0,0.0,0.0,7362.0,0.0,30.0,2.0,110.2,0.0,0.0,0.0,0.0,0.0,0.0,0.0,0.0,50.43,50.43,74.679,35.607,0.0,110.0,435.8,8750.0,0.0,0.0,110.0,110.0,433.0,0.0,0.0,0.0,1.0,333.3,71.0,71.0,75.3,75.3,34.0,20.08,76.94,11.9,58.1,1.0,-127.69,-27.2,100.0,18.6,24.7,26.3,35.4,0.0,1.0,0.0,0.0,0.0,0.0,0.0,2694.0,4943.0,2968.0,4755.0,317.8,311.4,347.8,343.2,23.45,22.74,26.59,26.08,325.0,325.0,355.0,355.0,99.78,99.72,99.92,99.87,1.07,1.12,0.62,0.78,0.0,-0.0,-0.3,-0.7,72.5,68.1,86.0,82.8,68.8,64.6,96.9,94.3,66.4,62.6,94.5,91.7,64.7,61.5,93.0,90.3,-1.56,1.53,0.08,0.05,0.0,93.41,94.52,85.33,85.99,356.7,7.7,0.6842514157822401,28.087933433719837,101.90878416831286,32.40915408235477,18.00508496905948,0
1010,50.45,663.2,44.052541498612044,-78.67999535586733,-5.2,3.5,-10.0,8.9,2234.4,2234.0,109.8,0.0,1.0,1.0,0.0,1.0,1.0,0.0,0.0,0.0,100.0,1.0,1.186,26.0,0.0,9.213,74.678,66.0,0.0,26.0,26.0,26.0,26.0,0.72,-0.21,-0.0,385.0,-2.77,-2.32,-1.93,-1.04,-521.45,458.51,3.8,0.0,0.0,0.0,0.0,0.36,-7.49,-7.49,0.77,0.62,0.47,0.67,30.49,0.12,-0.37,-14.57,100.0,0.0,0.0,85.35,0.0,0.0,0.0,0.0,0.0,0.0,0.0,7335.0,0.0,30.0,2.0,109.8,1.0,0.0,0.0,0.0,0.0,0.0,0.0,0.0,50.481,50.481,74.679,35.607,1.0,110.0,435.8,8750.0,0.0,0.0,110.0,110.0,433.0,0.0,0.0,0.0,1.0,166.7,71.3,71.3,75.2,75.2,34.0,21.14,82.42,15.5,65.3,1.0,-127.74,-30.5,100.0,18.4,24.9,25.8,35.9,0.0,1.0,0.0,0.0,0.0,0.0,0.0,2459.0,4978.0,2928.0,4845.0,318.4,311.3,347.9,343.0,23.44,22.74,26.6,26.08,325.0,325.0,355.0,355.0,99.78,99.73,99.92,99.87,1.25,1.28,0.75,0.91,0.0,-0.1,-0.3,-0.7,72.5,68.1,86.0,82.8,68.7,64.6,96.9,94.2,66.4,62.6,94.4,91.6,64.7,61.5,93.0,90.3,-1.75,1.72,0.09,0.06,0.0,93.01,94.23,84.96,85.73,356.7,7.7,0.75,30.968747142574117,107.67041152911906,28.8081370885428,18.00508553808342,0
