,Time,Distance,GPS Latitude,GPS Longitude,Damper Velocity (Calc) FL,Damper Velocity (Calc) FR,Damper Velocity (Calc) RL,Damper Velocity (Calc) RR,Corr Dist,Corr Dist (Unstretched),Corr Speed,ABS Active,ABS Enabled,AID Allow Tire Blankets,AID Auto Blip,AID Auto Clutch,AID Auto Shift,AID Fuel Rate,AID Ideal Line,AID Mech Damage,AID Stability,AID Tire Wear Rate,Air Density,Air Temp,Ballast,Best Lap Delta,Best Lap Time,Brake Bias,Brake Pos,Brake Temp FL,Brake Temp FR,Brake Temp RL,Brake Temp RR,CG Accel Lateral,CG Accel Longitudinal,CG Accel Vertical,CG Height,Camber FL,Camber FR,Camber RL,Camber RR,Car Coord X,Car Coord Y,Car Coord Z,Car Damage Front,Car Damage Left,Car Damage Rear,Car Damage Right,Car Pos Norm,Caster FL,Caster FR,Chassis Pitch Angle,Chassis Pitch Rate,Chassis Roll Angle,Chassis Roll Rate,Chassis Velocity X,Chassis Velocity Y,Chassis Velocity Z,Chassis Yaw Rate,Clutch Pos,DRS Active,DRS Available,Drive Train Speed,ERS Heat Charging,ERS Is Charging,ERS Max Energy,ERS Power Level,ERS Recovery Level,Engine Brake Setting,Engine Limiter,Engine RPM,Flags,Fuel Level,Gear,Ground Speed,HR Sample Clock,In Pit,KERS Charge,KERS Deployed Energy,KERS Input,KERS Max Energy,LR Sample Clock,Lap Invalidated,Lap Time,Lap Time2,Last Lap Time,Last Sector Time,MR Sample Clock,Max Fuel,Max Power,Max RPM,Max Sus Travel FL,Max Sus Travel FR,Max Sus Travel RL,Max Sus Travel RR,Max Torque,Max Turbo Boost,Num Tires Off Track,Penalties Enabled,Position,Raw Data Sample Rate,Ride Height FL,Ride Height FR,Ride Height RL,Ride Height RR,Road Temp,Self Align Torque FL,Self Align Torque FR,Self Align Torque RL,Self Align Torque RR,Session Lap Count,Session Time Left,Steering Angle,Surface Grip,Suspension Travel FL,Suspension Travel FR,Suspension Travel RL,Suspension Travel RR,TC Active,TC Enabled,Throttle Pos,Tire Dirt Level FL,Tire Dirt Level FR,Tire Dirt Level RL,Tire Dirt Level RR,Tire Load FL,Tire Load FR,Tire Load RL,Tire Load RR,Tire Loaded Radius FL,Tire Loaded Radius FR,Tire Loaded Radius RL,Tire Loaded Radius RR,Tire Pressure FL,Tire Pressure FR,Tire Pressure RL,Tire Pressure RR,Tire Radius FL,Tire Radius FR,Tire Radius RL,Tire Radius RR,Tire Rubber Grip FL,Tire Rubber Grip FR,Tire Rubber Grip RL,Tire Rubber Grip RR,Tire Slip Angle FL,Tire Slip Angle FR,Tire Slip Angle RL,Tire Slip Angle RR,Tire Slip Ratio FL,Tire Slip Ratio FR,Tire Slip Ratio RL,Tire Slip Ratio RR,Tire Temp Core FL,Tire Temp Core FR,Tire Temp Core RL,Tire Temp Core RR,Tire Temp Inner FL,Tire Temp Inner FR,Tire Temp Inner RL,Tire Temp Inner RR,Tire Temp Middle FL,Tire Temp Middle FR,Tire Temp Middle RL,Tire Temp Middle RR,Tire Temp Outer FL,Tire Temp Outer FR,Tire Temp Outer RL,Tire Temp Outer RR,Toe In FL,Toe In FR,Toe In RL,Toe In RR,Turbo Boost,Wheel Angular Speed FL,Wheel Angular Speed FR,Wheel Angular Speed RL,Wheel Angular Speed RR,Wind Direction,Wind Speed,CG Distance,Lateral Velocity,Longitudinal Velocity,Lateral Acceleration,Longitudinal Acceleration,level
200,9.95,317.0,44.05350359286606,-78.68018547245482,57.9,69.7,-200.1,-286.5,1888.3,1888.0,126.1,0.0,1.0,1.0,0.0,1.0,1.0,0.0,0.0,0.0,100.0,1.0,1.186,26.0,0.0,-20.271,74.678,66.0,0.0,26.0,26.0,26.0,26.0,-0.13,0.58,-0.18,391.6,-2.49,-2.2,-1.13,-1.52,-542.59,565.49,5.5,0.0,0.0,0.0,0.0,0.18,-7.49,-7.49,-0.97,-5.98,1.35,0.38,35.05,-0.04,-0.33,2.97,100.0,0.0,0.0,102.63,0.0,0.0,0.0,0.0,0.0,0.0,0.0,6880.0,0.0,30.0,3.0,126.1,1.0,0.0,0.0,0.0,0.0,0.0,1.0,0.0,9.981,9.981,74.679,19.926,1.0,110.0,435.8,8750.0,0.0,0.0,110.0,110.0,433.0,0.0,0.0,0.0,1.0,333.3,81.8,81.8,83.1,83.1,34.0,-25.76,5.21,-7.8,3.8,1.0,-87.24,4.3,100.0,12.3,11.9,25.8,24.5,0.0,1.0,100.0,0.0,0.0,0.0,0.0,3504.0,3560.0,2804.0,4032.0,316.1,315.6,347.8,344.4,24.61,23.46,25.31,24.66,325.0,325.0,355.0,355.0,99.71,99.68,99.69,99.67,-0.3,-0.15,-0.28,-0.09,-0.1,-0.1,4.4,4.8,79.8,72.6,77.9,73.8,83.9,85.1,81.0,79.2,81.1,81.8,79.3,77.6,79.2,80.0,78.4,77.1,0.27,-0.27,0.09,0.08,0.0,107.49,107.26,102.63,102.63,356.7,7.7,0.6210475022089695,36.01017110461793,123.51488687091532,-2.845117563765598e-07,18.00508553808342,0
201,10.0,318.8,44.053508089474086,-78.6801700041232,133.0,161.4,-16.5,-13.0,1890.0,1890.0,127.1,0.0,1.0,1.0,0.0,1.0,1.0,0.0,0.0,0.0,100.0,1.0,1.186,26.0,0.0,-20.271,74.678,66.0,0.0,26.0,26.0,26.0,26.0,-0.15,0.61,0.14,385.8,-2.28,-2.81,-1.43,-1.3,-540.87,565.99,5.5,0.0,0.0,0.0,0.0,0.18,-7.49,-7.49,-1.09,1.15,1.18,-4.79,35.31,-0.07,-0.37,3.69,100.0,0.0,0.0,102.85,0.0,0.0,0.0,0.0,0.0,0.0,0.0,6894.0,0.0,30.0,3.0,127.1,0.0,0.0,0.0,0.0,0.0,0.0,1.0,0.0,10.031,10.031,74.679,19.926,0.0,110.0,435.8,8750.0,0.0,0.0,110.0,110.0,433.0,0.0,0.0,0.0,1.0,333.3,71.3,71.3,78.9,78.9,34.0,-34.27,15.62,-18.7,2.9,1.0,-87.29,4.1,100.0,19.0,20.0,25.0,23.8,0.0,1.0,100.0,0.0,0.0,0.0,0.0,4783.0,4563.0,4299.0,3502.0,312.8,312.7,344.1,345.7,24.61,23.47,25.31,24.66,325.0,325.0,355.0,355.0,99.71,99.68,99.69,99.67,-0.26,-0.09,-0.31,-0.09,-0.1,-0.1,3.7,3.9,79.8,72.7,77.9,73.9,83.8,85.0,80.9,79.1,81.1,81.7,79.2,77.6,79.1,79.9,78.4,77.1,0.24,-0.24,0.09,0.08,0.0,108.66,108.27,102.84,102.84,356.7,7.7,0.6435837163881635,34.92986594957199,120.99417486144219,-10.803051550459415,-14.404069113295463,0
202,10.05,320.6,44.053512316285634,-78.68015525524886,170.8,110.6,154.9,65.2,1891.8,1892.0,128.0,0.0,1.0,1.0,0.0,1.0,1.0,0.0,0.0,0.0,100.0,1.0,1.186,26.0,0.0,-20.271,74.678,66.0,0.0,26.0,26.0,26.0,26.0,-0.24,0.46,0.43,377.8,-2.4,-4.53,-1.6,-0.96,-539.23,566.46,5.5,0.0,0.0,0.0,0.0,0.18,-7.49,-7.49,-0.84,8.92,1.06,-1.28,35.56,-0.09,-0.33,3.83,100.0,0.0,0.0,102.73,0.0,0.0,0.0,0.0,0.0,0.0,0.0,6887.0,0.0,30.0,3.0,128.0,1.0,0.0,0.0,0.0,0.0,0.0,1.0,0.0,10.08,10.08,74.679,19.926,1.0,110.0,435.8,8750.0,0.0,0.0,110.0,110.0,433.0,0.0,0.0,0.0,1.0,166.7,62.7,62.7,72.2,72.2,34.0,-47.24,24.25,-32.2,-1.2,1.0,-87.34,4.1,100.0,27.5,25.5,32.7,27.1,0.0,1.0,100.0,0.0,0.0,0.0,0.0,5888.0,4711.0,4726.0,4712.0,309.9,312.1,342.9,343.2,24.61,23.47,25.31,24.66,325.0,325.0,355.0,355.0,99.71,99.68,99.69,99.67,-0.28,-0.16,-0.37,-0.17,-0.1,-0.1,2.3,2.7,79.8,72.7,77.9,73.9,83.8,85.0,80.9,79.1,81.0,81.7,79.2,77.6,79.1,79.9,78.4,77.0,0.25,-0.23,0.08,0.08,0.0,109.7,109.3,102.73,102.73,356.7,7.7,0.6738694235532577,34.92986594957199,122.07447995958577,10.803051265947659,57.6162736080623,0
203,10.1,322.4,44.05351681289366,-78.68013951712076,-7.4,-19.3,198.8,213.9,1893.6,1894.0,128.9,0.0,1.0,1.0,0.0,1.0,1.0,0.0,0.0,0.0,100.0,1.0,1.186,26.0,0.0,-20.268,74.678,66.0,0.0,26.0,26.0,26.0,26.0,-0.23,0.54,0.31,374.2,-2.24,-1.96,-1.4,-2.49,-537.48,566.96,5.5,0.0,0.0,0.0,0.0,0.19,-7.49,-7.49,-0.29,10.29,0.99,-0.75,35.83,-0.08,-0.17,3.48,100.0,0.0,0.0,102.98,0.0,0.0,0.0,0.0,0.0,0.0,0.0,6903.0,0.0,30.0,3.0,128.9,0.0,0.0,0.0,0.0,0.0,0.0,0.0,0.0,10.131,10.131,74.679,19.926,0.0,110.0,435.8,8750.0,0.0,0.0,110.0,110.0,433.0,0.0,0.0,0.0,1.0,333.3,69.4,69.4,58.6,58.6,34.0,-22.82,-0.1,-45.7,15.9,1.0,-87.39,4.1,100.0,27.2,24.6,42.7,37.8,0.0,1.0,100.0,0.0,0.0,0.0,0.0,3610.0,2592.0,6322.0,6075.0,315.8,317.9,338.9,339.2,24.61,23.47,25.31,24.66,325.0,325.0,355.0,355.0,99.71,99.68,99.69,99.67,-0.23,-0.23,-0.35,-0.18,-0.0,-0.0,1.8,2.1,79.8,72.7,77.9,73.9,83.8,84.9,80.9,79.1,81.0,81.7,79.2,77.6,79.1,79.8,78.4,77.0,0.24,-0.24,0.05,0.05,0.0,110.38,110.08,102.98,102.98,356.7,7.7,0.6637770710110437,36.010171076166756,126.75580222224842,7.202034272135691,57.61627417708581,0
204,10.15,324.2,44.05352130950169,-78.68012359912834,-204.9,-147.7,173.1,162.6,1895.4,1895.0,129.9,0.0,1.0,1.0,0.0,1.0,1.0,0.0,0.0,0.0,100.0,1.0,1.186,26.0,0.0,-20.268,74.678,66.0,0.0,26.0,26.0,26.0,26.0,-0.29,0.53,0.09,375.3,-2.92,-2.3,-1.65,-1.57,-535.71,567.46,5.5,0.0,0.0,0.0,0.0,0.19,-7.49,-7.49,-0.03,-0.14,1.03,0.46,36.1,-0.07,-0.13,2.74,100.0,0.0,0.0,103.41,0.0,0.0,0.0,0.0,0.0,0.0,0.0,6932.0,0.0,30.0,3.0,129.9,1.0,0.0,0.0,0.0,0.0,0.0,0.0,0.0,10.181,10.181,74.679,19.926,1.0,110.0,435.8,8750.0,0.0,0.0,110.0,110.0,433.0,0.0,0.0,0.0,1.0,333.3,79.9,79.9,48.5,48.5,34.0,-24.24,-1.02,-49.2,1.8,1.0,-87.44,4.7,100.0,16.9,17.2,51.3,45.9,0.0,1.0,100.0,0.0,0.0,0.0,0.0,3207.0,2052.0,6782.0,6143.0,317.1,319.2,337.6,339.2,24.61,23.48,25.31,24.66,325.0,325.0,355.0,355.0,99.71,99.68,99.69,99.67,-0.3,-0.31,-0.28,-0.21,-0.1,-0.0,1.7,2.0,79.8,72.7,78.0,73.9,83.7,84.9,80.9,79.1,81.0,81.6,79.2,77.6,79.0,79.8,78.4,77.0,0.27,-0.29,0.01,0.03,0.0,110.79,110.63,103.41,103.41,356.7,7.7,0.6108191221630181,35.65006937678556,127.83610737729435,-18.005085253571593,-21.60610253189546,0
205,10.2,326.0,44.05352571617756,-78.68010759120375,2.7,15.8,-99.6,-105.7,1897.2,1897.0,130.8,0.0,1.0,1.0,0.0,1.0,1.0,0.0,0.0,0.0,100.0,1.0,1.186,26.0,0.0,-20.265,74.678,66.0,0.0,26.0,26.0,26.0,26.0,-0.15,0.47,-0.08,380.7,-2.67,-2.32,-0.75,-1.8,-533.93,567.95,5.5,0.0,0.0,0.0,0.0,0.19,-7.49,-7.49,-0.18,-3.83,0.94,-2.61,36.34,-0.05,-0.28,2.72,100.0,0.0,0.0,104.94,0.0,0.0,0.0,0.0,0.0,0.0,0.0,7035.0,0.0,30.0,3.0,130.8,0.0,0.0,0.0,0.0,0.0,0.0,0.0,0.0,10.233,10.233,74.679,19.926,0.0,110.0,435.8,8750.0,0.0,0.0,110.0,110.0,433.0,0.0,0.0,0.0,1.0,166.7,78.7,78.7,58.0,58.0,34.0,-20.26,0.63,-14.3,4.7,1.0,-87.49,5.3,100.0,17.1,18.0,46.3,40.6,0.0,1.0,100.0,0.0,0.0,0.0,0.0,2907.0,2769.0,4365.0,3305.0,317.7,317.7,343.1,346.4,24.61,23.48,25.31,24.66,325.0,325.0,355.0,355.0,99.71,99.68,99.69,99.67,-0.28,-0.25,-0.19,-0.13,-0.1,-0.0,2.5,2.7,79.8,72.8,78.0,73.9,83.7,84.8,80.9,79.1,80.9,81.6,79.2,77.5,79.0,79.7,78.4,77.0,0.31,-0.32,0.04,0.04,0.0,111.4,111.22,104.94,104.94,356.7,7.7,0.49979995998399196,34.2096625508096,124.59519196905887,-10.803051265947587,-21.606103100919256,0
206,10.25,327.8,44.05352985305695,-78.68009248260077,54.2,-106.3,-193.2,-125.3,1899.1,1899.0,131.6,0.0,1.0,1.0,0.0,1.0,1.0,0.0,0.0,0.0,100.0,1.0,1.186,26.0,0.0,-20.265,74.678,66.0,0.0,26.0,26.0,26.0,26.0,-0.19,0.49,-0.09,385.1,-1.6,-3.12,-0.68,-2.28,-532.25,568.41,5.5,0.0,0.0,0.0,0.0,0.19,-7.49,-7.49,-0.34,-3.21,0.91,3.73,36.58,-0.06,-0.31,3.57,100.0,0.0,0.0,105.54,0.0,0.0,0.0,0.0,0.0,0.0,0.0,7075.0,0.0,30.0,3.0,131.6,1.0,0.0,0.0,0.0,0.0,0.0,0.0,0.0,10.281,10.281,74.679,19.926,1.0,110.0,435.8,8750.0,0.0,0.0,110.0,110.0,433.0,0.0,0.0,0.0,1.0,166.7,80.5,80.5,76.4,76.4,34.0,-27.95,0.01,-19.4,7.8,1.0,-87.54,5.9,100.0,19.8,12.7,36.7,34.4,0.0,1.0,100.0,0.0,0.0,0.0,0.0,3941.0,800.0,4443.0,4320.0,314.4,322.6,343.9,343.5,24.61,23.48,25.31,24.66,325.0,325.0,355.0,355.0,99.71,99.68,99.69,99.67,-0.35,-0.36,-0.32,-0.17,-0.1,-0.1,2.6,2.9,79.8,72.8,78.0,73.9,83.6,84.8,80.9,79.1,80.9,81.5,79.2,77.5,78.9,79.7,78.4,77.0,0.33,-0.35,0.08,0.05,0.0,112.32,111.81,105.53,105.53,356.7,7.7,0.5331978994707313,34.5697642501908,125.67549706720243,3.601016709300211,21.60610253189546,0
207,10.3,329.7,44.05353434966498,-78.68007620487971,-4.7,6.6,-110.4,-0.4,1900.9,1901.0,132.5,0.0,1.0,1.0,0.0,1.0,1.0,0.0,0.0,0.0,100.0,1.0,1.186,26.0,0.0,-20.265,74.678,66.0,0.0,26.0,26.0,26.0,26.0,-0.25,0.45,-0.22,387.1,-3.3,-2.08,-0.55,-1.14,-530.44,568.91,5.5,0.0,0.0,0.0,0.0,0.19,-7.49,-7.49,-0.51,-3.05,1.19,3.59,36.82,-0.06,-0.36,3.62,100.0,0.0,0.0,106.65,0.0,0.0,0.0,0.0,0.0,0.0,0.0,7149.0,0.0,30.0,3.0,132.5,0.0,0.0,0.0,0.0,0.0,0.0,0.0,0.0,10.331,10.331,74.679,19.926,0.0,110.0,435.8,8750.0,0.0,0.0,110.0,110.0,433.0,0.0,0.0,0.0,1.0,333.3,79.4,79.4,79.6,79.6,34.0,-28.19,-2.88,-15.1,-1.6,1.0,-87.59,6.3,100.0,19.5,13.0,31.1,34.3,0.0,1.0,100.0,0.0,0.0,0.0,0.0,3126.0,2764.0,3629.0,3077.0,316.9,318.3,345.3,346.6,24.61,23.49,25.31,24.67,325.0,325.0,355.0,355.0,99.71,99.68,99.69,99.67,-0.38,-0.34,-0.36,-0.24,-0.1,-0.1,2.8,3.1,79.8,72.8,78.0,73.9,83.6,84.7,80.9,79.1,80.8,81.4,79.2,77.5,78.9,79.6,78.3,77.0,0.36,-0.37,0.09,0.06,0.0,112.92,112.66,106.65,106.65,356.7,7.7,0.5598214000911362,34.56976422173962,126.75580222224842,-7.202034272135833,21.606103100919256,0
208,10.35,331.5,44.05353848654436,-78.68006082648024,-87.3,59.0,19.1,-137.8,1902.7,1903.0,133.4,0.0,1.0,1.0,0.0,1.0,1.0,0.0,0.0,0.0,100.0,1.0,1.186,26.0,0.0,-20.262,74.678,66.0,0.0,26.0,26.0,26.0,26.0,-0.3,0.56,0.0,385.6,-2.86,-2.69,-0.53,-2.45,-528.73,569.37,5.5,0.0,0.0,0.0,0.0,0.19,-7.49,-7.49,-0.62,-1.84,1.38,3.42,37.06,-0.08,-0.34,4.73,100.0,0.0,0.0,107.03,0.0,0.0,0.0,0.0,0.0,0.0,0.0,7175.0,0.0,30.0,3.0,133.4,1.0,0.0,0.0,0.0,0.0,0.0,0.0,0.0,10.38,10.38,74.679,19.926,1.0,110.0,435.8,8750.0,0.0,0.0,110.0,110.0,433.0,0.0,0.0,0.0,1.0,333.3,77.6,77.6,69.4,69.4,34.0,-40.43,0.23,-29.0,3.7,1.0,-87.64,6.4,100.0,15.2,15.9,32.1,27.5,0.0,1.0,100.0,0.0,0.0,0.0,0.0,4200.0,4015.0,5377.0,3798.0,314.7,314.5,340.7,345.1,24.61,23.49,25.31,24.67,325.0,325.0,355.0,355.0,99.71,99.68,99.69,99.67,-0.46,-0.3,-0.44,-0.27,-0.2,-0.1,2.9,3.2,79.8,72.8,78.0,73.9,83.5,84.6,80.9,79.1,80.8,81.4,79.2,77.5,78.9,79.6,78.3,77.0,0.37,-0.38,0.08,0.07,0.0,113.81,113.51,107.03,107.03,356.7,7.7,0.6352952069707437,33.84956082297722,127.83610737729435,2.8451182743083336e-07,57.616273608062016,0
209,10.4,333.4,44.053542803288074,-78.6800442789627,77.2,98.6,-23.1,38.7,1904.6,1905.0,134.2,0.0,1.0,1.0,0.0,1.0,1.0,0.0,0.0,0.0,100.0,1.0,1.186,26.0,0.0,-20.262,74.678,66.0,0.0,26.0,26.0,26.0,26.0,-0.22,0.5,-0.04,385.8,-2.93,-2.35,-1.32,-1.29,-526.89,569.85,5.5,0.0,0.0,0.0,0.0,0.19,-7.49,-7.49,-0.6,2.35,1.33,-5.71,37.3,-0.11,-0.34,4.63,100.0,0.0,0.0,108.01,0.0,0.0,0.0,0.0,0.0,0.0,0.0,7241.0,0.0,30.0,3.0,134.2,0.0,0.0,0.0,0.0,0.0,0.0,0.0,0.0,10.431,10.431,74.679,19.926,0.0,110.0,435.8,8750.0,0.0,0.0,110.0,110.0,433.0,0.0,0.0,0.0,1.0,333.3,75.7,75.7,74.2,74.2,34.0,-26.77,-0.15,-21.6,-0.3,1.0,-87.69,5.3,100.0,19.0,20.9,30.9,29.4,0.0,1.0,100.0,0.0,0.0,0.0,0.0,3340.0,2469.0,3846.0,3389.0,316.4,318.3,344.5,345.9,24.61,23.49,25.31,24.67,325.0,325.0,355.0,355.0,99.71,99.68,99.69,99.67,-0.32,-0.28,-0.36,-0.21,-0.1,-0.0,2.6,3.1,79.8,72.8,78.0,73.9,83.5,84.6,80.9,79.1,80.7,81.3,79.2,77.5,78.8,79.5,78.3,77.0,0.33,-0.33,0.07,0.07,0.0,114.69,114.25,108.01,108.01,356.7,7.7,0.5477225575051661,34.5697642501908,132.51742958305462,10.80305126594773,54.01525661425012,0
210,10.45,335.3,44.05354712003178,-78.68002773144515,-21.8,-53.4,179.3,40.7,1906.5,1906.0,135.2,0.0,1.0,1.0,0.0,1.0,1.0,0.0,0.0,0.0,100.0,1.0,1.186,26.0,0.0,-20.262,74.678,66.0,0.0,26.0,26.0,26.0,26.0,-0.26,0.52,0.2,380.8,-1.81,-1.47,-1.29,-1.6,-525.05,570.33,5.5,0.0,0.0,0.0,0.0,0.19,-7.49,-7.49,-0.5,0.83,0.95,-6.95,37.56,-0.14,-0.26,4.19,100.0,0.0,0.0,107.76,0.0,0.0,0.0,0.0,0.0,0.0,0.0,7224.0,0.0,30.0,3.0,135.2,1.0,0.0,0.0,0.0,0.0,0.0,0.0,0.0,10.481,10.481,74.679,19.926,1.0,110.0,435.8,8750.0,0.0,0.0,110.0,110.0,433.0,0.0,0.0,0.0,1.0,333.3,75.9,75.9,61.8,61.8,34.0,-22.52,0.63,-42.0,2.3,1.0,-87.74,2.5,100.0,17.9,18.2,39.9,31.4,0.0,1.0,100.0,0.0,0.0,0.0,0.0,3916.0,3296.0,5716.0,5157.0,314.5,316.2,340.2,341.6,24.61,23.49,25.32,24.67,325.0,325.0,355.0,355.0,99.71,99.68,99.69,99.67,-0.22,-0.15,-0.4,-0.21,-0.1,-0.0,2.0,2.2,79.8,72.8,78.0,73.9,83.4,84.5,80.9,79.1,80.7,81.3,79.1,77.5,78.8,79.5,78.3,77.0,0.18,-0.18,0.05,0.07,0.0,115.49,115.09,107.76,107.76,356.7,7.7,0.6148170459575759,34.92986594957199,133.23763303871937,-10.80305126594773,-18.005084969059908,0
211,10.5,337.1,44.05355152670765,-78.68001100406327,130.1,-13.6,-7.0,-9.4,1908.4,1908.0,136.0,0.0,1.0,1.0,0.0,1.0,1.0,0.0,0.0,0.0,100.0,1.0,1.186,26.0,0.0,-20.259,74.678,66.0,0.0,26.0,26.0,26.0,26.0,-0.25,0.34,-0.14,382.5,-2.22,-2.69,-1.86,-0.76,-523.19,570.82,5.5,0.0,0.0,0.0,0.0,0.19,-7.49,-7.49,-0.46,1.74,0.81,3.56,37.79,-0.15,-0.28,3.79,100.0,0.0,0.0,109.53,0.0,0.0,0.0,0.0,0.0,0.0,0.0,7342.0,0.0,30.0,3.0,136.0,0.0,0.0,0.0,0.0,0.0,0.0,0.0,0.0,10.533,10.533,74.679,19.926,0.0,110.0,435.8,8750.0,0.0,0.0,110.0,110.0,433.0,0.0,0.0,0.0,1.0,166.7,73.4,73.4,74.3,74.3,34.0,-38.62,0.91,-31.2,-6.2,1.0,-87.79,1.2,100.0,24.4,17.5,39.6,31.0,0.0,1.0,100.0,0.0,0.0,0.0,0.0,5529.0,925.0,4405.0,3555.0,311.1,321.9,344.3,347.0,24.61,23.5,25.32,24.67,325.0,325.0,355.0,355.0,99.71,99.68,99.69,99.67,-0.24,-0.22,-0.45,-0.33,-0.1,-0.1,2.7,3.0,79.8,72.9,78.0,73.9,83.4,84.5,80.8,79.1,80.6,81.2,79.1,77.5,78.7,79.4,78.3,76.9,0.07,-0.09,0.07,0.07,0.0,116.13,115.74,109.52,109.52,356.7,7.7,0.44463468150831426,33.48945912359603,130.71692108614863,-18.00508553808335,-14.404068544271524,0
212,10.55,339.1,44.05355548372272,-78.67999508607085,23.5,10.1,-32.1,155.7,1910.3,1910.0,136.9,0.0,1.0,1.0,0.0,1.0,1.0,0.0,0.0,0.0,100.0,1.0,1.186,26.0,0.0,-20.259,74.678,66.0,0.0,26.0,26.0,26.0,26.0,-0.33,0.55,0.43,375.6,-2.66,-2.6,-1.98,-1.52,-521.42,571.26,5.5,0.0,0.0,0.0,0.0,0.19,-7.49,-7.49,-0.37,2.03,1.07,4.15,38.04,-0.11,-0.28,1.86,100.0,0.0,0.0,109.07,0.0,0.0,0.0,0.0,0.0,0.0,0.0,7311.0,0.0,30.0,3.0,136.9,1.0,0.0,0.0,0.0,0.0,0.0,0.0,0.0,10.581,10.581,74.679,19.926,1.0,110.0,435.8,8750.0,0.0,0.0,110.0,110.0,433.0,0.0,0.0,0.0,1.0,166.7,68.4,68.4,67.2,67.2,34.0,-43.1,10.02,-60.6,-0.7,1.0,-87.84,-0.5,100.0,25.6,18.0,38.0,38.7,0.0,1.0,100.0,0.0,0.0,0.0,0.0,5899.0,3753.0,6722.0,4984.0,309.3,315.3,337.7,341.7,24.61,23.5,25.32,24.67,325.0,325.0,355.0,355.0,99.71,99.68,99.69,99.67,-0.18,-0.11,-0.41,-0.24,-0.1,-0.1,2.0,2.2,79.8,72.9,78.0,74.0,83.4,84.4,80.8,79.1,80.6,81.2,79.1,77.5,78.7,79.4,78.3,76.9,-0.0,-0.0,0.06,0.04,0.0,116.99,116.71,109.07,109.07,356.7,7.7,0.7722046360907192,33.129357395763655,131.7972261842922,-2.8451182743083336e-07,14.40406797524787,0
213,10.6,341.0,44.053559800466424,-78.6799780888925,-195.2,5.6,48.5,-38.2,1912.2,1912.0,137.7,0.0,1.0,1.0,0.0,1.0,1.0,0.0,0.0,0.0,100.0,1.0,1.186,26.0,0.0,-20.259,74.678,66.0,0.0,26.0,26.0,26.0,26.0,-0.1,0.48,-0.16,382.5,-2.65,-1.99,-1.71,-1.42,-519.53,571.74,5.5,0.0,0.0,0.0,0.0,0.2,-7.49,-7.49,-0.28,-0.12,1.38,5.21,38.28,-0.06,-0.24,0.07,100.0,0.0,0.0,110.11,0.0,0.0,0.0,0.0,0.0,0.0,0.0,7381.0,0.0,30.0,3.0,137.7,0.0,0.0,0.0,0.0,0.0,0.0,1.0,0.0,10.631,10.631,74.679,19.926,0.0,110.0,435.8,8750.0,0.0,0.0,110.0,110.0,433.0,0.0,0.0,0.0,1.0,333.3,80.2,80.2,62.8,62.8,34.0,-9.77,6.12,-24.0,5.9,1.0,-87.89,-2.7,100.0,15.9,18.3,40.4,36.8,0.0,1.0,100.0,0.0,0.0,0.0,0.0,2651.0,2401.0,4351.0,5397.0,318.7,318.6,343.5,341.3,24.61,23.5,25.32,24.67,325.0,325.0,355.0,355.0,99.71,99.68,99.69,99.67,-0.0,-0.02,-0.24,-0.12,-0.1,-0.1,2.3,2.4,79.8,72.9,78.0,74.0,83.3,84.4,80.8,79.0,80.5,81.1,79.1,77.5,78.6,79.3,78.3,76.9,-0.15,0.14,0.06,0.06,0.0,117.24,117.37,110.11,110.11,356.7,7.7,0.5157518783291051,33.489459095144845,132.15732788367342,0.0,10.803050981435831,0
214,10.65,342.9,44.05356384741365,-78.67996208096791,-20.6,9.6,-10.3,80.9,1914.1,1914.0,138.6,0.0,1.0,1.0,0.0,1.0,1.0,0.0,0.0,0.0,100.0,1.0,1.186,26.0,0.0,-20.259,74.678,66.0,0.0,26.0,26.0,26.0,26.0,0.04,0.36,-0.04,382.1,-2.46,-2.25,-1.77,-1.16,-517.75,572.19,5.5,0.0,0.0,0.0,0.0,0.2,-7.49,-7.49,-0.39,-3.96,1.42,-3.04,38.5,-0.03,-0.34,-1.63,100.0,0.0,0.0,110.91,0.0,0.0,0.0,0.0,0.0,0.0,0.0,7435.0,0.0,30.0,3.0,138.6,1.0,0.0,0.0,0.0,0.0,0.0,1.0,0.0,10.68,10.68,74.679,19.926,1.0,110.0,435.8,8750.0,0.0,0.0,110.0,110.0,433.0,0.0,0.0,0.0,1.0,333.3,78.0,78.0,62.6,62.6,34.0,-4.4,27.1,-10.4,10.3,1.0,-87.94,-4.5,100.0,14.8,18.8,39.9,40.9,0.0,1.0,100.0,0.0,0.0,0.0,0.0,2344.0,4444.0,3429.0,3947.0,319.0,313.4,346.0,344.6,24.61,23.51,25.32,24.68,325.0,325.0,355.0,355.0,99.71,99.68,99.7,99.67,0.13,0.19,-0.02,0.06,-0.1,-0.1,2.3,2.3,79.8,72.9,78.0,74.0,83.2,84.3,80.8,79.0,80.5,81.1,79.1,77.4,78.6,79.3,78.3,76.9,-0.24,0.23,0.06,0.04,0.0,117.89,118.05,110.91,110.91,356.7,7.7,0.3644173431657719,33.129357395763655,132.8775312824358,10.803051550459557,61.21729060187391,0
215,10.7,344.8,44.0535680742252,-78.67994490392525,7.9,-44.9,-157.1,-165.3,1916.0,1916.0,139.4,0.0,1.0,1.0,0.0,1.0,1.0,0.0,0.0,0.0,100.0,1.0,1.186,26.0,0.0,-20.259,74.678,66.0,0.0,26.0,26.0,26.0,26.0,0.09,0.44,-0.28,387.7,-2.7,-2.4,-1.37,-1.61,-515.84,572.66,5.5,0.0,0.0,0.0,0.0,0.2,-7.49,-7.49,-0.5,-2.08,1.17,-3.73,38.73,0.02,-0.32,-2.3,100.0,0.0,0.0,111.87,0.0,0.0,0.0,0.0,0.0,0.0,0.0,7499.0,0.0,30.0,3.0,139.4,0.0,0.0,0.0,0.0,0.0,0.0,1.0,0.0,10.731,10.731,74.679,19.926,0.0,110.0,435.8,8750.0,0.0,0.0,110.0,110.0,433.0,0.0,0.0,0.0,1.0,333.3,82.0,82.0,72.7,72.7,34.0,-0.16,13.71,-6.0,19.1,1.0,-87.99,-5.8,100.0,15.2,16.5,32.0,32.6,0.0,1.0,100.0,0.0,0.0,0.0,0.0,1915.0,2085.0,4182.0,4112.0,320.0,318.9,344.9,344.6,24.61,23.51,25.32,24.68,325.0,325.0,355.0,355.0,99.71,99.68,99.7,99.67,0.3,0.29,0.06,0.22,-0.0,-0.1,2.9,2.6,79.8,72.9,78.0,74.0,83.2,84.3,80.8,79.0,80.4,81.0,79.1,77.4,78.5,79.2,78.3,76.9,-0.34,0.33,0.08,0.06,0.0,118.6,118.74,111.87,111.87,356.7,7.7,0.5292447448959696,34.5697642501908,138.2790569438608,10.803051550459415,21.606103100919256,0
216,10.75,346.8,44.05357248090107,-78.67992754701825,96.8,89.6,13.5,9.2,1918.0,1918.0,140.3,0.0,1.0,1.0,0.0,1.0,1.0,0.0,0.0,0.0,100.0,1.0,1.186,26.0,0.0,-20.256,74.678,66.0,0.0,26.0,26.0,26.0,26.0,0.17,0.44,0.19,383.1,-2.4,-3.04,-1.78,-1.86,-513.91,573.15,5.5,0.0,0.0,0.0,0.0,0.2,-7.49,-7.49,-0.56,0.28,1.13,0.71,38.97,0.04,-0.39,-3.24,100.0,0.0,0.0,112.35,0.0,0.0,0.0,0.0,0.0,0.0,0.0,7531.0,0.0,30.0,3.0,140.3,1.0,0.0,0.0,0.0,0.0,0.0,1.0,0.0,10.781,10.781,74.679,19.926,1.0,110.0,435.8,8750.0,0.0,0.0,110.0,110.0,433.0,0.0,0.0,0.0,1.0,333.3,73.1,73.1,72.5,72.5,34.0,-1.42,29.88,-7.3,21.3,1.0,-88.04,-6.1,100.0,20.1,21.0,32.7,33.1,0.0,1.0,100.0,0.0,0.0,0.0,0.0,3436.0,3576.0,3491.0,3931.0,315.9,314.9,345.6,344.1,24.61,23.51,25.32,24.68,325.0,325.0,355.0,355.0,99.71,99.68,99.7,99.67,0.25,0.3,0.07,0.21,-0.1,-0.1,2.6,2.3,79.8,72.9,78.0,74.0,83.1,84.2,80.8,79.0,80.4,81.0,79.1,77.4,78.5,79.2,78.2,76.9,-0.35,0.34,0.09,0.06,0.0,119.43,119.68,112.34,112.34,356.7,7.7,0.5085272854036448,34.2096625508096,135.03814159252772,0.0,-28.808136519519394,0
217,10.8,348.7,44.05357661778046,-78.67991117936502,39.8,9.1,-19.0,8.9,1920.0,1920.0,141.1,0.0,1.0,1.0,0.0,1.0,1.0,0.0,0.0,0.0,100.0,1.0,1.186,26.0,0.0,-20.256,74.678,66.0,0.0,26.0,26.0,26.0,26.0,0.15,0.63,0.29,378.1,-3.04,-1.6,-0.84,-1.63,-512.09,573.61,5.5,0.0,0.0,0.0,0.0,0.2,-7.49,-7.49,-0.46,3.79,1.3,5.92,39.2,0.1,-0.3,-4.13,100.0,0.0,0.0,112.3,0.0,0.0,0.0,0.0,0.0,0.0,0.0,7528.0,0.0,30.0,3.0,141.1,0.0,0.0,0.0,0.0,0.0,0.0,1.0,0.0,10.83,10.83,74.679,19.926,0.0,110.0,435.8,8750.0,0.0,0.0,110.0,110.0,433.0,0.0,0.0,0.0,1.0,333.3,68.8,68.8,68.5,68.5,34.0,-7.77,37.02,-0.8,49.3,1.0,-88.09,-5.8,100.0,22.1,21.5,31.7,33.5,0.0,1.0,100.0,0.0,0.0,0.0,0.0,4402.0,5180.0,5355.0,6879.0,313.8,311.2,341.0,336.9,24.61,23.51,25.32,24.68,325.0,325.0,355.0,355.0,99.71,99.68,99.7,99.67,0.23,0.33,0.12,0.31,-0.1,-0.1,2.4,2.2,79.8,73.0,78.0,74.0,83.1,84.2,80.8,79.0,80.3,80.9,79.1,77.4,78.4,79.1,78.2,76.9,-0.33,0.33,0.08,0.06,0.0,120.23,120.67,112.3,112.3,356.7,7.7,0.7095773389842717,34.5697642501908,135.39824329190887,32.409153797842976,93.62644468422872,0
218,10.85,350.7,44.053581114388486,-78.67989373252587,-75.1,31.7,54.9,120.8,1921.9,1922.0,141.9,0.0,1.0,1.0,0.0,1.0,1.0,0.0,0.0,0.0,100.0,1.0,1.186,26.0,0.0,-20.256,74.678,66.0,0.0,26.0,26.0,26.0,26.0,0.26,0.55,0.05,379.8,-2.21,-2.38,-0.8,-1.15,-510.15,574.11,5.5,0.0,0.0,0.0,0.0,0.2,-7.49,-7.49,-0.29,2.85,1.49,1.25,39.43,0.13,-0.25,-4.06,100.0,0.0,0.0,113.32,0.0,0.0,0.0,0.0,0.0,0.0,0.0,7597.0,0.0,30.0,3.0,141.9,1.0,0.0,0.0,0.0,0.0,0.0,1.0,0.0,10.881,10.881,74.679,19.926,1.0,110.0,435.8,8750.0,0.0,0.0,110.0,110.0,433.0,0.0,0.0,0.0,1.0,333.3,75.1,75.1,60.5,60.5,34.0,1.05,33.9,5.7,34.0,1.0,-88.14,-4.9,100.0,18.3,23.1,34.5,39.5,0.0,1.0,100.0,0.0,0.0,0.0,0.0,1469.0,4230.0,5696.0,5396.0,321.0,313.3,340.7,341.1,24.61,23.52,25.32,24.68,325.0,325.0,355.0,355.0,99.71,99.68,99.7,99.67,0.33,0.33,0.21,0.37,-0.1,-0.1,2.5,2.2,79.8,73.0,78.0,74.0,83.0,84.1,80.8,79.0,80.3,80.9,79.1,77.4,78.4,79.1,78.2,76.9,-0.28,0.29,0.07,0.06,0.0,120.78,121.24,113.32,113.32,356.7,7.7,0.6104096984812741,37.450577930593894,144.4007860609506,10.803051265947587,14.404068544271809,0
219,10.9,352.7,44.05358597072516,-78.67987511656862,-21.6,-37.7,61.7,58.2,1923.9,1924.0,142.8,0.0,1.0,1.0,0.0,1.0,1.0,0.0,0.0,0.0,100.0,1.0,1.186,26.0,0.0,-20.256,74.678,66.0,0.0,26.0,26.0,26.0,26.0,0.22,0.46,-0.03,381.4,-3.4,-3.54,-2.27,-1.49,-508.08,574.65,5.5,0.0,0.0,0.0,0.0,0.2,-7.49,-7.49,-0.26,-0.97,1.48,-1.51,39.68,0.16,-0.28,-3.54,100.0,0.0,0.0,114.13,0.0,0.0,0.0,0.0,0.0,0.0,0.0,7651.0,0.0,30.0,3.0,142.8,0.0,0.0,0.0,0.0,0.0,0.0,1.0,0.0,10.934,10.934,74.679,19.926,0.0,110.0,435.8,8750.0,0.0,0.0,110.0,110.0,433.0,0.0,0.0,0.0,1.0,166.7,79.4,79.4,65.2,65.2,34.0,-1.33,13.5,-2.5,43.6,1.0,-88.19,-3.5,100.0,17.2,21.2,37.6,42.5,0.0,1.0,100.0,0.0,0.0,0.0,0.0,1748.0,1769.0,4199.0,5715.0,320.7,319.3,344.5,340.4,24.61,23.52,25.32,24.68,325.0,325.0,355.0,355.0,99.71,99.68,99.7,99.67,0.32,0.26,0.29,0.42,-0.0,-0.0,2.5,2.2,79.8,73.0,78.0,74.0,83.0,84.1,80.7,79.0,80.2,80.9,79.0,77.4,78.3,79.0,78.2,76.9,-0.22,0.21,0.08,0.05,0.0,121.45,121.75,114.13,114.13,356.7,7.7,0.5107837115648853,35.65006937678556,136.83865014633605,-25.20711981021904,-111.63153022231228,0
220,10.95,354.7,44.053590017672384,-78.67985955830484,-62.5,-73.3,-34.3,-46.6,1925.9,1926.0,143.6,0.0,1.0,1.0,0.0,1.0,1.0,0.0,0.0,0.0,100.0,1.0,1.186,26.0,0.0,-20.256,74.678,66.0,0.0,26.0,26.0,26.0,26.0,0.2,0.47,-0.25,384.3,-3.49,-1.99,-1.69,-2.22,-506.35,575.1,5.5,0.0,0.0,0.0,0.0,0.2,-7.49,-7.49,-0.38,-4.24,1.38,-2.66,39.89,0.16,-0.3,-2.63,100.0,0.0,0.0,114.66,0.0,0.0,0.0,0.0,0.0,0.0,0.0,7687.0,0.0,30.0,3.0,143.6,1.0,0.0,0.0,0.0,0.0,0.0,1.0,0.0,10.98,10.98,74.679,19.926,1.0,110.0,435.8,8750.0,0.0,0.0,110.0,110.0,433.0,0.0,0.0,0.0,1.0,166.7,82.5,82.5,67.7,67.7,34.0,-2.01,12.7,1.5,44.1,1.0,-88.24,-2.6,100.0,14.1,17.5,35.9,40.1,0.0,1.0,100.0,0.0,0.0,0.0,0.0,1798.0,2032.0,4032.0,5164.0,320.5,319.1,344.7,341.2,24.61,23.52,25.32,24.69,325.0,325.0,355.0,355.0,99.71,99.68,99.7,99.67,0.31,0.32,0.29,0.41,-0.1,-0.1,2.4,2.2,79.8,73.0,78.0,74.0,82.9,84.0,80.7,79.0,80.2,80.8,79.0,77.4,78.3,79.0,78.2,76.9,-0.16,0.15,0.05,0.05,0.0,121.99,122.28,114.66,114.66,356.7,7.7,0.5686826883245173,34.92986594957199,133.23763303871937,21.606102531895317,54.01525661425012,0
221,11.0,356.7,44.053594694144735,-78.6798418416692,66.3,85.8,-62.3,-153.4,1927.9,1928.0,144.3,0.0,1.0,1.0,0.0,1.0,1.0,0.0,0.0,0.0,100.0,1.0,1.186,26.0,0.0,-20.256,74.678,66.0,0.0,26.0,26.0,26.0,26.0,0.2,0.47,-0.04,382.8,-2.56,-2.74,-1.26,-1.69,-504.38,575.62,5.5,0.0,0.0,0.0,0.0,0.21,-7.49,-7.49,-0.57,-0.95,1.33,-0.07,40.1,0.16,-0.39,-2.54,100.0,0.0,0.0,115.44,0.0,0.0,0.0,0.0,0.0,0.0,0.0,7739.0,0.0,30.0,3.0,144.3,0.0,0.0,0.0,0.0,0.0,0.0,1.0,0.0,11.031,11.031,74.679,19.926,0.0,110.0,435.8,8750.0,0.0,0.0,110.0,110.0,433.0,0.0,0.0,0.0,1.0,333.3,73.6,73.6,69.0,69.0,34.0,-4.21,32.72,1.8,31.9,1.0,-88.29,-1.8,100.0,17.4,21.8,32.7,32.5,0.0,1.0,83.6,0.0,0.0,0.0,0.0,3615.0,4112.0,4136.0,4814.0,316.0,313.6,344.3,343.0,24.61,23.53,25.32,24.69,325.0,325.0,355.0,355.0,99.71,99.68,99.7,99.67,0.21,0.28,0.24,0.39,-0.1,-0.1,2.8,2.6,79.8,73.0,78.0,74.0,82.9,84.0,80.7,79.0,80.1,80.8,79.0,77.4,78.2,79.0,78.2,76.8,-0.1,0.11,0.07,0.05,0.0,122.82,123.07,115.44,115.44,356.7,7.7,0.51234753829798,37.81067962997509,142.24017580776106,21.606102816407144,50.41423905141443,0
222,11.05,358.7,44.05359946054924,-78.6798240351014,52.6,4.6,-40.9,15.9,1929.9,1930.0,144.9,0.0,1.0,1.0,0.0,1.0,1.0,0.0,0.0,0.0,100.0,1.0,1.186,26.0,0.0,-20.259,74.678,66.0,0.0,26.0,26.0,26.0,26.0,0.23,0.16,0.02,381.7,-2.97,-2.14,-1.87,-2.27,-502.4,576.15,5.5,0.0,0.0,0.0,0.0,0.21,-7.49,-7.49,-0.49,2.0,1.34,0.53,40.25,0.16,-0.33,-1.93,100.0,0.0,0.0,112.9,0.0,0.0,0.0,0.0,0.0,0.0,0.0,7568.0,0.0,30.0,3.0,144.9,1.0,0.0,0.0,0.0,0.0,0.0,1.0,0.0,11.081,11.081,74.679,19.926,1.0,110.0,435.8,8750.0,0.0,0.0,110.0,110.0,433.0,0.0,0.0,0.0,1.0,333.3,73.3,73.3,70.0,70.0,34.0,-5.32,26.6,-6.3,65.8,1.0,-88.34,-1.3,100.0,20.0,22.0,30.7,33.3,0.0,1.0,0.0,0.0,0.0,0.0,0.0,2811.0,4106.0,4685.0,6141.0,317.9,314.4,343.1,339.3,24.61,23.53,25.32,24.69,325.0,325.0,355.0,355.0,99.71,99.68,99.7,99.67,0.2,0.25,0.19,0.39,-0.0,-0.0,0.6,0.4,79.8,73.1,78.0,74.1,82.8,83.9,80.7,78.9,80.1,80.7,79.0,77.4,78.2,78.9,78.1,76.8,-0.07,0.07,0.07,0.05,0.0,123.46,123.65,112.9,112.9,356.7,7.7,0.28089143810376277,37.090476231212705,138.2790569438608,-3.6010169938119674,-39.611188639002535,0
223,11.1,360.7,44.05360395715728,-78.67980730771954,4.7,-2.8,120.4,70.2,1931.9,1932.0,144.6,0.0,1.0,1.0,0.0,1.0,1.0,0.0,0.0,0.0,100.0,1.0,1.186,26.0,0.0,-20.262,74.678,66.0,0.0,26.0,26.0,26.0,26.0,0.09,-0.19,0.03,379.5,-2.73,-2.56,-2.28,-0.87,-500.54,576.65,5.5,0.0,0.0,0.0,0.0,0.21,-7.49,-7.49,-0.51,-2.07,1.25,0.95,40.16,0.13,-0.36,-1.39,100.0,0.0,0.0,112.39,0.0,0.0,0.0,0.0,0.0,0.0,0.0,7534.0,0.0,30.0,3.0,144.6,0.0,0.0,0.0,0.0,0.0,0.0,0.0,0.0,11.13,11.13,74.679,19.926,0.0,110.0,435.8,8750.0,0.0,0.0,110.0,110.0,433.0,0.0,0.0,0.0,1.0,333.3,70.8,70.8,69.3,69.3,34.0,-14.67,24.57,-10.7,30.2,1.0,-88.39,-1.2,100.0,20.3,21.9,36.7,36.8,0.0,1.0,0.0,0.0,0.0,0.0,0.0,5110.0,3677.0,3915.0,4891.0,312.3,315.5,344.5,342.7,24.61,23.53,25.32,24.69,325.0,325.0,355.0,355.0,99.71,99.68,99.7,99.67,0.12,0.23,0.17,0.3,-0.0,-0.0,-0.2,-0.4,79.8,73.1,78.0,74.1,82.8,83.9,80.6,78.9,80.0,80.7,78.9,77.3,78.1,78.9,78.1,76.8,-0.05,0.05,0.07,0.05,0.0,123.15,123.21,112.39,112.39,356.7,7.7,0.21236760581595301,37.450577930593894,138.2790569438608,18.005085253571593,39.611188639002535,0
224,11.15,362.7,44.053608813493945,-78.67978950115175,100.1,82.7,-99.9,26.8,1933.9,1934.0,144.3,0.0,1.0,1.0,0.0,1.0,1.0,0.0,0.0,0.0,100.0,1.0,1.186,26.0,0.0,-20.265,74.678,66.0,0.0,26.0,26.0,26.0,26.0,0.1,-0.18,0.16,377.8,-2.95,-2.43,-2.13,-1.4,-498.56,577.19,5.5,0.0,0.0,0.0,0.0,0.21,-7.49,-7.49,-0.56,0.64,1.29,-2.03,40.06,0.1,-0.46,-0.92,100.0,0.0,0.0,112.14,0.0,0.0,0.0,0.0,0.0,0.0,0.0,7518.0,0.0,30.0,3.0,144.3,1.0,0.0,0.0,0.0,0.0,0.0,0.0,0.0,11.181,11.181,74.679,19.926,1.0,110.0,435.8,8750.0,0.0,0.0,110.0,110.0,433.0,0.0,0.0,0.0,1.0,333.3,63.3,63.3,73.0,73.0,34.0,-17.43,38.01,-13.5,21.2,1.0,-88.44,-1.3,100.0,25.3,26.0,31.7,38.1,0.0,1.0,0.0,0.0,0.0,0.0,0.0,5291.0,5269.0,4093.0,3387.0,311.5,311.0,345.0,345.5,24.61,23.54,25.32,24.69,325.0,325.0,355.0,355.0,99.71,99.68,99.7,99.67,0.12,0.23,0.09,0.25,-0.0,-0.0,-0.4,-0.4,79.8,73.1,78.0,74.1,82.7,83.8,80.6,78.9,80.0,80.6,78.9,77.3,78.1,78.8,78.0,76.8,-0.05,0.07,0.08,0.06,0.0,122.97,123.01,112.14,112.14,356.7,7.7,0.260768096208106,38.890984756569864,142.24017580776106,0.0,-10.803050981435547,0
225,11.2,364.7,44.05361366983062,-78.6797717845161,21.8,55.3,68.6,-32.0,1935.9,1936.0,143.9,0.0,1.0,1.0,0.0,1.0,1.0,0.0,0.0,0.0,100.0,1.0,1.186,26.0,0.0,-20.265,74.678,66.0,0.0,26.0,26.0,26.0,26.0,0.13,-0.19,0.2,376.5,-3.27,-3.24,-1.73,-1.47,-496.59,577.73,5.5,0.0,0.0,0.0,0.0,0.21,-7.49,-7.49,-0.41,3.42,1.32,-0.49,39.96,0.08,-0.46,-1.37,100.0,0.0,0.0,112.02,0.0,0.0,0.0,0.0,0.0,0.0,0.0,7509.0,0.0,30.0,3.0,143.9,0.0,0.0,0.0,0.0,0.0,0.0,0.0,0.0,11.231,11.231,74.679,19.926,0.0,110.0,435.8,8750.0,0.0,0.0,110.0,110.0,433.0,0.0,0.0,0.0,1.0,333.3,63.6,63.6,66.8,66.8,34.0,-16.45,35.68,-11.8,29.0,1.0,-88.49,-1.4,100.0,26.4,28.8,35.1,36.5,0.0,1.0,0.0,0.0,0.0,0.0,0.0,4263.0,4746.0,4405.0,4404.0,314.4,311.8,344.0,343.0,24.61,23.54,25.32,24.69,325.0,325.0,355.0,355.0,99.71,99.68,99.7,99.67,0.1,0.16,0.08,0.23,-0.0,-0.0,-0.3,-0.4,79.8,73.1,78.0,74.1,82.7,83.8,80.6,78.8,80.0,80.6,78.8,77.2,78.1,78.8,78.0,76.7,-0.07,0.08,0.07,0.06,0.0,122.67,122.76,112.01,112.01,356.7,7.7,0.30495901363953815,37.450577930593894,137.19875184571725,-14.404068259759697,-54.01525661425012,0
226,11.25,366.7,44.053618166438646,-78.67975523699856,-143.2,-218.1,36.6,55.7,1937.9,1938.0,143.6,0.0,1.0,1.0,0.0,1.0,1.0,0.0,0.0,0.0,100.0,1.0,1.186,26.0,0.0,-20.265,74.678,66.0,0.0,26.0,26.0,26.0,26.0,0.11,-0.18,-0.17,383.2,-3.12,-2.87,-1.54,-1.92,-494.75,578.23,5.5,0.0,0.0,0.0,0.0,0.21,-7.49,-7.49,-0.35,-2.77,1.36,1.77,39.87,0.08,-0.43,-0.69,100.0,0.0,0.0,111.62,0.0,0.0,0.0,0.0,0.0,0.0,0.0,7482.0,0.0,30.0,3.0,143.6,1.0,0.0,0.0,0.0,0.0,0.0,0.0,0.0,11.28,11.28,74.679,19.926,1.0,110.0,435.8,8750.0,0.0,0.0,110.0,110.0,433.0,0.0,0.0,0.0,1.0,333.3,79.6,79.6,68.1,68.1,34.0,-2.0,16.98,-9.6,37.1,1.0,-88.54,-1.4,100.0,19.2,17.9,37.0,39.3,0.0,1.0,0.0,0.0,0.0,0.0,0.0,1079.0,2951.0,3793.0,5144.0,321.5,317.3,345.0,341.6,24.61,23.54,25.32,24.69,325.0,325.0,355.0,355.0,99.71,99.68,99.7,99.67,0.2,0.14,0.06,0.19,0.0,-0.0,-0.3,-0.3,79.8,73.1,78.0,74.1,82.6,83.8,80.5,78.8,79.9,80.6,78.8,77.2,78.0,78.7,78.0,76.7,-0.08,0.08,0.07,0.04,0.0,122.17,122.18,111.61,111.61,356.7,7.7,0.2709243436828813,37.450577930593894,136.83865014633605,14.404068544271453,36.01017107616656,0
227,11.3,368.7,44.05362302277532,-78.67973761029508,-95.7,23.3,-60.1,-113.1,1939.9,1940.0,143.2,0.0,1.0,1.0,0.0,1.0,1.0,0.0,0.0,0.0,100.0,1.0,1.186,26.0,0.0,-20.274,74.678,66.0,6.6,26.0,26.0,26.0,26.0,0.07,-0.21,-0.38,388.9,-2.72,-2.35,-1.86,-1.17,-492.79,578.77,5.5,0.0,0.0,0.0,0.0,0.21,-7.49,-7.49,-0.63,-7.15,1.23,-4.72,39.77,0.06,-0.52,-1.04,100.0,0.0,0.0,110.79,0.0,0.0,0.0,0.0,0.0,0.0,0.0,7427.0,0.0,30.0,3.0,143.2,0.0,0.0,0.0,0.0,0.0,0.0,0.0,0.0,11.331,11.331,74.679,19.926,0.0,110.0,435.8,8750.0,0.0,0.0,110.0,110.0,433.0,0.0,0.0,0.0,1.0,333.3,79.0,79.0,74.4,74.4,34.0,-5.25,20.85,-3.1,6.0,1.0,-88.59,-1.4,100.0,14.4,19.1,34.0,33.6,0.0,1.0,0.0,0.0,0.0,0.0,0.0,2544.0,3463.0,1629.0,1440.0,318.9,315.7,350.8,350.7,24.61,23.55,25.32,24.7,325.0,325.0,355.0,355.0,99.71,99.68,99.7,99.67,0.14,0.2,0.11,0.21,-0.4,-0.3,-0.6,-0.7,79.8,73.2,78.0,74.1,82.6,83.7,80.5,78.8,79.8,80.5,78.8,77.2,77.9,78.7,77.9,76.6,-0.08,0.07,0.08,0.07,0.0,121.19,121.38,110.79,110.79,356.7,7.7,0.43977266854592045,38.89098478502104,140.7997689533339,3.601017278323866,-10.80305155045977,0
228,11.35,370.7,44.05362787911199,-78.67972007352377,76.9,100.8,-172.4,-197.2,1941.9,1942.0,142.4,0.0,1.0,1.0,0.0,1.0,1.0,0.0,0.0,0.0,100.0,1.0,1.186,26.0,0.0,-20.28,74.678,66.0,24.7,26.0,26.0,26.0,26.0,0.19,-0.56,-0.01,386.2,-2.56,-2.66,-0.7,-1.77,-490.84,579.31,5.5,0.0,0.0,0.0,0.0,0.21,-7.49,-7.49,-0.88,-3.15,1.0,-7.19,39.55,0.05,-0.55,-1.38,100.0,0.0,0.0,109.94,0.0,0.0,0.0,0.0,0.0,0.0,0.0,7370.0,0.0,30.0,3.0,142.4,1.0,0.0,0.0,0.0,0.0,0.0,0.0,0.0,11.381,11.381,74.679,19.926,1.0,110.0,435.8,8750.0,0.0,0.0,110.0,110.0,433.0,0.0,0.0,0.0,1.0,333.3,68.8,68.8,78.8,78.8,34.0,-13.02,39.51,0.0,24.0,1.0,-88.64,-1.7,100.0,18.3,24.1,25.4,23.8,0.0,1.0,0.0,0.0,0.0,0.0,0.0,4606.0,5383.0,2770.0,3364.0,313.4,310.6,347.7,346.2,24.61,23.55,25.32,24.7,325.0,325.0,355.0,355.0,99.71,99.68,99.7,99.67,0.09,0.23,0.11,0.31,-0.9,-0.9,-0.9,-1.0,79.8,73.2,78.0,74.1,82.5,83.7,80.4,78.7,79.8,80.5,78.7,77.1,77.9,78.7,77.9,76.6,-0.09,0.09,0.09,0.08,0.0,120.16,120.14,109.94,109.94,356.7,7.7,0.5914389233048498,37.81067965842628,135.75834499129007,-14.404068544271453,-64.81830759568595,0
229,11.4,372.6,44.053632465652186,-78.67970370587054,248.8,5.5,-8.1,-3.9,1943.9,1944.0,141.2,0.0,1.0,1.0,0.0,1.0,1.0,0.0,0.0,0.0,100.0,1.0,1.186,26.0,0.0,-20.283,74.678,66.0,53.3,26.0,26.0,26.0,26.0,0.04,-0.98,0.02,382.3,-2.28,-2.39,-0.95,-0.78,-489.02,579.82,5.5,0.0,0.0,0.0,0.0,0.21,-7.49,-7.49,-0.89,1.51,0.85,4.41,39.18,0.07,-0.55,-1.47,100.0,0.0,0.0,108.44,0.0,0.0,0.0,0.0,0.0,0.0,0.0,7269.0,0.0,30.0,3.0,141.2,0.0,0.0,0.0,0.0,0.0,0.0,0.0,0.0,11.43,11.43,74.679,19.926,0.0,110.0,435.8,8750.0,0.0,0.0,110.0,110.0,433.0,0.0,0.0,0.0,1.0,333.3,60.3,60.3,93.1,93.1,34.0,-23.35,12.89,-2.4,21.5,1.0,-88.69,-2.4,100.0,30.7,24.4,24.9,23.6,0.0,1.0,0.0,0.0,0.0,0.0,0.0,7594.0,3418.0,1935.0,4655.0,305.7,315.9,349.6,343.7,24.61,23.55,25.32,24.7,325.0,325.0,355.0,355.0,99.71,99.68,99.7,99.67,0.04,0.15,0.02,0.25,-1.5,-3.0,-1.6,-1.4,79.8,73.2,78.0,74.1,82.5,83.6,80.4,78.7,79.8,80.4,78.7,77.1,77.9,78.6,77.8,76.6,-0.12,0.12,0.1,0.08,0.0,118.46,116.37,108.06,108.82,356.7,7.7,0.9810198774744576,37.450577930593894,134.31793819376531,-2.8451189848510694e-07,3.6010175628359775,0
230,11.45,374.6,44.053637232056694,-78.67968652882786,63.1,98.0,74.6,197.1,1945.8,1946.0,138.7,0.0,1.0,1.0,0.0,1.0,1.0,0.0,0.0,0.0,100.0,1.0,1.186,26.0,0.0,-20.292,74.678,66.0,98.1,26.0,26.0,26.0,26.0,0.02,-1.64,0.35,375.6,-3.1,-2.62,-1.76,-1.29,-487.11,580.35,5.5,0.0,0.0,0.0,0.0,0.22,-7.49,-7.49,-0.79,1.21,1.25,9.64,38.48,0.08,-0.64,-1.65,100.0,0.0,0.0,105.71,0.0,0.0,0.0,0.0,0.0,0.0,0.0,7086.0,0.0,30.0,3.0,138.7,1.0,0.0,0.0,0.0,0.0,0.0,0.0,0.0,11.481,11.481,74.679,19.926,1.0,110.0,435.8,8750.0,0.0,0.0,110.0,110.0,433.0,0.0,0.0,0.0,1.0,333.3,55.0,55.0,80.2,80.2,34.0,-16.27,14.08,-13.7,14.8,1.0,-88.74,-3.2,100.0,33.9,29.3,28.7,33.4,0.0,1.0,0.0,0.0,0.0,0.0,0.0,6378.0,5675.0,3815.0,3757.0,308.4,310.2,345.1,344.9,24.61,23.56,25.32,24.7,325.0,325.0,355.0,355.0,99.71,99.68,99.7,99.67,0.07,0.2,-0.04,0.15,-3.8,-5.5,-2.0,-2.1,79.8,73.2,78.0,74.1,82.5,83.7,80.3,78.7,79.8,80.5,78.6,77.1,77.9,78.7,77.8,76.5,-0.15,0.18,0.09,0.07,0.0,112.94,111.23,105.71,105.71,356.7,7.7,1.6770509831248421,37.81067962997509,136.11844674757367,-10.803051265947587,-50.41424018946145,0
231,11.5,376.4,44.053641908529045,-78.67966971151382,-118.2,62.3,-0.6,-9.7,1947.7,1948.0,135.5,1.0,1.0,1.0,0.0,1.0,1.0,0.0,0.0,0.0,100.0,1.0,1.186,26.0,0.0,-20.298,74.678,66.0,100.0,26.0,26.0,26.0,26.0,0.17,-1.62,0.1,378.5,-2.6,-1.81,-1.83,-1.65,-485.24,580.87,5.5,0.0,0.0,0.0,0.0,0.22,-7.49,-7.49,-0.77,-0.81,1.75,5.67,37.59,0.1,-0.72,-0.86,100.0,0.0,0.0,102.75,0.0,0.0,0.0,0.0,0.0,0.0,0.0,6888.0,0.0,30.0,3.0,135.5,0.0,0.0,0.0,0.0,0.0,0.0,0.0,0.0,11.531,11.531,74.679,19.926,0.0,110.0,435.8,8750.0,0.0,0.0,110.0,110.0,433.0,0.0,0.0,0.0,1.0,333.3,60.9,60.9,75.1,75.1,34.0,0.08,15.95,-4.3,32.9,1.0,-88.79,-3.1,100.0,28.0,32.4,28.6,33.0,0.0,1.0,0.0,0.0,0.0,0.0,0.0,3051.0,5843.0,2324.0,5261.0,317.0,309.2,348.9,340.9,24.61,23.56,25.32,24.7,325.0,325.0,355.0,355.0,99.71,99.68,99.7,99.67,0.23,0.27,0.02,0.23,-12.2,-5.2,-3.6,-1.9,79.8,73.2,78.0,74.1,82.6,83.7,80.3,78.6,79.8,80.5,78.6,77.0,77.9,78.7,77.8,76.5,-0.17,0.19,0.09,0.06,0.0,99.36,108.99,101.73,103.77,356.7,7.7,1.6319620093617377,36.370272803999136,129.27651417481917,-21.606102531895317,-97.22746281608835,0
232,11.55,378.3,44.053646315204915,-78.67965424318221,-157.2,-90.9,-59.8,-41.7,1949.5,1950.0,132.9,1.0,1.0,1.0,0.0,1.0,1.0,0.0,0.0,0.0,100.0,1.0,1.186,26.0,0.0,-20.304,74.678,66.0,100.0,26.0,26.0,26.0,26.0,0.04,-1.74,-0.13,383.5,-2.71,-2.77,-1.6,-1.19,-483.52,581.36,5.5,0.0,0.0,0.0,0.0,0.22,-7.49,-7.49,-0.94,-5.76,1.64,-8.35,36.86,0.06,-0.77,1.29,100.0,0.0,0.0,99.69,0.0,0.0,0.0,0.0,0.0,0.0,0.0,6683.0,0.0,30.0,3.0,132.9,1.0,0.0,0.0,0.0,0.0,0.0,0.0,0.0,11.58,11.58,74.679,19.926,1.0,110.0,435.8,8750.0,0.0,0.0,110.0,110.0,433.0,0.0,0.0,0.0,1.0,333.3,65.3,65.3,75.6,75.6,34.0,0.18,-2.0,-5.3,6.1,1.0,-88.84,-0.6,100.0,20.1,27.8,25.7,30.9,0.0,1.0,0.0,0.0,0.0,0.0,0.0,4250.0,6454.0,3199.0,2112.0,314.6,307.5,347.1,348.9,24.61,23.56,25.32,24.7,325.0,325.0,355.0,355.0,99.71,99.68,99.7,99.67,0.2,0.33,0.03,0.21,-13.5,-11.4,-3.6,-3.6,79.8,73.3,78.0,74.1,82.6,83.8,80.3,78.6,79.9,80.6,78.6,77.0,78.0,78.8,77.7,76.5,-0.04,0.05,0.08,0.07,0.0,96.83,100.34,100.04,99.33,356.7,7.7,1.745307995741726,35.65006937678556,126.39570046596484,-7.202034272135762,-18.005084969060192,0
233,11.6,380.1,44.05365081181294,-78.67963814532547,75.8,-35.9,-124.6,-285.2,1951.3,1951.0,130.2,0.0,1.0,1.0,0.0,1.0,1.0,0.0,0.0,0.0,100.0,1.0,1.186,26.0,0.0,-20.313,74.678,66.0,100.0,26.0,26.0,26.0,26.0,-0.03,-1.42,-0.28,391.2,-2.42,-3.42,-1.07,-2.06,-481.73,581.86,5.6,0.0,0.0,0.0,0.0,0.22,-7.49,-7.49,-1.18,-2.92,1.1,-9.0,36.11,0.01,-0.81,0.39,100.0,0.0,0.0,93.19,0.0,0.0,0.0,0.0,0.0,0.0,0.0,6247.0,0.0,30.0,3.0,130.2,0.0,0.0,0.0,0.0,0.0,0.0,1.0,0.0,11.631,11.631,74.679,19.926,0.0,110.0,435.8,8750.0,0.0,0.0,110.0,110.0,433.0,0.0,0.0,0.0,1.0,166.7,66.3,66.3,93.7,93.7,34.0,-0.31,-0.54,-1.1,0.0,1.0,-88.89,2.9,100.0,23.9,26.0,19.4,16.6,0.0,1.0,0.0,0.0,0.0,0.0,0.0,5463.0,3330.0,1471.0,43.0,310.8,315.8,350.5,354.6,24.61,23.57,25.32,24.7,325.0,325.0,355.0,355.0,99.71,99.68,99.7,99.67,-0.07,0.01,-0.01,0.15,-9.5,-11.1,-5.3,-10.2,79.8,73.3,78.0,74.1,82.7,83.9,80.3,78.6,80.0,80.7,78.5,77.0,78.1,78.9,77.7,76.5,0.14,-0.14,0.1,0.1,0.0,100.17,96.71,96.22,90.17,356.7,7.7,1.4476532734049268,35.65006937678556,127.47600567791315,-18.00508553808342,-54.015256045226465,0
234,11.65,381.9,44.053655218488814,-78.67962240719736,99.3,-90.7,-47.5,-20.5,1953.1,1953.0,127.3,0.0,1.0,1.0,0.0,1.0,1.0,0.0,0.0,0.0,100.0,1.0,1.186,26.0,0.0,-20.319,74.678,66.0,100.0,26.0,26.0,26.0,26.0,-0.09,-1.5,-0.2,390.8,-1.06,-2.33,-0.79,-1.5,-479.98,582.35,5.6,0.0,0.0,0.0,0.0,0.22,-7.49,-7.49,-1.24,-1.02,1.1,6.03,35.32,0.08,-0.72,-1.61,100.0,0.0,0.0,90.68,0.0,0.0,0.0,0.0,0.0,0.0,0.0,6079.0,0.0,30.0,3.0,127.3,1.0,0.0,0.0,0.0,0.0,0.0,1.0,0.0,11.681,11.681,74.679,19.926,1.0,110.0,435.8,8750.0,0.0,0.0,110.0,110.0,433.0,0.0,0.0,0.0,1.0,333.3,65.4,65.4,102.5,102.5,34.0,-13.65,0.03,-0.0,1.1,1.0,-88.94,6.5,100.0,28.8,21.5,17.0,15.6,0.0,1.0,0.0,0.0,0.0,0.0,0.0,5508.0,3799.0,936.0,2159.0,310.5,315.5,352.7,349.4,24.61,23.57,25.32,24.7,325.0,325.0,355.0,355.0,99.71,99.68,99.7,99.67,-0.4,-0.29,0.0,0.26,-5.6,-11.6,-8.9,-8.1,79.8,73.3,78.0,74.1,82.8,84.0,80.2,78.6,80.0,80.8,78.5,77.0,78.1,78.9,77.7,76.5,0.36,-0.37,0.11,0.11,0.0,101.89,94.6,89.84,91.52,356.7,7.7,1.5159485479395403,33.84956082297722,120.99417486144219,-25.20711981021904,-90.02542825944062,0
235,11.7,383.6,44.05365926543604,-78.67960792811951,-3.2,14.0,4.8,44.7,1954.8,1955.0,124.5,0.0,1.0,1.0,0.0,1.0,1.0,0.0,0.0,0.0,100.0,1.0,1.186,26.0,0.0,-20.328,74.678,66.0,100.0,26.0,26.0,26.0,26.0,-0.11,-1.76,-0.06,388.3,-1.9,-2.32,-1.12,-1.3,-478.37,582.8,5.5,0.0,0.0,0.0,0.0,0.22,-7.49,-7.49,-1.26,-1.21,1.46,10.91,34.52,0.16,-0.68,-0.83,100.0,0.0,0.0,89.34,0.0,0.0,0.0,0.0,0.0,0.0,0.0,5989.0,0.0,30.0,3.0,124.5,0.0,0.0,0.0,0.0,0.0,0.0,1.0,0.0,11.73,11.73,74.679,19.926,0.0,110.0,435.8,8750.0,0.0,0.0,110.0,110.0,433.0,0.0,0.0,0.0,1.0,333.3,64.4,64.4,96.2,96.2,34.0,-11.05,-3.37,-0.4,1.4,1.0,-88.99,11.0,100.0,28.7,22.2,17.3,17.8,0.0,1.0,0.0,0.0,0.0,0.0,0.0,4778.0,5050.0,2255.0,2567.0,312.0,312.6,349.1,347.9,24.61,23.57,25.32,24.7,325.0,325.0,355.0,355.0,99.71,99.68,99.7,99.67,-0.51,-0.39,0.01,0.28,-6.5,-4.7,-7.9,-8.0,79.8,73.3,78.0,74.1,82.8,84.0,80.2,78.6,80.1,80.8,78.5,77.0,78.2,79.0,77.7,76.5,0.59,-0.6,0.11,0.08,0.0,98.28,100.0,89.34,89.34,356.7,7.7,1.7644545899512405,33.129357395763655,118.47346285196909,-10.803051265947587,-18.00508553808342,0
236,11.75,385.3,44.05366349224759,-78.67959281951653,-18.5,214.8,11.2,73.6,1956.5,1956.0,121.1,0.0,1.0,1.0,0.0,1.0,1.0,0.0,0.0,0.0,100.0,1.0,1.186,26.0,0.0,-20.337,74.678,66.0,100.0,26.0,26.0,26.0,26.0,-0.15,-1.89,0.28,382.4,-2.64,-2.57,-1.39,-1.4,-476.69,583.27,5.5,0.0,0.0,0.0,0.0,0.22,-7.49,-7.49,-1.3,0.23,1.7,-2.69,33.59,0.16,-0.73,4.2,100.0,0.0,0.0,88.22,0.0,0.0,0.0,0.0,0.0,0.0,0.0,5914.0,0.0,30.0,3.0,121.1,1.0,0.0,0.0,0.0,0.0,0.0,1.0,0.0,11.781,11.781,74.679,19.926,1.0,110.0,435.8,8750.0,0.0,0.0,110.0,110.0,433.0,0.0,0.0,0.0,1.0,333.3,54.0,54.0,86.7,86.7,34.0,-17.99,-12.07,-0.1,5.4,1.0,-89.04,20.9,100.0,27.8,33.0,17.8,21.5,0.0,1.0,0.0,0.0,0.0,0.0,0.0,6357.0,7670.0,2459.0,1675.0,308.9,304.6,348.7,349.6,24.61,23.57,25.32,24.7,325.0,325.0,355.0,355.0,99.71,99.68,99.7,99.67,-0.69,-0.5,0.01,0.26,-6.8,-3.9,-9.2,-3.8,79.8,73.3,78.0,74.1,82.9,84.1,80.2,78.6,80.2,80.8,78.5,77.0,78.2,79.0,77.7,76.5,1.11,-1.1,0.11,0.08,0.0,96.65,99.32,86.52,89.92,356.7,7.7,1.9165072397463045,32.76925569638246,119.19366630763385,-25.207119810219112,-61.21729060187391,0
237,11.8,386.9,44.053667449262655,-78.67957816057435,137.5,35.7,46.5,-22.1,1958.1,1958.0,117.8,0.0,1.0,1.0,0.0,1.0,1.0,0.0,0.0,0.0,100.0,1.0,1.186,26.0,0.0,-20.349,74.678,66.0,100.0,26.0,26.0,26.0,26.0,-0.25,-1.87,0.1,381.6,-2.98,-2.26,-1.08,-1.85,-475.06,583.71,5.5,0.0,0.0,0.0,0.0,0.22,-7.49,-7.49,-1.04,7.66,1.42,-8.23,32.66,0.12,-0.69,9.72,100.0,0.0,0.0,86.89,0.0,0.0,0.0,0.0,0.0,0.0,0.0,5825.0,0.0,30.0,3.0,117.8,0.0,0.0,0.0,0.0,0.0,0.0,1.0,0.0,11.831,11.831,74.679,19.926,0.0,110.0,435.8,8750.0,0.0,0.0,110.0,110.0,433.0,0.0,0.0,0.0,1.0,333.3,55.1,55.1,89.0,89.0,34.0,-13.98,-7.83,-2.1,6.5,1.0,-89.09,32.7,100.0,34.6,34.7,20.2,20.4,0.0,1.0,0.0,0.0,0.0,0.0,0.0,5365.0,4468.0,2835.0,3151.0,311.1,313.1,347.9,346.1,24.61,23.58,25.32,24.7,325.0,325.0,355.0,355.0,99.71,99.68,99.7,99.67,-1.09,-0.97,-0.18,0.1,-7.3,-6.7,-7.0,-5.1,79.8,73.4,78.0,74.1,83.0,84.1,80.2,78.6,80.2,80.9,78.5,77.0,78.3,79.0,77.7,76.5,1.79,-1.78,0.1,0.09,0.0,93.03,92.02,86.42,87.36,356.7,7.7,1.8892855792600547,30.608645414741744,112.3517337917817,-36.01017107616684,-97.2274616780409,0
238,11.85,388.5,44.053671136481235,-78.67956476068242,-70.5,-194.7,184.5,47.0,1959.7,1960.0,114.8,1.0,1.0,1.0,0.0,1.0,1.0,0.0,0.0,0.0,100.0,1.0,1.186,26.0,0.0,-20.355,74.678,66.0,100.0,26.0,26.0,26.0,26.0,-0.38,-1.58,0.06,381.9,-1.98,-2.15,-1.8,-1.88,-473.57,584.12,5.6,0.0,0.0,0.0,0.0,0.22,-7.49,-7.49,-0.8,2.2,1.05,-4.63,31.84,-0.01,-0.57,10.23,100.0,0.0,0.0,87.38,0.0,0.0,0.0,0.0,0.0,0.0,0.0,5857.0,0.0,30.0,3.0,114.8,1.0,0.0,0.0,0.0,0.0,0.0,1.0,0.0,11.88,11.88,74.679,19.926,1.0,110.0,435.8,8750.0,0.0,0.0,110.0,110.0,433.0,0.0,0.0,0.0,1.0,333.3,65.1,65.1,78.7,78.7,34.0,-2.42,1.29,-57.4,0.7,1.0,-89.14,46.1,100.0,31.1,25.0,29.4,22.7,0.0,1.0,0.0,0.0,0.0,0.0,0.0,5309.0,2464.0,6114.0,3222.0,311.4,318.8,340.0,346.7,24.61,23.58,25.32,24.7,325.0,325.0,355.0,355.0,99.71,99.68,99.7,99.67,-2.06,-2.04,-0.53,-0.26,-8.7,-12.6,-2.3,-3.3,79.8,73.4,78.0,74.1,83.1,84.2,80.2,78.6,80.3,80.9,78.5,77.0,78.4,79.1,77.7,76.4,2.52,-2.58,0.08,0.09,0.0,93.82,87.52,88.4,86.35,356.7,7.7,1.6261611236282831,29.168238588765774,109.47092013982976,-25.207119525707284,-18.00508553808342,0
239,11.9,390.1,44.053674733767664,-78.67955082119752,-6.5,-32.9,49.1,-41.8,1961.3,1961.0,112.0,1.0,1.0,1.0,0.0,1.0,1.0,0.0,0.0,0.0,100.0,1.0,1.186,26.0,0.0,-20.367,74.678,66.0,100.0,26.0,26.0,26.0,26.0,-0.52,-1.55,-0.08,383.4,-2.56,-3.6,-0.93,-1.43,-472.02,584.52,5.6,0.0,0.0,0.0,0.0,0.22,-7.49,-7.49,-0.85,-0.88,0.97,2.14,31.07,-0.07,-0.62,12.71,100.0,0.0,0.0,83.39,0.0,0.0,0.0,0.0,0.0,0.0,0.0,5590.0,0.0,30.0,3.0,112.0,0.0,0.0,0.0,0.0,0.0,0.0,1.0,0.0,11.931,11.931,74.679,19.926,0.0,110.0,435.8,8750.0,0.0,0.0,110.0,110.0,433.0,0.0,0.0,0.0,1.0,333.3,62.8,62.8,85.0,85.0,34.0,11.1,1.56,-25.9,-1.7,1.0,-89.19,59.3,100.0,30.8,23.4,31.9,20.6,0.0,1.0,0.0,0.0,0.0,0.0,0.0,7067.0,3015.0,3383.0,1729.0,307.1,316.8,346.4,350.7,24.61,23.58,25.32,24.7,325.0,325.0,355.0,355.0,99.71,99.68,99.7,99.67,-2.94,-2.93,-0.73,-0.58,-10.6,-17.8,-2.8,-6.0,79.8,73.4,78.0,74.1,83.2,84.3,80.2,78.5,80.4,81.0,78.5,76.9,78.5,79.2,77.7,76.4,3.29,-3.4,0.08,0.09,0.0,85.72,80.58,85.27,81.51,356.7,7.7,1.636856743884449,28.087933462171016,110.55122523797336,-28.8081370885428,-43.212205632814005,0
240,11.95,391.6,44.053678151189764,-78.67953715150912,-59.7,-67.8,-147.5,-53.2,1962.8,1963.0,109.5,1.0,1.0,1.0,0.0,1.0,1.0,0.0,0.0,0.0,100.0,1.0,1.186,26.0,0.0,-20.382,74.678,66.0,100.0,26.0,26.0,26.0,26.0,-0.49,-1.37,-0.33,389.2,-2.55,-2.91,-0.85,-0.85,-470.5,584.9,5.6,0.0,0.0,0.0,0.0,0.23,-7.49,-7.49,-0.89,-0.76,1.34,9.72,30.38,-0.16,-0.54,13.93,100.0,0.0,0.0,79.78,0.0,0.0,0.0,0.0,0.0,0.0,0.0,5348.0,0.0,30.0,3.0,109.5,1.0,0.0,0.0,0.0,0.0,0.0,1.0,0.0,11.981,11.981,74.679,19.926,1.0,110.0,435.8,8750.0,0.0,0.0,110.0,110.0,433.0,0.0,0.0,0.0,1.0,333.3,70.2,70.2,90.6,90.6,34.0,5.52,2.19,-14.8,-1.4,1.0,-89.24,73.3,100.0,27.8,20.0,24.5,18.0,0.0,1.0,0.0,0.0,0.0,0.0,0.0,3832.0,2852.0,2684.0,2896.0,314.9,317.3,348.3,347.8,24.61,23.58,25.32,24.7,325.0,325.0,355.0,355.0,99.71,99.68,99.7,99.67,-3.81,-3.96,-1.13,-0.9,-12.3,-17.0,-4.9,-8.5,79.8,73.4,78.0,74.1,83.3,84.3,80.2,78.5,80.5,81.0,78.5,76.9,78.6,79.2,77.6,76.4,4.05,-4.21,0.09,0.09,0.0,80.19,79.43,81.4,78.17,356.7,7.7,1.491945039202182,26.287424879911494,105.14969957654836,-36.0101713606786,-75.62135914614544,0
241,12.0,393.1,44.053681298815384,-78.67952456100663,-174.8,10.0,-6.1,64.8,1964.3,1964.0,107.2,1.0,1.0,1.0,0.0,1.0,1.0,0.0,0.0,0.0,100.0,1.0,1.186,26.0,0.0,-20.391,74.678,66.0,100.0,26.0,26.0,26.0,26.0,-0.57,-1.42,-0.18,389.7,-2.1,-1.44,-1.33,-2.32,-469.1,585.25,5.6,0.0,0.0,0.0,0.0,0.23,-7.49,-7.49,-1.1,-6.41,1.39,-6.19,29.74,-0.29,-0.53,16.58,100.0,0.0,0.0,79.17,0.0,0.0,0.0,0.0,0.0,0.0,0.0,5307.0,0.0,30.0,3.0,107.2,0.0,0.0,0.0,0.0,0.0,0.0,1.0,0.0,12.03,12.03,74.679,19.926,0.0,110.0,435.8,8750.0,0.0,0.0,110.0,110.0,433.0,0.0,0.0,0.0,1.0,333.3,73.3,73.3,81.7,81.7,34.0,5.29,5.54,-41.7,-2.3,1.0,-89.29,85.7,100.0,19.1,20.5,24.2,21.2,0.0,1.0,0.0,0.0,0.0,0.0,0.0,3836.0,3995.0,4010.0,1620.0,315.3,314.7,344.8,350.7,24.61,23.59,25.32,24.7,325.0,325.0,355.0,355.0,99.71,99.68,99.7,99.67,-4.54,-4.61,-1.36,-1.17,-14.5,-12.1,-3.6,-6.8,79.8,73.4,78.0,74.1,83.4,84.4,80.2,78.5,80.6,81.1,78.5,76.9,78.6,79.3,77.6,76.4,4.78,-4.95,0.09,0.09,0.0,81.46,82.38,81.65,76.7,356.7,7.7,1.5406816673148285,24.486916326103156,102.98908932335881,-32.40915379784294,-7.20203455664759,0
242,12.05,394.5,44.05368426657668,-78.67951143091119,123.4,39.2,30.4,-226.8,1965.8,1966.0,105.0,1.0,1.0,1.0,0.0,1.0,1.0,0.0,0.0,0.0,100.0,1.0,1.186,26.0,0.0,-20.409,74.678,66.0,100.0,26.0,26.0,26.0,26.0,-0.82,-1.27,-0.09,389.5,-3.57,-1.96,-0.45,-2.48,-467.64,585.58,5.6,0.0,0.0,0.0,0.0,0.23,-7.49,-7.49,-1.4,-3.61,0.94,-7.92,29.12,-0.37,-0.63,21.18,100.0,0.0,0.0,74.33,0.0,0.0,0.0,0.0,0.0,0.0,0.0,4983.0,0.0,30.0,3.0,105.0,1.0,0.0,0.0,0.0,0.0,0.0,1.0,0.0,12.081,12.081,74.679,19.926,1.0,110.0,435.8,8750.0,0.0,0.0,110.0,110.0,433.0,0.0,0.0,0.0,1.0,333.3,64.3,64.3,89.7,89.7,34.0,11.08,5.58,-24.4,0.0,1.0,-89.34,97.1,100.0,25.2,22.4,25.7,9.9,0.0,1.0,0.0,0.0,0.0,0.0,0.0,7243.0,4414.0,2632.0,196.0,306.8,313.9,348.2,354.3,24.61,23.59,25.32,24.7,325.0,325.0,355.0,355.0,99.71,99.68,99.7,99.67,-5.21,-5.22,-1.63,-1.48,-5.2,-15.0,-3.7,-14.6,79.8,73.4,78.0,74.1,83.5,84.5,80.2,78.5,80.7,81.2,78.5,76.9,78.7,79.3,77.6,76.3,5.42,-5.67,0.09,0.11,0.0,83.26,77.86,79.24,69.42,356.7,7.7,1.5143975699927679,23.0465095001272,104.4294961208836,-36.01017079165491,-36.0101710761667,0
243,12.1,396.0,44.05368705447366,-78.67949848068007,201.8,43.4,-75.0,-61.2,1967.2,1967.0,102.6,1.0,1.0,1.0,0.0,1.0,1.0,0.0,0.0,0.0,100.0,1.0,1.186,26.0,0.0,-20.421,74.678,66.0,100.0,26.0,26.0,26.0,26.0,-0.91,-1.46,0.03,386.8,-3.1,-1.55,0.31,-1.46,-466.2,585.89,5.6,0.0,0.0,0.0,0.0,0.23,-7.49,-7.49,-1.35,5.01,0.59,-3.39,28.43,-0.54,-0.59,27.21,100.0,0.0,0.0,72.95,0.0,0.0,0.0,0.0,0.0,0.0,0.0,4890.0,0.0,30.0,3.0,102.6,0.0,0.0,0.0,0.0,0.0,0.0,0.0,0.0,12.131,12.131,74.679,19.926,0.0,110.0,435.8,8750.0,0.0,0.0,110.0,110.0,433.0,0.0,0.0,0.0,1.0,333.3,58.2,58.2,96.0,96.0,34.0,17.62,6.71,-17.6,0.5,1.0,-89.39,105.8,100.0,35.3,24.6,21.9,6.8,0.0,1.0,0.0,0.0,0.0,0.0,0.0,7854.0,3378.0,3931.0,1162.0,304.8,316.2,345.1,352.3,24.61,23.59,25.31,24.7,325.0,325.0,355.0,355.0,99.71,99.68,99.7,99.67,-5.72,-5.88,-2.38,-2.18,-12.1,-6.6,-6.3,-13.0,79.8,73.5,78.0,74.1,83.7,84.5,80.2,78.4,80.9,81.3,78.5,76.8,78.9,79.4,77.6,76.3,5.92,-6.23,0.1,0.11,0.0,77.09,82.26,76.25,69.65,356.7,7.7,1.7206394160311451,20.885899246937665,99.38807221574214,-39.611188354490565,-43.212205063790634,0
244,12.15,397.3,44.053689482642,-78.67948660963486,10.7,-65.8,103.8,59.4,1968.6,1969.0,100.2,1.0,1.0,1.0,0.0,1.0,1.0,0.0,0.0,0.0,100.0,1.0,1.186,26.0,0.0,-20.436,74.678,66.0,100.0,26.0,26.0,26.0,26.0,-0.99,-1.34,-0.04,386.0,-1.67,-1.37,-1.38,-1.71,-464.88,586.16,5.6,0.0,0.0,0.0,0.0,0.23,-7.49,-7.49,-1.07,6.11,0.46,1.27,27.77,-0.7,-0.5,28.42,100.0,0.0,0.0,72.8,0.0,0.0,0.0,0.0,0.0,0.0,0.0,4880.0,0.0,30.0,3.0,100.2,1.0,0.0,0.0,0.0,0.0,0.0,0.0,0.0,12.18,12.18,74.679,19.926,1.0,110.0,435.8,8750.0,0.0,0.0,110.0,110.0,433.0,0.0,0.0,0.0,1.0,166.7,63.4,63.4,90.2,90.2,34.0,14.58,2.06,-56.1,1.3,1.0,-89.44,109.3,100.0,35.9,21.3,27.1,9.8,0.0,1.0,0.0,0.0,0.0,0.0,0.0,6758.0,1681.0,5360.0,1869.0,307.3,320.7,341.8,350.7,24.61,23.59,25.31,24.7,325.0,325.0,355.0,355.0,99.71,99.68,99.7,99.67,-6.19,-6.5,-2.87,-2.67,-12.6,-14.3,-4.0,-10.2,79.8,73.5,78.0,74.1,83.9,84.6,80.2,78.4,81.0,81.3,78.5,76.8,79.1,79.5,77.6,76.3,6.14,-6.5,0.09,0.11,0.0,74.45,73.38,76.64,68.95,356.7,7.7,1.66652332716947,19.085390664678144,100.10827561450454,-46.813222626626256,-10.803051550459486,0
245,12.2,398.7,44.05369182087817,-78.67947347953942,-165.8,-55.9,173.3,161.2,1969.9,1970.0,97.7,1.0,1.0,1.0,0.0,1.0,1.0,0.0,0.0,0.0,100.0,1.0,1.186,26.0,0.0,-20.436,74.678,66.0,100.0,26.0,26.0,26.0,26.0,-1.17,-0.94,0.05,386.0,-2.66,-2.67,-1.19,-0.96,-463.42,586.42,5.6,0.0,0.0,0.0,0.0,0.23,-7.49,-7.49,-0.95,-0.88,0.59,2.6,27.11,-0.79,-0.44,24.85,100.0,0.0,0.0,71.12,0.0,0.0,0.0,0.0,0.0,0.0,0.0,4768.0,0.0,30.0,3.0,97.7,0.0,0.0,0.0,0.0,0.0,0.0,0.0,0.0,12.234,12.234,74.679,19.926,0.0,110.0,435.8,8750.0,0.0,0.0,110.0,110.0,433.0,0.0,0.0,0.0,1.0,166.7,70.0,70.0,80.4,80.4,34.0,17.58,2.2,-49.3,0.7,1.0,-89.49,110.7,100.0,27.6,18.5,35.8,17.9,0.0,1.0,0.0,0.0,0.0,0.0,0.0,6270.0,1647.0,4473.0,1339.0,309.2,320.7,343.6,351.8,24.61,23.6,25.31,24.7,325.0,325.0,355.0,355.0,99.71,99.68,99.7,99.67,-6.78,-7.05,-3.01,-2.86,-6.9,-12.1,-3.5,-9.5,79.8,73.5,78.0,74.1,84.0,84.6,80.2,78.4,81.2,81.4,78.5,76.8,79.2,79.5,77.7,76.3,6.23,-6.61,0.08,0.1,0.0,75.18,73.22,74.7,67.55,356.7,7.7,1.5016657417681205,16.20457698427504,98.3077670606962,-57.61627360806209,-97.22746167804075,0
247,12.3,317.3,44.05348326819776,-78.68021182257787,-187.7,-171.9,138.3,-19.1,3670.1,3670.0,90.2,0.0,1.0,1.0,0.0,1.0,1.0,0.0,0.0,0.0,100.0,1.0,1.186,26.0,0.0,-17.865,74.678,66.0,0.0,26.0,26.0,26.0,26.0,-0.14,0.76,-0.14,391.1,-2.39,-1.87,-0.72,-1.22,-545.52,563.23,5.5,0.0,0.0,0.0,0.0,0.18,-7.49,-7.49,-0.53,-3.59,1.25,0.06,25.09,0.0,-0.11,3.3,100.0,0.0,0.0,72.53,0.0,0.0,0.0,0.0,0.0,0.0,0.0,6233.0,0.0,30.0,2.0,90.2,0.0,0.0,0.0,0.0,0.0,0.0,0.0,0.0,12.309,12.309,84.921,21.577,0.0,110.0,435.8,8750.0,0.0,0.0,110.0,110.0,433.0,0.0,0.0,0.0,1.0,166.7,92.6,92.6,68.9,68.9,34.0,-7.45,-0.03,-18.3,5.8,2.0,-174.49,6.8,100.0,8.3,8.3,35.9,30.4,0.0,1.0,100.0,0.0,0.0,0.0,0.0,1531.0,695.0,5192.0,5184.0,321.3,323.4,342.6,342.4,25.82,23.84,27.84,26.81,325.0,325.0,355.0,355.0,100.0,99.94,100.0,100.0,-0.2,-0.22,-0.27,-0.06,-0.1,-0.2,3.3,3.5,87.4,75.0,93.7,87.3,103.5,96.7,103.7,98.7,99.6,92.2,102.1,96.4,97.4,90.2,100.8,94.8,0.42,-0.4,0.07,0.07,0.0,77.02,76.53,72.53,72.53,356.7,7.7,0.7853661566428743,21.96620437353243,89.6653259910357,10.80305155045945,50.414239620438224,0
248,12.35,318.6,44.05348605609474,-78.6802005810578,75.9,99.7,9.4,35.0,3671.4,3671.0,91.5,0.0,1.0,1.0,0.0,1.0,1.0,0.0,0.0,0.0,100.0,1.0,1.186,26.0,0.0,-17.844,74.678,66.0,0.0,26.0,26.0,26.0,26.0,-0.15,0.58,0.01,388.1,-2.5,-2.28,-0.95,-0.99,-544.27,563.54,5.5,0.0,0.0,0.0,0.0,0.18,-7.49,-7.49,-0.86,-6.87,1.29,0.25,25.42,0.01,-0.26,3.43,100.0,0.0,0.0,74.22,0.0,0.0,0.0,0.0,0.0,0.0,0.0,6378.0,0.0,30.0,2.0,91.5,1.0,0.0,0.0,0.0,0.0,0.0,0.0,0.0,12.36,12.36,84.921,21.577,1.0,110.0,435.8,8750.0,0.0,0.0,110.0,110.0,433.0,0.0,0.0,0.0,1.0,333.3,83.6,83.6,71.9,71.9,34.0,-17.03,4.45,-7.9,1.7,2.0,-174.54,6.8,100.0,12.1,13.3,36.4,32.1,0.0,1.0,100.0,0.0,0.0,0.0,0.0,2727.0,2649.0,2872.0,4130.0,318.3,317.9,347.5,345.3,25.83,23.85,27.84,26.81,325.0,325.0,355.0,355.0,100.0,99.94,100.0,100.0,-0.24,-0.13,-0.21,-0.1,-0.1,-0.1,3.5,3.9,87.4,75.1,93.7,87.3,103.4,96.6,103.7,98.7,99.6,92.2,102.0,96.3,97.4,90.1,100.7,94.8,0.4,-0.41,0.05,0.07,0.0,77.9,77.7,74.22,74.22,356.7,7.7,0.5991660871578097,21.96620437353243,90.74563114608164,-7.202034272135727,-3.6010169938120384,0
249,12.4,319.9,44.05348875405956,-78.6801891596734,85.7,27.7,-253.2,-169.4,3672.7,3673.0,92.4,0.0,1.0,1.0,0.0,1.0,1.0,0.0,0.0,0.0,100.0,1.0,1.186,26.0,0.0,-17.823,74.678,66.0,0.0,26.0,26.0,26.0,26.0,-0.11,0.55,-0.35,392.9,-2.52,-2.17,-1.41,-1.47,-543.0,563.84,5.5,0.0,0.0,0.0,0.0,0.18,-7.49,-7.49,-1.11,-1.6,1.12,-3.35,25.69,-0.01,-0.28,4.04,100.0,0.0,0.0,77.96,0.0,0.0,0.0,0.0,0.0,0.0,0.0,6700.0,0.0,30.0,2.0,92.4,0.0,0.0,0.0,0.0,0.0,0.0,0.0,0.0,12.411,12.411,84.921,21.577,0.0,110.0,435.8,8750.0,0.0,0.0,110.0,110.0,433.0,0.0,0.0,0.0,1.0,166.7,80.3,80.3,84.8,84.8,34.0,-16.26,4.78,-4.2,0.3,2.0,-174.59,6.8,100.0,16.4,14.7,23.7,23.6,0.0,1.0,100.0,0.0,0.0,0.0,0.0,2801.0,2977.0,3443.0,1898.0,317.9,317.6,347.1,350.5,25.83,23.85,27.84,26.81,325.0,325.0,355.0,355.0,100.0,99.94,100.0,100.0,-0.18,-0.12,-0.25,-0.15,-0.1,-0.1,7.3,7.6,87.4,75.1,93.8,87.3,103.4,96.6,103.6,98.6,99.5,92.1,102.0,96.3,97.3,90.1,100.7,94.8,0.39,-0.4,0.1,0.08,0.0,78.91,78.56,77.96,77.96,356.7,7.7,0.6611353870426239,21.24600094631886,89.3052242916545,0.0,25.207119525707355,0
250,12.45,321.2,44.05349136209222,-78.68017827788198,52.2,201.1,118.1,-4.0,3674.0,3674.0,93.7,0.0,1.0,1.0,0.0,1.0,1.0,0.0,0.0,0.0,100.0,1.0,1.186,26.0,0.0,-17.805,74.678,66.0,0.0,26.0,26.0,26.0,26.0,-0.12,0.89,0.34,384.6,-2.25,-2.58,-1.33,-1.77,-541.79,564.13,5.5,0.0,0.0,0.0,0.0,0.18,-7.49,-7.49,-1.0,5.78,0.98,-5.1,26.06,-0.05,-0.28,4.77,100.0,0.0,0.0,76.9,0.0,0.0,0.0,0.0,0.0,0.0,0.0,6609.0,0.0,30.0,2.0,93.7,1.0,0.0,0.0,0.0,0.0,0.0,0.0,0.0,12.459,12.459,84.921,21.577,1.0,110.0,435.8,8750.0,0.0,0.0,110.0,110.0,433.0,0.0,0.0,0.0,1.0,333.3,72.3,72.3,69.3,69.3,34.0,-16.7,11.75,-16.8,3.0,2.0,-174.64,6.6,100.0,19.0,24.7,29.6,23.4,0.0,1.0,100.0,0.0,0.0,0.0,0.0,2821.0,4097.0,4712.0,4804.0,317.8,313.6,343.9,343.6,25.83,23.86,27.84,26.82,325.0,325.0,355.0,355.0,100.0,99.94,100.0,100.0,-0.22,-0.1,-0.43,-0.15,-0.1,-0.0,5.2,5.7,87.5,75.1,93.8,87.4,103.3,96.5,103.6,98.6,99.5,92.1,102.0,96.3,97.3,90.0,100.7,94.8,0.39,-0.38,0.08,0.09,0.0,80.42,80.0,76.9,76.9,356.7,7.7,0.9602603813549739,21.96620437353243,93.26634309865237,-2.8451182743083336e-07,21.606102531895175,0
251,12.5,322.5,44.053494239921356,-78.68016586724382,-10.9,-97.2,157.4,41.7,3675.3,3675.0,95.2,0.0,1.0,1.0,0.0,1.0,1.0,0.0,0.0,0.0,100.0,1.0,1.186,26.0,0.0,-17.805,74.678,66.0,0.0,26.0,26.0,26.0,26.0,-0.23,0.65,0.01,385.3,-2.14,-1.64,-1.22,-2.04,-540.41,564.45,5.5,0.0,0.0,0.0,0.0,0.18,-7.49,-7.49,-0.64,6.5,0.7,-1.69,26.45,-0.07,-0.17,5.36,100.0,0.0,0.0,77.34,0.0,0.0,0.0,0.0,0.0,0.0,0.0,6647.0,0.0,30.0,2.0,95.2,0.0,0.0,0.0,0.0,0.0,0.0,0.0,0.0,12.513,12.513,84.921,21.577,0.0,110.0,435.8,8750.0,0.0,0.0,110.0,110.0,433.0,0.0,0.0,0.0,1.0,166.7,77.7,77.7,63.7,63.7,34.0,-13.32,-0.9,-30.7,0.3,2.0,-174.69,6.7,100.0,18.5,19.9,37.5,25.5,0.0,1.0,100.0,0.0,0.0,0.0,0.0,2335.0,2838.0,5194.0,3390.0,319.1,317.4,342.5,346.9,25.84,23.87,27.85,26.82,325.0,325.0,355.0,355.0,100.0,99.94,100.0,100.0,-0.24,-0.21,-0.46,-0.3,-0.1,-0.1,3.3,3.8,87.5,75.2,93.8,87.4,103.2,96.5,103.6,98.6,99.4,92.0,102.0,96.2,97.2,90.0,100.7,94.7,0.39,-0.4,0.06,0.09,0.0,81.66,81.2,77.34,77.34,356.7,7.7,0.6895650803223725,21.246000917867676,91.46583454484401,-14.404068544271453,-28.80813651951911,0
252,12.55,323.8,44.053496668089686,-78.68015543511319,-30.1,-88.1,55.3,242.7,3676.7,3677.0,96.4,0.0,1.0,1.0,0.0,1.0,1.0,0.0,0.0,0.0,100.0,1.0,1.186,26.0,0.0,-17.787,74.678,66.0,0.0,26.0,26.0,26.0,26.0,-0.24,0.73,0.24,381.6,-2.13,-1.81,-0.94,-1.88,-539.25,564.72,5.5,0.0,0.0,0.0,0.0,0.18,-7.49,-7.49,-0.42,2.22,0.56,-3.72,26.79,-0.07,-0.11,3.86,100.0,0.0,0.0,77.1,0.0,0.0,0.0,0.0,0.0,0.0,0.0,6627.0,0.0,30.0,2.0,96.4,1.0,0.0,0.0,0.0,0.0,0.0,0.0,0.0,12.559,12.559,84.921,21.577,1.0,110.0,435.8,8750.0,0.0,0.0,110.0,110.0,433.0,0.0,0.0,0.0,1.0,333.3,81.8,81.8,62.1,62.1,34.0,-18.28,-1.9,-42.9,6.6,2.0,-174.74,6.7,100.0,16.9,15.5,40.3,37.7,0.0,1.0,100.0,0.0,0.0,0.0,0.0,2773.0,1630.0,6550.0,5617.0,318.1,321.0,339.6,340.8,25.84,23.87,27.85,26.82,325.0,325.0,355.0,355.0,100.0,99.94,100.0,100.0,-0.31,-0.33,-0.41,-0.18,-0.1,-0.1,2.3,2.9,87.5,75.2,93.8,87.4,103.2,96.4,103.5,98.6,99.3,91.9,101.9,96.2,97.1,89.9,100.6,94.7,0.39,-0.4,0.06,0.05,0.0,82.52,82.0,77.1,77.1,356.7,7.7,0.8050465825031492,20.525797519105286,90.38552944670046,3.6010175628356222,61.217291170897994,0
253,12.6,325.2,44.05349936605451,-78.6801432942715,69.2,-55.3,3.6,-2.8,3678.0,3678.0,97.5,0.0,1.0,1.0,0.0,1.0,1.0,0.0,0.0,0.0,100.0,1.0,1.186,26.0,0.0,-17.772,74.678,66.0,0.0,26.0,26.0,26.0,26.0,-0.31,0.7,0.07,381.4,-1.98,-2.84,-0.62,-0.77,-537.9,565.02,5.5,0.0,0.0,0.0,0.0,0.18,-7.49,-7.49,-0.47,-1.69,0.54,4.69,27.12,-0.04,-0.18,4.02,100.0,0.0,0.0,78.84,0.0,0.0,0.0,0.0,0.0,0.0,0.0,6776.0,0.0,30.0,2.0,97.5,0.0,0.0,0.0,0.0,0.0,0.0,0.0,0.0,12.609,12.609,84.921,21.577,0.0,110.0,435.8,8750.0,0.0,0.0,110.0,110.0,433.0,0.0,0.0,0.0,1.0,333.3,77.8,77.8,71.0,71.0,34.0,-42.75,0.73,-24.5,-6.7,2.0,-174.79,6.2,100.0,20.4,12.7,40.4,37.5,0.0,1.0,100.0,0.0,0.0,0.0,0.0,5268.0,1779.0,5302.0,4689.0,312.3,320.5,342.4,344.0,25.85,23.88,27.85,26.82,325.0,325.0,355.0,355.0,100.0,99.94,100.0,100.0,-0.37,-0.29,-0.39,-0.29,-0.1,-0.2,3.2,3.6,87.5,75.2,93.8,87.4,103.1,96.3,103.5,98.5,99.3,91.9,101.9,96.2,97.1,89.8,100.6,94.7,0.37,-0.36,0.05,0.05,0.0,83.4,82.97,78.84,78.84,356.7,7.7,0.7687652437513027,21.606102674151238,97.58756366193381,3.601016993812003,50.41423905141443,0
